NUM_POSTE,NOM_USUEL,LAT,LON,ALTI,NTrop_glissant_max,TnMoy_glissant_max,window_days,episode
1028001,BANEINS,46.122,4.9045,243,1.0,18.76,5,canicule-aout-2003
1033002,BELLEGARDE,46.0865,5.814167,350,0.0,16.46,5,canicule-aout-2003
1034004,BELLEY,45.769333,5.688,330,5.0,20.92,5,canicule-aout-2003
1037001,BENONCES,45.862333,5.484167,944,0.0,17.2,5,canicule-aout-2003
1071001,CESSY,46.310333,6.080333,507,1.0,18.84,5,canicule-aout-2003
1072001,CEYZERIAT_SAPC,46.204333,5.287667,260,1.0,18.360000000000003,5,canicule-aout-2003
1089001,AMBERIEU,45.9765,5.329333,250,3.0,19.860000000000003,5,canicule-aout-2003
1143001,DIVONNE,46.376667,6.156667,488,1.0,19.4,5,canicule-aout-2003
1174001,GIRON,46.23,5.7725,1015,0.0,17.2,5,canicule-aout-2003
1204002,BURL,46.166667,5.706667,530,0.0,15.5,5,canicule-aout-2003
1224002,LOYETTES,45.8065,5.238333,198,1.0,18.2,5,canicule-aout-2003
1235001,MARLIEUX,46.0385,5.044333,280,0.0,18.16,5,canicule-aout-2003
1235002,MARLIEUX,46.046667,5.073333,273,0.0,17.660000000000004,5,canicule-aout-2003
1243001,MESSIMY,46.047167,4.757667,175,0.0,18.0,5,canicule-aout-2003
1255002,MONTAGNIEU,45.794333,5.469333,336,5.0,22.7,5,canicule-aout-2003
1262004,MONTLUEL,45.907667,5.017167,275,0.0,16.94,5,canicule-aout-2003
1273001,NEUVILLE,46.083167,5.373833,291,1.0,18.7,5,canicule-aout-2003
1283001,OYONNAX,46.271667,5.661667,535,1.0,16.919999999999998,5,canicule-aout-2003
1350001,SAINT ETIENNE DU BOIS,46.296,5.279667,243,0.0,17.98,5,canicule-aout-2003
1367002,SAINT JULIEN SUR REYSSOUZE,46.403167,5.109833,189,1.0,18.34,5,canicule-aout-2003
1384001,SAINT RAMBERT EN BUGEY,45.931667,5.426667,285,0.0,16.240000000000002,5,canicule-aout-2003
1384003,ST RAMBERT CG01,45.950333,5.461,296,0.0,17.68,5,canicule-aout-2003
1414001,SUTRIEU,45.916167,5.624667,878,2.0,20.5,5,canicule-aout-2003
1441001,VIEU,46.088833,5.540833,615,0.0,15.680000000000001,5,canicule-aout-2003
1453001,VIRIEU-LE-PETIT,45.906833,5.718167,603,4.0,21.1,5,canicule-aout-2003
2031001,AUBENTON,49.834,4.2005,177,1.0,16.9,5,canicule-aout-2003
2035001,AUDIGNY,49.866667,3.65,150,1.0,18.78,5,canicule-aout-2003
2037002,AULNOIS-SS-LAON,49.595667,3.610333,78,0.0,17.160000000000004,5,canicule-aout-2003
2094001,BLESMES,49.009667,3.462667,222,2.0,19.380000000000003,5,canicule-aout-2003
2110002,BRAINE,49.351333,3.527,61,1.0,17.7,5,canicule-aout-2003
2153001,CESSIERES,49.553333,3.498333,107,2.0,19.22,5,canicule-aout-2003
2173002,CHAUNY,49.633833,3.197833,83,0.0,18.0,5,canicule-aout-2003
2197001,CLAIRFONTAINE,49.966667,3.966667,225,1.0,19.3,5,canicule-aout-2003
2199001,CLASTRES,49.742833,3.2285,75,0.0,17.6,5,canicule-aout-2003
2220001,COULONGES-COHAN,49.214167,3.605833,168,0.0,18.8,5,canicule-aout-2003
2239001,CREZANCY,49.05,3.5,125,1.0,17.9,5,canicule-aout-2003
2298001,ETREUX,49.987833,3.646833,120,0.0,18.4,5,canicule-aout-2003
2301002,FAUCOUCOURT,49.527333,3.462167,100,2.0,18.759999999999998,5,canicule-aout-2003
2320001,ST QUENTIN,49.818333,3.206,98,0.0,18.240000000000002,5,canicule-aout-2003
2321001,FONTAINE-VV MAN,49.836333,3.8795,184,3.0,20.04,5,canicule-aout-2003
2321002,FONTAINE-LES-VV,49.837333,3.877833,186,2.0,19.84,5,canicule-aout-2003
2346001,GIZY,49.599833,3.781,75,4.0,20.0,5,canicule-aout-2003
2471001,MARTIGNY-COURPI,49.485667,3.693167,95,1.0,17.7,5,canicule-aout-2003
2505001,MONTFAUCON,48.973333,3.441,217,5.0,21.2,5,canicule-aout-2003
2558001,NOUVION-EN-T,50.007833,3.7765,182,0.0,18.2,5,canicule-aout-2003
2580001,OULCHY-LE-CHATE,49.208667,3.417,122,2.0,19.160000000000004,5,canicule-aout-2003
2594001,PASSY EN VALOIS,49.165167,3.199667,141,0.0,18.360000000000003,5,canicule-aout-2003
2617001,POUILLY-SUR-SERRE,49.683833,3.597333,68,0.0,18.740000000000002,5,canicule-aout-2003
2705001,NIZY-LE-COMTE,49.566,4.0365,90,0.0,17.28,5,canicule-aout-2003
2734001,TAILLEFONTAINE,49.312667,3.044,140,2.0,19.0,5,canicule-aout-2003
2758001,VAILLY-SUR-AISN,49.412167,3.519333,65,3.0,19.3,5,canicule-aout-2003
3005001,ARCHIGNAT,46.359333,2.433667,370,2.0,20.18,5,canicule-aout-2003
3006003,ARFEUILLES,46.163667,3.7355,450,0.0,18.96,5,canicule-aout-2003
3029001,BILLY,46.233333,3.431667,286,0.0,19.0,5,canicule-aout-2003
3036002,BOURBON_SAPC,46.58,3.0495,270,4.0,21.240000000000002,5,canicule-aout-2003
3043001,BROUT-VERNET,46.187167,3.267667,315,2.0,19.919999999999998,5,canicule-aout-2003
3046001,BUXIERES,46.4535,3.004833,375,5.0,23.1,5,canicule-aout-2003
3059001,CHAREIL-CINTRAT_SAPC,46.275833,3.225667,286,2.0,19.62,5,canicule-aout-2003
3060001,VICHY-CHARMEIL,46.166667,3.398667,249,0.0,18.759999999999998,5,canicule-aout-2003
3061001,CHARMES_SAPC,46.0635,3.233667,330,5.0,21.9,5,canicule-aout-2003
3066003,CHATEL-MONTAGNE,46.1155,3.683,515,5.0,23.259999999999998,5,canicule-aout-2003
3073001,CHEMILLY,46.488333,3.315833,235,4.0,20.6,5,canicule-aout-2003
3082003,COMMENTRY,46.295,2.746667,370,5.0,21.86,5,canicule-aout-2003
3083002,CONTIGNY,46.3535,3.292333,305,5.0,21.26,5,canicule-aout-2003
3100001,DIOU,46.541667,3.706667,220,3.0,20.0,5,canicule-aout-2003
3106002,DURDAT-LAREQUILLE,46.251667,2.695667,500,5.0,22.6,5,canicule-aout-2003
3108001,ECHASSIERES_SAPC,46.191167,2.957667,650,5.0,21.78,5,canicule-aout-2003
3114001,FERTE-HAUTERIVE,46.376833,3.331,226,0.0,17.619999999999997,5,canicule-aout-2003
3127001,HERISSON,46.501167,2.757333,248,0.0,17.6,5,canicule-aout-2003
3130002,ISLE-ET-BARDAIS,46.663333,2.730167,262,5.0,20.6,5,canicule-aout-2003
3149002,LOUCHY-MONTFAND,46.303667,3.241833,280,2.0,19.619999999999997,5,canicule-aout-2003
3155001,LURCY-LEVIS,46.730167,2.935167,206,1.0,18.339999999999996,5,canicule-aout-2003
3155003,LURCY-LEVIS SA,46.718333,2.947667,225,0.0,18.940000000000005,5,canicule-aout-2003
3159001,MALICORNE,46.300333,2.7775,400,5.0,21.6,5,canicule-aout-2003
3165001,MAYET-DE-MONTAG,46.076833,3.684,542,2.0,19.48,5,canicule-aout-2003
3168001,MEAULNE,46.610833,2.610167,218,0.0,17.919999999999998,5,canicule-aout-2003
3180001,MONTBEUGNY,46.536333,3.423167,275,5.0,21.160000000000004,5,canicule-aout-2003
3185006,MONTLUCON,46.365,2.596333,207,5.0,22.639999999999997,5,canicule-aout-2003
3185007,MONTLUCON,46.355167,2.574667,229,3.0,20.979999999999997,5,canicule-aout-2003
3186001,MONTMARAULT,46.314833,2.9525,466,5.0,21.700000000000003,5,canicule-aout-2003
3200001,NEUVY,46.549667,3.2855,250,5.0,21.52,5,canicule-aout-2003
3204001,PARAY-SOUS-BRIAILLES,46.2835,3.337833,250,0.0,18.119999999999997,5,canicule-aout-2003
3226001,SAINT DIDIER_SAPC,46.365333,3.850167,293,1.0,18.04,5,canicule-aout-2003
3240001,ST-LEON,46.4025,3.685833,378,5.0,24.94,5,canicule-aout-2003
3248001,ST-NICOLAS,46.0515,3.805167,1022,5.0,22.959999999999997,5,canicule-aout-2003
3253001,ST-POURCAIN-BES,46.491667,3.615833,268,4.0,20.32,5,canicule-aout-2003
3285001,TORTEZAIS_SAPC,46.451333,2.857,256,1.0,19.04,5,canicule-aout-2003
3310001,VICHY-VILLE,46.117667,3.439,255,5.0,21.4,5,canicule-aout-2003
3321001,YZEURE,46.579167,3.352833,242,5.0,22.2,5,canicule-aout-2003
4006004,ALLOS,44.226667,6.631667,1370,0.0,12.4,5,canicule-aout-2003
4019001,BARCELONNETTE,44.391167,6.670167,1155,0.0,10.959999999999999,5,canicule-aout-2003
4027002,BEVONS,44.167,5.861833,520,0.0,15.64,5,canicule-aout-2003
4039001,CASTELLANE,43.849167,6.508,729,0.0,13.559999999999999,5,canicule-aout-2003
4049001,ST AUBAN,44.062167,5.989667,458,2.0,19.5,5,canicule-aout-2003
4068001,DAUPHIN,43.909833,5.767167,427,1.0,18.32,5,canicule-aout-2003
4070008,DIGNE,44.083333,6.225,585,0.0,17.98,5,canicule-aout-2003
4070009,DIGNE LES BAINS,44.07,6.186667,554,0.0,17.98,5,canicule-aout-2003
4096002,JAUSIERS-ST ANNE,44.413667,6.725167,1240,0.0,12.8,5,canicule-aout-2003
4096401,RESTEFOND-NIVOSE,44.34,6.8,2550,0.0,11.220000000000002,5,canicule-aout-2003
4112001,MANOSQUE,43.843333,5.785,380,0.0,17.3,5,canicule-aout-2003
4160001,REILLANNE,43.87,5.663333,455,0.0,18.5,5,canicule-aout-2003
4172001,ROUMOULES,43.7935,6.150833,665,1.0,19.5,5,canicule-aout-2003
4173002,ST ANDRE ALPES,43.958333,6.511667,882,0.0,13.36,5,canicule-aout-2003
4192001,ST MICHEL L OBS,43.933333,5.713333,650,5.0,21.82,5,canicule-aout-2003
4193002,ST PAUL,44.593,6.843333,1908,0.0,9.940000000000001,5,canicule-aout-2003
4193400,MALJASSET_NIVO,44.593,6.843333,1908,0.0,9.580000000000002,5,canicule-aout-2003
4205004,SEYNE-COL MAURE,44.320333,6.400167,1347,0.0,13.319999999999999,5,canicule-aout-2003
4209005,SISTERON,44.2245,5.916,500,0.0,16.439999999999998,5,canicule-aout-2003
4217001,THOARD,44.16,6.138333,785,0.0,16.96,5,canicule-aout-2003
4230001,VALENSOLE,43.8395,6.000833,600,4.0,20.64,5,canicule-aout-2003
5007001,ARVIEUX LA CHALP,44.781167,6.736667,1690,0.0,11.36,5,canicule-aout-2003
5023001,BRIANCON,44.908333,6.635,1324,0.0,14.919999999999998,5,canicule-aout-2003
5026001,CEILLAC,44.671167,6.776167,1665,0.0,14.819999999999999,5,canicule-aout-2003
5026400,CEILLAC_NIVO,44.671167,6.776167,1665,0.0,14.819999999999999,5,canicule-aout-2003
5028001,CHABESTAN,44.471667,5.781667,755,0.0,15.4,5,canicule-aout-2003
5046001,EMBRUN,44.571167,6.508667,873,1.0,19.78,5,canicule-aout-2003
5055001,LA FAURIE,44.566667,5.750167,825,0.0,12.46,5,canicule-aout-2003
5063402,LA MEIJE-NIVOSE,45.012333,6.265167,3093,0.0,8.820000000000002,5,canicule-aout-2003
5064001,CHAPELLE-EN-VALGAUDEMAR,44.81,6.195333,1270,0.0,15.48,5,canicule-aout-2003
5064403,LES PORTES EN VALGAUDEMAR_NIVO,44.81,6.195333,1270,0.0,15.48,5,canicule-aout-2003
5070003,LARAGNE MONTEGLIN,44.319167,5.7945,565,0.0,16.28,5,canicule-aout-2003
5077402,COL AGNEL-NIVOSE,44.688667,6.976167,2627,0.0,11.219999999999999,5,canicule-aout-2003
5079001,LE MONETIER LES BAINS,44.9715,6.514167,1459,0.0,10.9,5,canicule-aout-2003
5085001,MONTGENEVRE,44.9305,6.721333,1848,0.0,14.8,5,canicule-aout-2003
5093001,NEVACHE-EDF-03,45.0185,6.622333,1603,0.0,9.48,5,canicule-aout-2003
5098001,LES ORRES,44.508833,6.559333,1457,0.0,15.580000000000002,5,canicule-aout-2003
5101001,PELVOUX,44.866833,6.486667,1270,0.0,13.419999999999998,5,canicule-aout-2003
5101400,PELVOUX ST ANTOINE_NIVO,44.870833,6.487167,1270,0.0,13.419999999999998,5,canicule-aout-2003
5118002,RIBIERS-GRANGE,44.198167,5.881167,530,0.0,16.84,5,canicule-aout-2003
5118003,RIBIERS,44.2355,5.855,520,0.0,15.680000000000001,5,canicule-aout-2003
5126001,ROSANS,44.3875,5.462167,625,0.0,15.719999999999999,5,canicule-aout-2003
5132001,ST-BONNET CHAMPSAUR,44.684167,6.072833,1005,0.0,13.6,5,canicule-aout-2003
5139002,ST ETIENNE-EN-DEVOLUY,44.6945,5.9405,1300,0.0,12.639999999999999,5,canicule-aout-2003
5139400,St Etienne en Devoluy,44.69,5.937667,1281,0.0,12.639999999999999,5,canicule-aout-2003
5142001,ST FIRMIN,44.7825,6.035,935,0.0,14.819999999999999,5,canicule-aout-2003
5145002,ST JEAN-ST-NICOLAS,44.670833,6.209833,1210,0.0,17.160000000000004,5,canicule-aout-2003
5157001,ST VERAN,44.6985,6.870167,1992,0.0,12.080000000000002,5,canicule-aout-2003
5158001,LE SAIX,44.475833,5.8155,801,0.0,13.820000000000002,5,canicule-aout-2003
5170001,TALLARD,44.452167,6.033333,593,0.0,16.34,5,canicule-aout-2003
5182001,VILLAR LOUBIERE,44.826833,6.146,1072,0.0,14.9,5,canicule-aout-2003
5184002,VITROLLES,44.408667,5.951667,595,0.0,17.740000000000002,5,canicule-aout-2003
6004002,ANTIBES-GAROUPE,43.564667,7.133,75,5.0,26.32,5,canicule-aout-2003
6004009,ANTIBES_SAPC,43.599167,7.111167,32,5.0,24.0,5,canicule-aout-2003
6005001,ASCROS,43.922,7.013667,1173,4.0,20.939999999999998,5,canicule-aout-2003
6015001,BERRE-DES-ALPES,43.838333,7.321667,715,5.0,24.820000000000004,5,canicule-aout-2003
6016004,BEUIL,44.089,6.989333,1368,0.0,11.859999999999998,5,canicule-aout-2003
6022002,BOUYON,43.823,7.118167,723,5.0,22.0,5,canicule-aout-2003
6023004,BREIL SUR ROYA,43.940167,7.513667,305,5.0,23.339999999999996,5,canicule-aout-2003
6029001,CANNES,43.5565,6.9505,2,5.0,23.2,5,canicule-aout-2003
6033002,CARROS_SAPC,43.786667,7.209167,78,5.0,25.32,5,canicule-aout-2003
6037002,CAUSSOLS,43.752333,6.923167,1268,5.0,21.36,5,canicule-aout-2003
6048003,CONTES,43.8,7.316667,200,5.0,21.240000000000002,5,canicule-aout-2003
6050002,COURSEGOULES_SAPC,43.792,7.0485,985,5.0,22.419999999999998,5,canicule-aout-2003
6056400,ESTENC_NIVO,44.239167,6.753,1850,0.0,13.25,5,canicule-aout-2003
6057001,L ESCARENE,43.838,7.355,380,3.0,19.8,5,canicule-aout-2003
6059003,EZE,43.738833,7.365833,704,5.0,25.860000000000003,5,canicule-aout-2003
6069008,GRASSE,43.653667,6.9395,183,5.0,24.1,5,canicule-aout-2003
6071001,GUILLAUMES-OBS,44.090667,6.852333,788,0.0,12.5,5,canicule-aout-2003
6071003,GUILLAUMES,44.1,6.85,780,0.0,15.739999999999998,5,canicule-aout-2003
6073005,ISOLA 2000,44.1895,7.149,1912,0.0,11.6,5,canicule-aout-2003
6075006,LEVENS_RESERVOIRS,43.861667,7.236667,668,5.0,23.58,5,canicule-aout-2003
6077006,PEIRA CAVA,43.929167,7.363333,1443,3.0,20.259999999999998,5,canicule-aout-2003
6079002,MANDELIEU LA NAPOULE_SAPC,43.523667,6.898667,104,5.0,23.520000000000003,5,canicule-aout-2003
6083005,MENTON,43.785833,7.488667,216,5.0,27.82,5,canicule-aout-2003
6083006,MENTON-PORT,43.784,7.519333,19,5.0,27.32,5,canicule-aout-2003
6084002,MOUANS SARTOUX,43.611833,6.951167,165,5.0,25.259999999999998,5,canicule-aout-2003
6086001,MOULINET,43.942,7.414667,817,2.0,19.4,5,canicule-aout-2003
6088001,NICE,43.648833,7.209,2,5.0,26.720000000000006,5,canicule-aout-2003
6088009,NICE-ST ROMAN,43.751667,7.216667,323,5.0,23.74,5,canicule-aout-2003
6091003,PEILLE,43.775167,7.428333,1106,5.0,22.68,5,canicule-aout-2003
6094001,PEONE-VALBERG,44.1,6.933333,1659,0.0,14.2,5,canicule-aout-2003
6094002,PEONE,44.099667,6.930833,1784,0.0,16.64,5,canicule-aout-2003
6099004,PUGET THENIERS_SAPC,43.956833,6.892333,449,0.0,18.22,5,canicule-aout-2003
6106002,ROQUESTERON,43.876333,7.006167,405,1.0,18.919999999999998,5,canicule-aout-2003
6116002,ST AUBAN,43.847,6.727,1048,0.0,11.68,5,canicule-aout-2003
6118001,ST CEZAIRE,43.645167,6.797667,474,5.0,25.2,5,canicule-aout-2003
6120001,TINEE-AURON,44.222667,6.937333,1605,0.0,16.0,5,canicule-aout-2003
6121001,CAP FERRAT,43.683333,7.328333,138,5.0,27.1,5,canicule-aout-2003
6127001,ST-MARTIN-DE-VESUBIE-OBS,44.074167,7.254167,994,3.0,20.36,5,canicule-aout-2003
6127003,ST MARTIN VESUBIE,44.073667,7.258167,1044,3.0,20.220000000000002,5,canicule-aout-2003
6130001,ST-VALLIER-OBS,43.716667,6.833333,715,0.0,18.68,5,canicule-aout-2003
6130002,ST VALLIER,43.691333,6.843,708,1.0,19.360000000000003,5,canicule-aout-2003
6136004,SOSPEL-COLLETTA,43.866667,7.433333,540,5.0,20.4,5,canicule-aout-2003
6148001,TOURRETTES SUR LOUP,43.708167,7.055833,311,5.0,25.339999999999996,5,canicule-aout-2003
6152002,VALBONNE-SOPHIA,43.623167,7.0285,238,5.0,26.240000000000002,5,canicule-aout-2003
6153004,VALDEBLORE,44.069,7.1695,1058,0.0,18.9,5,canicule-aout-2003
6154002,VALDEROURE,43.792333,6.7345,1105,0.0,14.440000000000001,5,canicule-aout-2003
6163005,TENDE-CASTERINO,44.091833,7.5035,1554,0.0,13.0,5,canicule-aout-2003
6163007,TENDE_SAPC,44.043167,7.586,636,0.0,17.860000000000003,5,canicule-aout-2003
7005001,ALBA LA ROMAINE,44.539833,4.5825,223,2.0,20.1,5,canicule-aout-2003
7005002,ALBA SA,44.538833,4.582833,223,2.0,19.54,5,canicule-aout-2003
7010001,ANNONAY,45.246167,4.6705,336,3.0,20.32,5,canicule-aout-2003
7011004,ANTRAIGUES SA,44.712167,4.352167,600,5.0,23.02,5,canicule-aout-2003
7019005,AUBENAS SA,44.601667,4.409833,176,2.0,19.259999999999998,5,canicule-aout-2003
7025001,BARNAS RAD,44.666,4.159833,480,2.0,19.160000000000004,5,canicule-aout-2003
7032003,BERZEME SA,44.6285,4.5665,760,4.0,21.88,5,canicule-aout-2003
7064001,CHEYLARD SA,44.914833,4.4375,418,0.0,17.94,5,canicule-aout-2003
7066001,CHOMERAC SA_RCE,44.6995,4.648333,216,4.0,20.02,5,canicule-aout-2003
7068001,COLOMBIER JEUNE RAD,45.0155,4.671167,566,5.0,23.5,5,canicule-aout-2003
7069001,COLOMBIER VIEUX SA,45.063667,4.698,408,3.0,20.0,5,canicule-aout-2003
7075001,CROS GEORAND,44.780167,4.099667,1021,0.0,12.68,5,canicule-aout-2003
7101001,GROSPIERRES,44.411333,4.300833,127,2.0,18.839999999999996,5,canicule-aout-2003
7101002,GROSPIERRES SA,44.4115,4.295833,107,1.0,18.119999999999997,5,canicule-aout-2003
7105001,ISSANLAS,44.773167,3.981667,1215,0.0,15.5,5,canicule-aout-2003
7110001,JOYEUSE,44.477667,4.230833,212,3.0,20.34,5,canicule-aout-2003
7117001,LABLACHERE DROME,44.461333,4.234833,265,5.0,21.479999999999997,5,canicule-aout-2003
7117002,LABLACHERE,44.480833,4.208333,295,5.0,21.4,5,canicule-aout-2003
7128001,LALOUVESC,45.117833,4.535,1090,2.0,19.3,5,canicule-aout-2003
7131001,LANAS SYN,44.537167,4.368167,265,3.0,20.68,5,canicule-aout-2003
7144001,LOUBARESSE,44.599833,4.049333,1200,5.0,21.48,5,canicule-aout-2003
7154005,MAZAN ABBAYE RAD,44.733833,4.083833,1240,2.0,19.759999999999998,5,canicule-aout-2003
7159001,MIRABEL SA,44.5815,4.497333,275,1.0,19.060000000000002,5,canicule-aout-2003
7161001,MONTPEZAT SA,44.715667,4.207,602,5.0,21.74,5,canicule-aout-2003
7168001,ORGNAC AVEN,44.288333,4.421667,230,5.0,21.42,5,canicule-aout-2003
7172002,PEAUGRES RAD,45.286167,4.705833,480,5.0,23.259999999999998,5,canicule-aout-2003
7185001,PREAUX SA,45.14,4.665,525,5.0,22.580000000000002,5,canicule-aout-2003
7192001,ROCHEPAULE SA,45.081667,4.453333,1055,5.0,23.18,5,canicule-aout-2003
7202002,SABLIERES OARA,44.533,4.0725,540,5.0,23.619999999999997,5,canicule-aout-2003
7204005,ST-AGREVE,45.012167,4.401,1072,2.0,18.9,5,canicule-aout-2003
7228001,ST-DESIRAT SA,45.260333,4.783667,275,5.0,21.76,5,canicule-aout-2003
7230002,ESCRINET SA,44.715333,4.4905,737,2.0,19.32,5,canicule-aout-2003
7232001,ST-ETIENNE LUGDARES,44.651333,3.9485,1022,0.0,11.2,5,canicule-aout-2003
7237001,ST-FORTUNAT,44.816667,4.661667,205,2.0,20.04,5,canicule-aout-2003
7261001,ST-LAURENT PAPE,44.817833,4.746833,112,5.0,21.1,5,canicule-aout-2003
7265001,ST-MARCEL ANNONAY,45.296,4.642,494,1.0,19.7,5,canicule-aout-2003
7286004,ST PVILLE S.A.,44.82,4.488333,640,3.0,21.3,5,canicule-aout-2003
7294001,ST-SAUVEUR SA,44.296,4.26,149,2.0,19.72,5,canicule-aout-2003
7330004,VALLON SA,44.391833,4.403667,120,1.0,18.46,5,canicule-aout-2003
7331001,VALS-LES-BAINS,44.6695,4.360667,283,2.0,20.02,5,canicule-aout-2003
7334003,LES VANS SA,44.411667,4.118,275,5.0,23.139999999999997,5,canicule-aout-2003
7338001,VERNOUX,44.8995,4.652333,561,1.0,18.6,5,canicule-aout-2003
7338005,VERNOUX SA,44.893333,4.626667,510,0.0,14.84,5,canicule-aout-2003
8025001,ATTIGNY,49.475,4.575,81,1.0,18.880000000000003,5,canicule-aout-2003
8046001,BANOGNE-RECOUVRANCE,49.571667,4.129167,130,5.0,20.8,5,canicule-aout-2003
8092001,CAUROY,49.346833,4.465167,139,1.0,18.98,5,canicule-aout-2003
8105003,MONTCY-ST-PIER,49.773667,4.739667,145,2.0,19.4,5,canicule-aout-2003
8105005,CHARLEVILLE-MEZ,49.782833,4.643167,145,0.0,15.640000000000004,5,canicule-aout-2003
8116001,LE CHESNE,49.510333,4.766167,168,2.0,19.2,5,canicule-aout-2003
8145001,DOUZY,49.658,5.039833,153,0.0,16.46,5,canicule-aout-2003
8207001,HAM-SUR-MEUSE,50.116,4.7795,109,0.0,17.380000000000003,5,canicule-aout-2003
8239001,JUNIVILLE,49.397333,4.371667,90,0.0,17.36,5,canicule-aout-2003
8255001,LINAY,49.616833,5.216833,177,0.0,16.7,5,canicule-aout-2003
8354001,RAUCOURT - MAN,49.605,4.96,200,0.0,17.0,5,canicule-aout-2003
8362002,RETHEL - MAN,49.5025,4.363667,71,2.0,18.78,5,canicule-aout-2003
8362003,RETHEL,49.516667,4.373333,115,0.0,17.619999999999997,5,canicule-aout-2003
8363001,REVIN,49.9325,4.626667,130,0.0,17.6,5,canicule-aout-2003
8367001,ROCROI - MAN,49.921667,4.52,386,1.0,19.56,5,canicule-aout-2003
8367002,ROCROI,49.918667,4.53,382,2.0,19.3,5,canicule-aout-2003
8419001,SIGNY-L'ABBAYE,49.686,4.418833,180,0.0,17.22,5,canicule-aout-2003
8490001,VOUZIERS,49.404167,4.704,96,1.0,19.14,5,canicule-aout-2003
9022001,ARVIGNA,43.057833,1.729167,370,3.0,20.32,5,canicule-aout-2003
9023002,ASCOU LAVAIL,42.725333,1.8885,1090,0.0,12.4,5,canicule-aout-2003
9024004,ASTON,42.724167,1.691,1781,0.0,12.98,5,canicule-aout-2003
9024005,RULHE,42.638167,1.725833,2185,0.0,10.6,5,canicule-aout-2003
9027001,AUGIREIN,42.930167,0.92,655,0.0,15.4,5,canicule-aout-2003
9029001,AULUS-LES-BAINS,42.793833,1.333833,733,0.0,13.8,5,canicule-aout-2003
9029402,Aulus les Bains,42.793833,1.333833,733,0.0,12.625,5,canicule-aout-2003
9042003,LA BASTIDE DE S,43.024333,1.3885,420,0.0,16.0,5,canicule-aout-2003
9067001,BRIE,43.202667,1.524333,265,2.0,18.759999999999998,5,canicule-aout-2003
9071001,CADARCET,43.012667,1.501333,510,0.0,18.14,5,canicule-aout-2003
9079001,CARLA BAYLE,43.143,1.3745,375,5.0,22.4,5,canicule-aout-2003
9094001,CERIZOLS,43.126,1.063,374,0.0,16.8,5,canicule-aout-2003
9139001,HOSPITALET,42.588667,1.796333,1425,0.0,16.86,5,canicule-aout-2003
9161003,LERAN,42.990333,1.919167,391,1.0,16.98,5,canicule-aout-2003
9181003,LE MAS D AZIL,43.0735,1.357667,293,1.0,17.4,5,canicule-aout-2003
9185001,MAZERES,43.221333,1.673667,253,3.0,19.8,5,canicule-aout-2003
9194001,MIREPOIX,43.085833,1.87,310,3.0,20.479999999999997,5,canicule-aout-2003
9199002,MONTAUT,43.192167,1.6435,295,4.0,21.360000000000003,5,canicule-aout-2003
9206001,MONTFERRIER,42.891833,1.781167,760,4.0,20.7,5,canicule-aout-2003
9206002,MONT D'OLMES,42.843667,1.744333,1500,0.0,17.1,5,canicule-aout-2003
9206400,Mont d Olmes,42.843833,1.744167,1472,0.0,17.1,5,canicule-aout-2003
9225004,PAMIERS LYCAGRI,43.127,1.6455,294,4.0,20.8,5,canicule-aout-2003
9230001,LE PLA,42.715,2.083667,1040,0.0,13.1,5,canicule-aout-2003
9250001,LES CASCADES,42.963667,1.748,530,3.0,20.740000000000002,5,canicule-aout-2003
9277001,ST-YBARS,43.2515,1.4215,330,5.0,22.2,5,canicule-aout-2003
9289001,ST GIRONS,43.005333,1.106833,414,1.0,18.5,5,canicule-aout-2003
9290004,EYLIE D'EN HAUT,42.835167,0.9345,1010,0.0,18.42,5,canicule-aout-2003
9290400,SENTEIN EYLIE HAUT,42.835333,0.934667,1000,0.0,18.060000000000002,5,canicule-aout-2003
9301001,SOULAN,42.914667,1.234333,638,0.0,14.559999999999999,5,canicule-aout-2003
9306001,TARASCON SUR AR,42.850667,1.598333,475,1.0,16.7,5,canicule-aout-2003
9334004,VICDESSOS,42.771667,1.488167,750,0.0,15.9,5,canicule-aout-2003
10002001,AILLEVILLE_SAPC,48.254167,4.685667,195,0.0,18.080000000000002,5,canicule-aout-2003
10030001,TROYES-BARBEREY,48.324667,4.02,112,1.0,18.1,5,canicule-aout-2003
10057001,BOUY-SUR-ORVIN,48.439833,3.504833,102,2.0,19.66,5,canicule-aout-2003
10060001,BREVIANDES,48.263333,4.09,115,2.0,19.7,5,canicule-aout-2003
10075001,CHAMPFLEURY,48.619667,4.050833,118,2.0,19.0,5,canicule-aout-2003
10099002,CHESSY-LES-PRES_SAPC,48.0255,3.915,119,0.0,17.46,5,canicule-aout-2003
10102001,COLOMBE-LA-FOSSE-CIVC,48.261667,4.779667,252,3.0,20.8,5,canicule-aout-2003
10119001,CUNFIN_SAPC,48.0365,4.6785,315,4.0,21.62,5,canicule-aout-2003
10130001,DOSNON,48.609167,4.224667,115,0.0,17.0,5,canicule-aout-2003
10202001,LOGES-MARGUERON,48.082833,4.098667,150,0.0,16.979999999999997,5,canicule-aout-2003
10223001,MARCILLY-LE-HAY,48.346167,3.636,128,1.0,18.439999999999998,5,canicule-aout-2003
10228002,MATHAUX-ETAPE,48.353167,4.472333,145,2.0,19.3,5,canicule-aout-2003
10238001,MESNIL-ST-PERE,48.244833,4.322167,142,0.0,18.1,5,canicule-aout-2003
10255002,MONTREUIL,48.217333,4.275833,150,1.0,18.4,5,canicule-aout-2003
10317001,LES-RICEYS,47.997167,4.372,185,0.0,17.18,5,canicule-aout-2003
10317002,LES-RICEYS-CIVC,47.981333,4.3305,274,0.0,17.34,5,canicule-aout-2003
10323001,ROMILLY,48.503333,3.7495,77,1.0,16.94,5,canicule-aout-2003
10350001,ST-MARDS,48.169833,3.789,227,3.0,21.44,5,canicule-aout-2003
10360001,ST-POUANGE,48.238833,4.049833,122,1.0,18.68,5,canicule-aout-2003
10372001,SOULAINES,48.399333,4.671333,138,1.0,17.720000000000002,5,canicule-aout-2003
10429001,VILLETTE-SUR-AU,48.532833,4.119667,98,3.0,19.4,5,canicule-aout-2003
10438001,VITRY-LE-CROISE-CIVC,48.144333,4.554167,237,2.0,19.28,5,canicule-aout-2003
11004001,ALAIGNE,43.1125,2.098333,293,5.0,22.48,5,canicule-aout-2003
11012001,ARGELIERS,43.308167,2.911667,31,4.0,21.6,5,canicule-aout-2003
11013001,ARGENS-MINERVOIS,43.238333,2.768333,34,5.0,24.0,5,canicule-aout-2003
11016003,ARQUETTES-EN-VAL,43.100833,2.503333,240,4.0,24.139999999999997,5,canicule-aout-2003
11028001,BELCAIRE,42.8195,1.968,980,0.0,18.1,5,canicule-aout-2003
11041003,VILLESPASSANS,43.364167,2.880833,219,5.0,21.999999999999996,5,canicule-aout-2003
11069001,CARCASSONNE,43.215333,2.2955,128,5.0,22.78,5,canicule-aout-2003
11075001,CASTANS,43.404667,2.494333,650,5.0,23.2,5,canicule-aout-2003
11076001,CASTELNAUDARY,43.305333,1.949167,160,4.0,21.22,5,canicule-aout-2003
11081003,CAUNES-MINERVOIS,43.334333,2.481,371,5.0,23.72,5,canicule-aout-2003
11113001,CUCUGNAN,42.848333,2.6,299,4.0,20.759999999999998,5,canicule-aout-2003
11115001,CUXAC-CABARDES,43.351167,2.272167,499,5.0,22.5,5,canicule-aout-2003
11124003,DURBAN-CORBIERES,42.993333,2.819167,120,4.0,21.32,5,canicule-aout-2003
11140001,FERRALS-LES-CORBIERES,43.147167,2.7325,65,5.0,24.1,5,canicule-aout-2003
11144001,FITOU,42.894667,2.995833,9,5.0,26.5,5,canicule-aout-2003
11168001,GRANES,42.909167,2.2505,420,4.0,20.16,5,canicule-aout-2003
11185001,LAGRASSE,43.0915,2.621833,130,3.0,20.5,5,canicule-aout-2003
11198001,LAURE-MINERVOIS,43.268667,2.518167,80,5.0,23.48,5,canicule-aout-2003
11202001,LEUCATE,42.917333,3.059667,42,5.0,24.880000000000003,5,canicule-aout-2003
11203004,LEZIGNAN-CORBIERES,43.173,2.728833,60,5.0,24.36,5,canicule-aout-2003
11206003,LIMOUX,43.046,2.201167,230,5.0,22.34,5,canicule-aout-2003
11221004,LES MARTYS,43.4085,2.292333,760,1.0,18.560000000000002,5,canicule-aout-2003
11243001,MONTFERRAND,43.3535,1.821667,190,4.0,21.580000000000002,5,canicule-aout-2003
11260002,MOUTHOUMET,42.9595,2.529,538,3.0,21.26,5,canicule-aout-2003
11262002,NARBONNE-EGASSIAIRAL,43.179167,3.019167,5,5.0,23.6,5,canicule-aout-2003
11262005,NARBONNE,43.150333,2.955833,110,5.0,24.740000000000002,5,canicule-aout-2003
11295001,PORTEL-DES-CORBIERES,43.041,2.9435,29,5.0,24.2,5,canicule-aout-2003
11352001,ST LOUIS-ET-PARAHOU,42.850333,2.3405,684,1.0,18.16,5,canicule-aout-2003
11367001,SAISSAC,43.393333,2.165,630,1.0,16.6,5,canicule-aout-2003
11401001,TUCHAN,42.888333,2.723333,160,4.0,21.0,5,canicule-aout-2003
11404001,VENTENAC-CABARDES,43.264833,2.302333,123,4.0,21.6,5,canicule-aout-2003
12014001,AURELLE-VERLAC_SAPC,44.533667,3.012833,1076,5.0,21.380000000000003,5,canicule-aout-2003
12021001,BASTIDE EVEQUE,44.341333,2.139167,500,3.0,20.06,5,canicule-aout-2003
12023001,BASTIDE SOLAGES,43.951167,2.503,230,1.0,18.6,5,canicule-aout-2003
12024001,BELCASTEL,44.387333,2.339167,444,2.0,19.2,5,canicule-aout-2003
12025002,BELMONT LIMOU,43.822333,2.728,410,1.0,17.04,5,canicule-aout-2003
12026002,BERTHOLENE,44.384167,2.761833,665,2.0,19.919999999999998,5,canicule-aout-2003
12036001,BROMMAT,44.778,2.689667,732,3.0,20.16,5,canicule-aout-2003
12051001,CANTOIN,44.834667,2.814,930,1.0,17.1,5,canicule-aout-2003
12063003,MILLAU-LARZAC_SAPC,43.987,3.181833,794,0.0,17.12,5,canicule-aout-2003
12068001,COLOMBIES,44.357833,2.317167,647,5.0,23.520000000000003,5,canicule-aout-2003
12077002,CORNUS,43.922333,3.192167,718,0.0,14.48,5,canicule-aout-2003
12089002,DECAZEVILLE,44.575167,2.2405,325,5.0,20.92,5,canicule-aout-2003
12094002,ENTRAYGUES SUR,44.6375,2.566167,292,4.0,20.7,5,canicule-aout-2003
12102001,FLAVIN,44.279333,2.606333,657,0.0,18.1,5,canicule-aout-2003
12116001,HUPARLAC,44.713333,2.762,860,2.0,19.380000000000003,5,canicule-aout-2003
12119001,LAGUIOLE,44.682667,2.852833,1030,1.0,17.8,5,canicule-aout-2003
12145001,MILLAU,44.1185,3.0195,712,5.0,21.419999999999998,5,canicule-aout-2003
12148001,MONTBAZENS,44.484,2.220167,400,1.0,18.8,5,canicule-aout-2003
12150001,MONTEILS,44.265667,1.991667,268,0.0,16.68,5,canicule-aout-2003
12154002,MONTLAUR-PRIVAT,43.877333,2.836167,345,1.0,17.3,5,canicule-aout-2003
12154003,MONTLAUR,43.891667,2.836333,374,1.0,18.080000000000002,5,canicule-aout-2003
12155001,MONTPAON FONDAM,43.886667,3.147667,519,0.0,17.4,5,canicule-aout-2003
12194001,QUINS,44.239333,2.383,607,5.0,22.080000000000002,5,canicule-aout-2003
12197002,REQUISTA COMBEC,44.072667,2.555833,600,5.0,22.4,5,canicule-aout-2003
12214005,SA AUBRAC,44.631333,2.985167,1393,3.0,20.339999999999996,5,canicule-aout-2003
12216001,ST-COME-D'OLT,44.514667,2.827833,380,0.0,17.24,5,canicule-aout-2003
12253001,SALLES CURAN,44.151833,2.866167,959,4.0,20.88,5,canicule-aout-2003
12254001,RODEZ-AVEYRON,44.410333,2.4825,578,0.0,18.96,5,canicule-aout-2003
12300003,VILLEFRANCH IFIP,44.362833,1.9975,337,1.0,19.0,5,canicule-aout-2003
12300004,VILLEFRANCHE-DE-ROUERGUE,44.371833,2.023667,330,1.0,19.02,5,canicule-aout-2003
12301001,VILLENEUVE,44.471333,2.032833,353,3.0,19.9,5,canicule-aout-2003
13001006,AIX-LES MILLES,43.504667,5.365667,106,0.0,17.540000000000003,5,canicule-aout-2003
13001009,AIX EN PROVENCE,43.5295,5.4245,173,5.0,21.860000000000003,5,canicule-aout-2003
13004001,ARLES-VILLE,43.686667,4.611667,5,2.0,20.060000000000002,5,canicule-aout-2003
13004003,ARLES,43.51,4.693833,1,4.0,20.479999999999997,5,canicule-aout-2003
13004008,ARLES-ROUSTY,43.623333,4.528333,5,4.0,20.4,5,canicule-aout-2003
13005003,AUBAGNE,43.307333,5.601167,130,4.0,20.839999999999996,5,canicule-aout-2003
13010001,BARBENTANE,43.916667,4.743333,15,2.0,19.400000000000002,5,canicule-aout-2003
13022003,CASSIS,43.222167,5.503167,212,5.0,24.339999999999996,5,canicule-aout-2003
13028001,BEC DE L AIGLE,43.174667,5.574167,316,5.0,27.72,5,canicule-aout-2003
13035002,EYGUIERES,43.726333,5.008,160,0.0,18.380000000000003,5,canicule-aout-2003
13036003,EYRAGUES,43.847167,4.834833,17,1.0,18.3,5,canicule-aout-2003
13037001,LA FARE LES OLIVIERS,43.548333,5.2,53,5.0,21.4,5,canicule-aout-2003
13042001,GEMENOS,43.288333,5.618333,130,3.0,19.94,5,canicule-aout-2003
13047001,ISTRES,43.522667,4.9275,23,5.0,22.78,5,canicule-aout-2003
13050001,LAMBESC,43.668667,5.2865,260,5.0,20.84,5,canicule-aout-2003
13053002,MALLEMORT,43.715,5.206667,128,2.0,19.48,5,canicule-aout-2003
13054001,MARIGNANE,43.437,5.2115,6,5.0,24.06,5,canicule-aout-2003
13055025,MARSEILLE,43.255667,5.38,5,5.0,23.18,5,canicule-aout-2003
13056002,CAP COURONNE,43.331667,5.053333,27,5.0,26.02,5,canicule-aout-2003
13059003,MEYRARGUES,43.641667,5.513333,210,4.0,20.580000000000002,5,canicule-aout-2003
13060002,MEYREUIL,43.486667,5.526667,176,0.0,16.78,5,canicule-aout-2003
13062002,MIMET,43.4185,5.499667,416,4.0,20.8,5,canicule-aout-2003
13074002,PEYROLLES_FORET,43.623333,5.586667,295,0.0,17.339999999999996,5,canicule-aout-2003
13077001,PORT-DE-BOUC-SJ,43.432167,5.0025,18,3.0,19.96,5,canicule-aout-2003
13078001,PORT-ST-LOUIS-DU-RHONE-MAS,43.471667,4.786667,2,4.0,20.3,5,canicule-aout-2003
13080001,LE-PUY-STE-REPA,43.639,5.4435,277,0.0,17.619999999999997,5,canicule-aout-2003
13085001,ROQUEFORT-LA-BEDOULE,43.2515,5.625,354,5.0,20.6,5,canicule-aout-2003
13086001,ROQUEVAIRE,43.366667,5.611667,175,1.0,18.46,5,canicule-aout-2003
13089001,ST-ANDIOL,43.828333,4.971667,54,4.0,20.84,5,canicule-aout-2003
13091001,ST CANNAT,43.591333,5.251333,198,0.0,17.660000000000004,5,canicule-aout-2003
13097002,ST-MARTIN-CRAU,43.596667,4.851667,21,5.0,20.88,5,canicule-aout-2003
13100002,ST-REMY-DE-PROVENCE,43.791167,4.835,49,3.0,19.96,5,canicule-aout-2003
13103001,SALON DE PROVENCE,43.612833,5.108,58,2.0,20.139999999999997,5,canicule-aout-2003
13110003,TRETS,43.445333,5.698667,264,2.0,19.380000000000003,5,canicule-aout-2003
13111002,VAUVENARGUES,43.551,5.68,565,2.0,19.639999999999997,5,canicule-aout-2003
14020002,ARGENCES,49.140333,-0.155,53,2.0,18.8,5,canicule-aout-2003
14055002,BEAUMONT EN A.,49.256167,0.090833,140,1.0,18.3,5,canicule-aout-2003
14066001,BERNIERES,49.334,-0.430667,2,0.0,17.380000000000003,5,canicule-aout-2003
14126001,CAMBREMER,49.1455,0.041833,125,2.0,19.139999999999997,5,canicule-aout-2003
14137001,CAEN-CARPIQUET,49.18,-0.456167,67,1.0,17.64,5,canicule-aout-2003
14216001,DAMBLAINVILLE,48.928,-0.148667,155,2.0,19.6,5,canicule-aout-2003
14239001,ENGLESQUEVILLE,49.3875,-0.956667,38,0.0,16.82,5,canicule-aout-2003
14291002,FRESNEY LE VIEU,49.011667,-0.379333,175,0.0,16.14,5,canicule-aout-2003
14296001,LEGAST_SAPC,48.794667,-1.037167,336,4.0,20.96,5,canicule-aout-2003
14366002,LISIEUX_SAPC,49.165,0.227,62,0.0,16.8,5,canicule-aout-2003
14372001,LIVRY,49.099167,-0.7665,194,2.0,20.34,5,canicule-aout-2003
14431002,MEZIDON-CANON,49.0885,-0.077333,35,2.0,17.6,5,canicule-aout-2003
14488001,OUISTREHAM,49.266667,-0.25,10,0.0,17.2,5,canicule-aout-2003
14501002,PIERREFITTE CIN_SAPC,48.894,-0.3875,187,1.0,18.28,5,canicule-aout-2003
14515001,PORT EN BESSIN,49.349167,-0.772667,68,1.0,18.7,5,canicule-aout-2003
14578001,ST GATIEN DES B,49.3645,0.167,139,1.0,18.080000000000002,5,canicule-aout-2003
14579002,SAINT GEORGES D,49.0345,-0.686,185,2.0,19.66,5,canicule-aout-2003
14584001,SAINT GERMAIN D,48.822833,-0.9035,183,1.0,18.240000000000002,5,canicule-aout-2003
14624001,L OUDON LIEURY_SAPC,48.9895,-0.009167,52,0.0,17.119999999999997,5,canicule-aout-2003
14634001,SAINT MICHEL DE,49.006833,0.1295,140,1.0,18.0,5,canicule-aout-2003
14659001,ST SYLVAIN_SAPC,49.06,-0.234333,62,0.0,17.24,5,canicule-aout-2003
14727001,VAUBADON,49.21,-0.835333,105,1.0,18.000000000000004,5,canicule-aout-2003
14762001,VIRE,48.878167,-0.863833,103,1.0,16.82,5,canicule-aout-2003
15014004,AURILLAC,44.8915,2.419167,632,0.0,18.580000000000002,5,canicule-aout-2003
15050001,LE CLAUX,45.1725,2.7105,1033,0.0,16.4,5,canicule-aout-2003
15053001,COLTINES,45.074667,2.990667,979,0.0,13.48,5,canicule-aout-2003
15060001,DEUX-VERG,44.8005,3.013833,1098,0.0,16.6,5,canicule-aout-2003
15060002,DEUX-VERGES,44.8015,3.012667,1080,0.0,17.119999999999997,5,canicule-aout-2003
15067001,LE FAU,45.102333,2.607333,1060,1.0,18.6,5,canicule-aout-2003
15101004,LE LIORAN_SAPC,45.080833,2.747667,1236,0.0,15.86,5,canicule-aout-2003
15114002,MARCENAT,45.302667,2.833,1075,0.0,15.580000000000002,5,canicule-aout-2003
15118002,MARMANHAC,45.002833,2.4745,644,0.0,15.3,5,canicule-aout-2003
15119001,MASSIAC,45.263333,3.197833,533,0.0,16.4,5,canicule-aout-2003
15120001,MAURIAC-MOULIN,45.214833,2.3435,730,5.0,22.3,5,canicule-aout-2003
15120005,MAURIAC,45.222167,2.293167,674,2.0,18.88,5,canicule-aout-2003
15122002,MAURS,44.734167,2.166,480,4.0,21.259999999999998,5,canicule-aout-2003
15168003,RUYNES,45.001333,3.221333,905,0.0,14.620000000000001,5,canicule-aout-2003
15169001,SAIGNES,45.334167,2.4915,533,0.0,15.64,5,canicule-aout-2003
15181001,ST CONSTANT,44.684833,2.23,260,0.0,17.2,5,canicule-aout-2003
15187006,ST FLOUR,45.024333,3.067333,909,0.0,14.9,5,canicule-aout-2003
15219001,SALERS,45.141333,2.493167,945,4.0,19.8,5,canicule-aout-2003
15226001,SENEZERGUES,44.704,2.428167,530,5.0,21.48,5,canicule-aout-2003
15231001,TALIZAT,45.113833,3.037333,975,0.0,17.1,5,canicule-aout-2003
15248001,VALUEJOLS,45.053167,2.935833,1074,1.0,17.54,5,canicule-aout-2003
16005001,AIGRE,45.9015,0.011167,69,3.0,20.18,5,canicule-aout-2003
16012001,ANGEAC,45.611833,-0.313,57,3.0,20.34,5,canicule-aout-2003
16025003,BAIGNES BEL AIR,45.375833,-0.27,73,3.0,20.24,5,canicule-aout-2003
16052001,BORS,45.347333,0.118333,98,2.0,19.94,5,canicule-aout-2003
16057001,BOUTEVILLE,45.603167,-0.1275,67,4.0,21.04,5,canicule-aout-2003
16060001,BREVILLE,45.7835,-0.274833,21,3.0,20.04,5,canicule-aout-2003
16061003,BRIE,45.731833,0.205333,125,5.0,21.86,5,canicule-aout-2003
16089001,COGNAC,45.665,-0.315833,30,5.0,21.68,5,canicule-aout-2003
16090001,CHATEAUNEUF,45.588167,-0.0455,55,5.0,21.020000000000003,5,canicule-aout-2003
16106003,CONFOLENS,46.018833,0.670833,141,2.0,19.86,5,canicule-aout-2003
16113001,LA COURONNE,45.627833,0.099833,58,3.0,20.32,5,canicule-aout-2003
16123001,ECHALLAT,45.725833,-0.028333,116,4.0,20.759999999999998,5,canicule-aout-2003
16152001,GIMEUX,45.656667,-0.348167,22,2.0,20.000000000000004,5,canicule-aout-2003
16160002,GUIMPS,45.473333,-0.255667,93,3.0,20.54,5,canicule-aout-2003
16163001,HIERSAC,45.671,0.018667,87,5.0,21.46,5,canicule-aout-2003
16167001,JARNAC,45.687667,-0.151167,16,3.0,20.4,5,canicule-aout-2003
16169001,JAVREZAC,45.7125,-0.370833,67,5.0,21.52,5,canicule-aout-2003
16171001,JUILLAC-LE-COQ,45.58,-0.258,84,5.0,22.02,5,canicule-aout-2003
16211002,MARTHON,45.608833,0.4405,120,0.0,18.22,5,canicule-aout-2003
16225001,MONTEMBOEUF,45.787167,0.543,247,5.0,23.18,5,canicule-aout-2003
16226001,MONTIGNAC,45.777167,0.1015,63,4.0,20.28,5,canicule-aout-2003
16250001,ORGEDEUIL,45.680667,0.476667,134,0.0,18.5,5,canicule-aout-2003
16256001,PASSIRAC,45.334,-0.078667,114,3.0,20.06,5,canicule-aout-2003
16259002,LA PERUSE,45.884,0.613333,235,4.0,20.42,5,canicule-aout-2003
16279001,RIOUX MARTIN,45.262,0.003333,81,4.0,20.4,5,canicule-aout-2003
16280001,RIVIERES,45.7655,0.371667,109,2.0,20.140000000000004,5,canicule-aout-2003
16283002,RONSENAC,45.477833,0.253333,109,2.0,19.119999999999997,5,canicule-aout-2003
16292001,RUFFEC,46.022667,0.178167,121,3.0,19.9,5,canicule-aout-2003
16297001,GRAVES-SAINT-AMANT,45.647333,-0.102333,22,4.0,20.74,5,canicule-aout-2003
16301001,ST AULAIS,45.454167,-0.031667,100,3.0,20.18,5,canicule-aout-2003
16318001,ST FRONT,45.881667,0.295833,99,2.0,19.2,5,canicule-aout-2003
16346001,ST QUENTIN DE C,45.2435,0.071833,76,4.0,20.5,5,canicule-aout-2003
16360001,SALLES DE BARB,45.450667,-0.112667,74,2.0,20.02,5,canicule-aout-2003
16363001,SAULGOND_SAPC,45.956333,0.781667,228,2.0,20.14,5,canicule-aout-2003
16366001,SEGONZAC_SAPC,45.6145,-0.2235,62,4.0,21.04,5,canicule-aout-2003
16369001,SIGOGNE,45.735,-0.149167,74,5.0,21.720000000000002,5,canicule-aout-2003
16380001,LE TATRE,45.408167,-0.217333,97,3.0,20.080000000000002,5,canicule-aout-2003
16390001,TUSSON,45.949,0.062167,88,2.0,19.28,5,canicule-aout-2003
16397001,VERDILLE,45.888167,-0.064833,87,3.0,19.839999999999996,5,canicule-aout-2003
16403001,LE VIEUX CERIER_SAPC,45.9675,0.442,162,1.0,18.7,5,canicule-aout-2003
17004001,ILE-D AIX,46.019167,-1.1565,10,5.0,21.8,5,canicule-aout-2003
17016002,ARCHIAC,45.523333,-0.283333,56,3.0,20.619999999999997,5,canicule-aout-2003
17072001,BURIE,45.783333,-0.426667,56,5.0,21.520000000000003,5,canicule-aout-2003
17093002,CHATEAU D'OLERON,45.862167,-1.204333,3,5.0,22.939999999999998,5,canicule-aout-2003
17121001,COUARDE SUR MER,46.1945,-1.417667,3,5.0,21.119999999999997,5,canicule-aout-2003
17218001,MARANS,46.316333,-1.012167,2,5.0,21.02,5,canicule-aout-2003
17224001,MATHA,45.858667,-0.319667,38,2.0,19.8,5,canicule-aout-2003
17243002,MONTLIEU_SAPC,45.220167,-0.291833,89,2.0,20.380000000000003,5,canicule-aout-2003
17266001,LES NOUILLERS,45.935167,-0.687667,18,3.0,20.0,5,canicule-aout-2003
17268002,NUAILLE SUR BOUTONNE,46.019833,-0.406667,36,3.0,19.5,5,canicule-aout-2003
17300001,LA ROCHELLE,46.1525,-1.159,4,5.0,23.919999999999998,5,canicule-aout-2003
17300009,LA ROCHELLE-ILE DE RE,46.178,-1.193167,20,5.0,22.860000000000003,5,canicule-aout-2003
17306004,ROYAN-MEDIS,45.633,-0.974667,12,5.0,21.54,5,canicule-aout-2003
17308001,ST AGNANT,45.888,-0.984667,18,5.0,22.2,5,canicule-aout-2003
17323001,CHASSIRON,46.046833,-1.411667,11,5.0,23.12,5,canicule-aout-2003
17339002,ST GERMAIN DE LUSIGNAN,45.458333,-0.409667,71,5.0,21.5,5,canicule-aout-2003
17353001,ST-LAURENT PREE-INRAE,45.988333,-1.027,3,4.0,21.32,5,canicule-aout-2003
17415003,SAINTES,45.761167,-0.652,38,5.0,21.839999999999996,5,canicule-aout-2003
17418001,SALIGNAC,45.670667,-0.4225,15,3.0,20.18,5,canicule-aout-2003
17434002,SURGERES,46.096667,-0.737,25,3.0,19.46,5,canicule-aout-2003
17451001,LES-TOUCHES,45.916667,-0.233333,52,3.0,20.16,5,canicule-aout-2003
17469001,VILLARS EN PONS,45.6,-0.625,55,4.0,20.880000000000003,5,canicule-aout-2003
17477001,VILLIERS_SAPC,45.9875,-0.152,106,3.0,20.119999999999997,5,canicule-aout-2003
18015001,AUBIGNY,47.488333,2.441667,188,3.0,19.619999999999997,5,canicule-aout-2003
18015003,AUBIGNY-SUR-NERE,47.4995,2.427333,176,4.0,20.78,5,canicule-aout-2003
18033001,BOURGES,47.059167,2.359833,161,5.0,21.660000000000004,5,canicule-aout-2003
18057003,CHATEAUMEILLANT,46.564,2.2175,243,1.0,18.6,5,canicule-aout-2003
18059001,LE CHATELET,46.644,2.273833,210,0.0,18.080000000000002,5,canicule-aout-2003
18066002,CIVRAY,46.992167,2.182167,148,5.0,20.639999999999997,5,canicule-aout-2003
18087001,DUN,46.878333,2.566167,160,0.0,18.22,5,canicule-aout-2003
18087003,DUN-SUR-AURON,46.9055,2.557833,167,1.0,19.740000000000002,5,canicule-aout-2003
18090001,ETRECHY,47.147167,2.698667,194,3.0,19.82,5,canicule-aout-2003
18092001,AVORD,47.052167,2.642167,175,5.0,21.36,5,canicule-aout-2003
18103001,GRACAY,47.139333,1.844667,108,2.0,19.7,5,canicule-aout-2003
18109002,HENRICHEMONT,47.285833,2.579167,377,5.0,24.119999999999997,5,canicule-aout-2003
18125004,LERE,47.457833,2.893167,139,0.0,17.68,5,canicule-aout-2003
18127001,LIGNIERES,46.753333,2.1985,191,3.0,19.580000000000002,5,canicule-aout-2003
18135001,MAISONNAIS,46.672667,2.2235,219,5.0,21.740000000000002,5,canicule-aout-2003
18137001,MAREUIL,46.8805,2.155667,137,2.0,19.22,5,canicule-aout-2003
18159001,NANCAY,47.393167,2.201,142,1.0,17.94,5,canicule-aout-2003
18165001,NEUVY-SUR-BAR.,47.323,2.243833,154,0.0,17.240000000000002,5,canicule-aout-2003
18172001,ORVAL,46.721667,2.483167,165,1.0,19.479999999999997,5,canicule-aout-2003
18175001,OUROUER-LES-B.,46.919833,2.8185,253,5.0,23.02,5,canicule-aout-2003
18175003,OUROUER,46.925333,2.803333,221,0.0,18.0,5,canicule-aout-2003
18187004,PREVERANGES,46.425333,2.2365,462,5.0,22.98,5,canicule-aout-2003
18190001,QUINCY,47.129833,2.152333,124,0.0,18.419999999999998,5,canicule-aout-2003
18197004,ST-AMAND-MTROND,46.737333,2.502833,177,5.0,21.66,5,canicule-aout-2003
18223003,ST-MARTIN-D'A.,47.200667,2.416833,172,4.0,20.499999999999996,5,canicule-aout-2003
18241002,SANCERRE,47.336167,2.799,240,5.0,21.720000000000002,5,canicule-aout-2003
18242001,SANCOINS,46.831333,2.9265,203,0.0,17.740000000000002,5,canicule-aout-2003
18251001,SEVRY,47.138,2.804667,205,4.0,21.159999999999997,5,canicule-aout-2003
18269001,VAILLY,47.456833,2.641667,197,0.0,17.22,5,canicule-aout-2003
18269003,VAILLY/SAULDRE,47.453833,2.615833,226,0.0,19.080000000000002,5,canicule-aout-2003
18279001,VIERZON - VEVES,47.219167,2.0135,98,0.0,18.9,5,canicule-aout-2003
18279005,VIERZON,47.237833,2.073167,155,5.0,21.44,5,canicule-aout-2003
19010001,ARGENTAT,45.101333,1.9375,190,0.0,16.580000000000002,5,canicule-aout-2003
19029001,BRANCEILLES,45.011167,1.704833,190,2.0,19.240000000000002,5,canicule-aout-2003
19031008,BRIVE,45.146667,1.473333,115,1.0,18.22,5,canicule-aout-2003
19033001,BUGEAT,45.602667,1.930333,694,0.0,14.38,5,canicule-aout-2003
19034001,CAMPS,44.983667,1.988333,519,0.0,17.78,5,canicule-aout-2003
19036001,CHAMBERET,45.573667,1.724667,444,0.0,18.380000000000003,5,canicule-aout-2003
19073001,EGLETONS-MART.,45.405667,2.042833,638,4.0,20.7,5,canicule-aout-2003
19073006,EGLETONS,45.398833,2.059167,610,0.0,17.040000000000003,5,canicule-aout-2003
19121002,LUBERSAC,45.410333,1.411167,390,1.0,19.48,5,canicule-aout-2003
19125001,MARCILLAC,45.2835,2.039833,598,1.0,19.0,5,canicule-aout-2003
19134001,MERLINES,45.6255,2.462333,728,0.0,13.8,5,canicule-aout-2003
19136002,MEYMAC,45.534333,2.154333,670,0.0,15.76,5,canicule-aout-2003
19146001,NAVES,45.3215,1.772667,450,5.0,22.1,5,canicule-aout-2003
19148001,NEUVIC,45.379167,2.2815,615,0.0,17.0,5,canicule-aout-2003
19164001,PEYRELEVADE,45.701,2.058667,827,0.0,17.36,5,canicule-aout-2003
19237001,ST-PRIVAT,45.139,2.096,585,0.0,17.02,5,canicule-aout-2003
19272001,TULLE,45.2425,1.740333,235,0.0,16.6,5,canicule-aout-2003
19275001,USSEL-LAMARTINE,45.558833,2.321333,654,0.0,14.639999999999997,5,canicule-aout-2003
19275004,USSEL-LES PLAINES,45.527667,2.281667,670,0.0,14.1,5,canicule-aout-2003
19276006,UZERCHE,45.396333,1.568167,422,5.0,23.160000000000004,5,canicule-aout-2003
19288004,VOUTEZAC,45.279833,1.416,124,0.0,16.26,5,canicule-aout-2003
20004002,AJACCIO,41.918,8.792667,5,5.0,20.740000000000002,5,canicule-aout-2003
20004003,AJACCIO-PARATA,41.908333,8.618167,124,5.0,26.2,5,canicule-aout-2003
20007402,SPONDE-NIVOSE,42.324333,8.881667,1971,0.0,16.400000000000002,5,canicule-aout-2003
20009001,ALERIA-CASABIANDA 3,42.093333,9.502333,41,4.0,20.02,5,canicule-aout-2003
20033011,BASTIA-FANGO,42.704333,9.444833,26,5.0,25.439999999999998,5,canicule-aout-2003
20040001,BOCOGNANO-GARE,42.080167,9.0525,660,4.0,21.3,5,canicule-aout-2003
20041001,CAP PERTUSATO,41.374833,9.178333,107,5.0,25.02,5,canicule-aout-2003
20047001,CALACUCCIA-GEND,42.336167,9.0125,875,0.0,18.2,5,canicule-aout-2003
20050001,CALVI,42.5295,8.7915,57,5.0,26.679999999999996,5,canicule-aout-2003
20061002,CARBINI-COL DE MELA,41.669667,9.184333,1105,5.0,21.979999999999997,5,canicule-aout-2003
20092001,CONCA,41.717,9.3485,253,5.0,25.859999999999996,5,canicule-aout-2003
20093001,CORBARA COUVENT,42.602667,8.912,296,5.0,26.1,5,canicule-aout-2003
20093002,ILE ROUSSE,42.633333,8.9225,140,5.0,26.74,5,canicule-aout-2003
20096004,CORTE U SERENU,42.303,9.154,400,0.0,17.7,5,canicule-aout-2003
20096005,CORTE_FDF,42.299833,9.174333,362,2.0,19.139999999999997,5,canicule-aout-2003
20107001,CAP CORSE,43.003833,9.3595,72,5.0,27.380000000000003,5,canicule-aout-2003
20108001,EVISA-VILLAGE,42.254,8.803167,856,2.0,19.7,5,canicule-aout-2003
20108002,EVISA-ONF,42.263333,8.838667,1030,0.0,17.080000000000002,5,canicule-aout-2003
20114002,FIGARI,41.505167,9.103667,20,1.0,19.660000000000004,5,canicule-aout-2003
20121001,GALERIA-GEND,42.409,8.646667,29,4.0,21.2,5,canicule-aout-2003
20148001,BASTIA,42.540667,9.485167,10,5.0,23.96,5,canicule-aout-2003
20169001,MOROSAGLIA-GEND,42.462167,9.204,198,1.0,19.3,5,canicule-aout-2003
20185001,OLETTA,42.636667,9.343333,130,5.0,24.6,5,canicule-aout-2003
20223001,PIETRALBA,42.541,9.172,510,5.0,22.400000000000002,5,canicule-aout-2003
20232001,PILA CANALE-GEND,41.808833,8.913833,389,5.0,25.3,5,canicule-aout-2003
20232002,PILA-CANALE,41.8145,8.903667,407,5.0,25.6,5,canicule-aout-2003
20240001,GUAGNO LES BAINS,42.174833,8.890667,430,2.0,19.0,5,canicule-aout-2003
20246001,LA PORTA-GEND,42.4235,9.353333,522,5.0,25.1,5,canicule-aout-2003
20247001,LA CHIAPPA,41.594833,9.363167,57,5.0,24.94,5,canicule-aout-2003
20258001,RENNO,42.190167,8.807167,755,0.0,17.3,5,canicule-aout-2003
20268001,SAMPOLO,41.943,9.123,837,5.0,22.74,5,canicule-aout-2003
20269003,SARI SOLENZARA-SANTU,41.835,9.373333,397,5.0,25.0,5,canicule-aout-2003
20272004,SARTENE,41.652333,8.979333,62,3.0,20.4,5,canicule-aout-2003
20281001,CAP SAGRO,42.798333,9.488667,111,5.0,24.1,5,canicule-aout-2003
20284001,SOLLACARO,41.761667,8.874667,33,2.0,19.66,5,canicule-aout-2003
20303002,ALISTRO,42.259667,9.5415,65,5.0,27.080000000000002,5,canicule-aout-2003
20341001,VENACO-GEND,42.234833,9.174167,615,5.0,23.7,5,canicule-aout-2003
20341400,MANICCIA-NIVOSE,42.208333,9.0485,2379,0.0,13.7,5,canicule-aout-2003
20342001,SOLENZARA,41.921833,9.400833,12,5.0,24.1,5,canicule-aout-2003
21038001,AUXONNE,47.190167,5.38,185,3.0,19.66,5,canicule-aout-2003
21043001,BAIGNEUX LES JUIFS,47.600333,4.645167,415,3.0,20.7,5,canicule-aout-2003
21065001,BESSEY,47.086,4.743167,593,5.0,25.020000000000003,5,canicule-aout-2003
21131001,PAGNY-LE-CHATEAU,47.043167,5.190667,182,1.0,19.259999999999998,5,canicule-aout-2003
21154001,CHATILLON/SEINE,47.849333,4.581333,262,0.0,17.12,5,canicule-aout-2003
21231007,DIJON TOISON,47.358333,5.043333,270,3.0,19.860000000000003,5,canicule-aout-2003
21390001,MARSANNAY LA COTE,47.266667,4.986833,280,5.0,22.4,5,canicule-aout-2003
21425001,MONTBARD_SAPC,47.6285,4.3305,209,0.0,17.52,5,canicule-aout-2003
21473001,DIJON-LONGVIC,47.267833,5.088333,219,5.0,21.9,5,canicule-aout-2003
21501003,POUILLY EN AUX_SAPC,47.251333,4.561,412,3.0,21.240000000000002,5,canicule-aout-2003
21515001,QUETIGNY,47.316167,5.126167,217,2.0,19.240000000000002,5,canicule-aout-2003
21527001,LA ROCHEPOT,46.9525,4.674,417,1.0,19.1,5,canicule-aout-2003
21561003,ST-MARTIN-DU-M,47.4005,4.781167,578,5.0,23.1,5,canicule-aout-2003
21564001,ST NIC. CITEAUX,47.122167,5.072167,203,2.0,18.7,5,canicule-aout-2003
21567001,ARNAY_SAPC,47.124833,4.498667,396,0.0,17.6,5,canicule-aout-2003
21584001,SAULIEU,47.264167,4.215,586,5.0,21.94,5,canicule-aout-2003
21590001,SAVIGNY LES BEA,47.056333,4.836667,246,5.0,23.060000000000002,5,canicule-aout-2003
21603001,SEMUR EN AUXOIS_SAPC,47.482,4.34,314,3.0,19.939999999999998,5,canicule-aout-2003
21638002,TIL-CHATEL_SAPC,47.544833,5.2075,283,0.0,18.48,5,canicule-aout-2003
22016001,ILE-DE-BREHAT,48.855167,-3.0045,25,0.0,18.32,5,canicule-aout-2003
22032002,CAULNES-EDF,48.298333,-2.142167,75,1.0,18.22,5,canicule-aout-2003
22033001,CAUREL-EDF,48.207667,-3.051333,150,1.0,18.42,5,canicule-aout-2003
22052001,DUAULT,48.365,-3.411667,155,1.0,17.7,5,canicule-aout-2003
22092001,KERPERT,48.404,-3.147667,281,2.0,18.459999999999997,5,canicule-aout-2003
22108001,LANLEFF,48.691167,-3.0405,78,0.0,17.2,5,canicule-aout-2003
22113006,LANNION_AERO,48.755333,-3.468667,85,0.0,17.3,5,canicule-aout-2003
22135001,LOUARGAT,48.551667,-3.376833,148,1.0,16.66,5,canicule-aout-2003
22136001,LOUDEAC,48.165167,-2.765,130,0.0,17.220000000000002,5,canicule-aout-2003
22147006,MERDRIGNAC,48.188,-2.4205,145,1.0,17.919999999999998,5,canicule-aout-2003
22168001,PLOUMANAC'H,48.825833,-3.473167,55,0.0,17.48,5,canicule-aout-2003
22203002,PLOEUC-SUR-LIE,48.335,-2.770333,196,0.0,16.7,5,canicule-aout-2003
22219003,PLOUGUENAST,48.265833,-2.748333,235,2.0,17.919999999999998,5,canicule-aout-2003
22223002,PLOUISY,48.562,-3.2045,146,1.0,16.16,5,canicule-aout-2003
22247002,POMMERIT-JAUDY,48.742,-3.251,55,0.0,17.22,5,canicule-aout-2003
22261002,QUINTENIC,48.519167,-2.42,71,0.0,16.860000000000003,5,canicule-aout-2003
22263001,LE QUIOU,48.3445,-2.0085,20,0.0,17.14,5,canicule-aout-2003
22266001,ROSTRENEN,48.226667,-3.295333,236,2.0,18.46,5,canicule-aout-2003
22278005,SAINT BRIEUC,48.506167,-2.735667,84,1.0,18.96,5,canicule-aout-2003
22282001,SAINT-CAST-LE-G,48.6445,-2.247,35,1.0,18.6,5,canicule-aout-2003
22369001,TREMEUR,48.348167,-2.287833,69,0.0,17.3,5,canicule-aout-2003
22372001,ST BRIEUC,48.5365,-2.853167,135,1.0,18.16,5,canicule-aout-2003
23001001,AHUN LYCEE,46.093333,2.029833,460,0.0,18.380000000000003,5,canicule-aout-2003
23008004,AUBUSSON_SAPC,45.957833,2.187833,486,0.0,14.780000000000001,5,canicule-aout-2003
23008005,AUBUSSON LYCEE,45.952333,2.173333,440,0.0,16.419999999999998,5,canicule-aout-2003
23013001,AUZANCES_SAPC,46.0215,2.489333,564,1.0,18.740000000000002,5,canicule-aout-2003
23021001,BENEVENT_SAPC,46.121,1.6285,460,5.0,23.16,5,canicule-aout-2003
23025001,BONNAT,46.315333,1.916333,382,2.0,19.78,5,canicule-aout-2003
23030004,BOURGANEUF,45.942333,1.725833,513,2.0,19.9,5,canicule-aout-2003
23031002,BOUSSAC_SAPC,46.343333,2.228333,380,0.0,18.18,5,canicule-aout-2003
23045001,CHAMBON VOUEIZE,46.186833,2.424667,329,0.0,16.6,5,canicule-aout-2003
23067001,LA COURTINE,45.702667,2.263667,772,0.0,15.720000000000002,5,canicule-aout-2003
23075001,DUN LE PALESTEL,46.317833,1.666833,365,2.0,20.3,5,canicule-aout-2003
23079002,FELLETIN,45.880167,2.186,635,2.0,19.54,5,canicule-aout-2003
23093001,GOUZON,46.193,2.236833,378,0.0,17.3,5,canicule-aout-2003
23096001,GUERET BONGEOT,46.1805,1.879333,402,0.0,18.68,5,canicule-aout-2003
23096007,GUERET-GRANCHER,46.160667,1.867167,546,5.0,25.619999999999997,5,canicule-aout-2003
23096008,GUERET COURTIL,46.1665,1.8545,464,3.0,20.380000000000003,5,canicule-aout-2003
23108001,LEYRAT,46.360833,2.293333,416,2.0,19.2,5,canicule-aout-2003
23118001,MAISONNISSES,46.066167,1.904667,563,0.0,15.7,5,canicule-aout-2003
23142001,NEOUX,45.915667,2.260667,585,0.0,16.7,5,canicule-aout-2003
23155001,PONTARION_SAPC,45.995667,1.852833,455,0.0,15.8,5,canicule-aout-2003
23172001,LA SERRE BUSS,46.056833,2.319667,510,4.0,20.5,5,canicule-aout-2003
23176001,LA SOUTERRAINE,46.2425,1.451833,370,5.0,22.6,5,canicule-aout-2003
23257001,VALLIERES,45.899833,2.01,560,0.0,15.0,5,canicule-aout-2003
24026001,BASSILLAC,45.195,0.816667,95,2.0,19.0,5,canicule-aout-2003
24035003,BELVES,44.782667,0.956,238,4.0,21.580000000000002,5,canicule-aout-2003
24037001,BERGERAC TABAC,44.85,0.523333,33,2.0,20.4,5,canicule-aout-2003
24037005,BERGERAC,44.822833,0.524167,49,3.0,20.68,5,canicule-aout-2003
24050001,BORREZE SA,44.968333,1.416667,335,5.0,22.5,5,canicule-aout-2003
24076001,CAMPAGNE,44.892667,0.956167,189,5.0,20.9,5,canicule-aout-2003
24133002,LA COQUILLE,45.5445,0.982167,324,4.0,20.92,5,canicule-aout-2003
24138002,COULOUNIEIX SA,45.176333,0.700333,172,3.0,20.78,5,canicule-aout-2003
24158001,DUSSAC,45.411333,1.071167,335,,,5,canicule-aout-2003
24172001,LES EYZIES DE TAYAC,44.954667,1.021,112,0.0,16.9,5,canicule-aout-2003
24226001,LAMOTHE MONTRAV,44.837333,0.041167,9,3.0,20.5,5,canicule-aout-2003
24244001,LOLME,44.707167,0.832167,205,5.0,21.6,5,canicule-aout-2003
24294002,MONTPON,45.038333,0.176667,79,2.0,19.66,5,canicule-aout-2003
24299001,MUSSIDAN,45.019667,0.333667,59,2.0,19.0,5,canicule-aout-2003
24311003,NONTRON-HOPITAL,45.527333,0.666333,202,1.0,19.0,5,canicule-aout-2003
24335001,PORT STE FOY,44.85,0.185667,28,4.0,20.9,5,canicule-aout-2003
24336001,PRATS DE CARLUX,44.896167,1.322333,180,2.0,19.0,5,canicule-aout-2003
24376001,ST AULAYE,45.197833,0.155333,64,3.0,19.9,5,canicule-aout-2003
24437001,ST LAURENT VIGN,44.840833,0.419667,25,4.0,21.580000000000002,5,canicule-aout-2003
24452001,ST MARTIAL VIVEYROLS,45.357833,0.319333,166,5.0,21.9,5,canicule-aout-2003
24455001,ST MARTIN RIB.,45.234,0.372,142,5.0,21.0,5,canicule-aout-2003
24520005,SARLAT,44.898667,1.2255,203,4.0,21.000000000000004,5,canicule-aout-2003
24522001,SARRAZAC,45.440333,1.011167,305,5.0,22.0,5,canicule-aout-2003
24532001,SERRES ET MONTG,44.682167,0.429333,79,4.0,20.7,5,canicule-aout-2003
24554001,LA TOUR BLANCHE,45.3675,0.443833,150,2.0,19.1,5,canicule-aout-2003
25007001,ADAM-LES-VERCEL,47.169667,6.394667,665,3.0,20.759999999999998,5,canicule-aout-2003
25015001,AMANCEY,47.038333,6.076667,600,4.0,20.5,5,canicule-aout-2003
25021001,ARC-ET-SENANS,47.0315,5.782,235,0.0,18.1,5,canicule-aout-2003
25056001,BESANCON,47.249,5.988833,307,4.0,21.119999999999997,5,canicule-aout-2003
25127001,CHARQUEMONT,47.218833,6.815,884,0.0,16.240000000000002,5,canicule-aout-2003
25133001,CHATILLON-LE-DU,47.3065,6.001333,341,5.0,22.2,5,canicule-aout-2003
25195001,DANNEMARIE-SUR-,47.201333,5.872833,267,0.0,18.7,5,canicule-aout-2003
25219002,EPENOY,47.127167,6.366333,752,2.0,19.86,5,canicule-aout-2003
25315001,L'ISLE-ECOLE,47.451667,6.583333,292,0.0,16.880000000000003,5,canicule-aout-2003
25315002,ISLE - SA,47.441667,6.581667,320,0.0,16.76,5,canicule-aout-2003
25320001,LABERGEMENT,46.779667,6.2795,863,0.0,11.9,5,canicule-aout-2003
25334001,LEVIER_SAPC,46.949333,6.124167,713,0.0,13.9,5,canicule-aout-2003
25348002,LONGEVILLES,46.743667,6.3415,1193,1.0,19.12,5,canicule-aout-2003
25356003,MAICHE,47.243,6.791,825,0.0,14.48,5,canicule-aout-2003
25380001,MOROND,46.751667,6.355,1423,4.0,20.320000000000004,5,canicule-aout-2003
25388002,MONTBELIARD,47.503667,6.813333,318,1.0,18.54,5,canicule-aout-2003
25411005,MORTEAU SA,47.062333,6.612167,760,0.0,12.279999999999998,5,canicule-aout-2003
25413001,MOUTHE,46.707,6.2095,940,0.0,10.959999999999999,5,canicule-aout-2003
25413002,SOURCE DU DOUBS,46.707,6.2095,940,0.0,10.959999999999999,5,canicule-aout-2003
25453001,PIERREFONTAINE,47.216667,6.528833,695,0.0,16.1,5,canicule-aout-2003
25462001,PONTARLIER,46.927,6.32,808,0.0,15.38,5,canicule-aout-2003
25468001,POULIGNEY,47.333833,6.199,286,0.0,16.9,5,canicule-aout-2003
25512001,LE RUSSEY,47.162167,6.7375,891,0.0,14.6,5,canicule-aout-2003
25532001,SAONE,47.202667,6.092667,397,0.0,15.719999999999999,5,canicule-aout-2003
25635001,LOMONT,47.358667,6.625667,820,5.0,23.359999999999996,5,canicule-aout-2003
26002003,ALBON,45.252333,4.822333,153,1.0,18.040000000000003,5,canicule-aout-2003
26035001,BEAUFORT-S-GERV,44.778,5.139,379,5.0,21.859999999999996,5,canicule-aout-2003
26047001,BELLEGARDE-EN-D,44.535167,5.454333,1017,1.0,18.979999999999997,5,canicule-aout-2003
26050001,BESIGNAN,44.3205,5.317,556,2.0,20.04,5,canicule-aout-2003
26056001,BOURDEAUX,44.580167,5.142833,432,1.0,16.919999999999998,5,canicule-aout-2003
26063002,BUIS -BARONNIES,44.277833,5.270667,390,3.0,20.48,5,canicule-aout-2003
26064001,VALENCE-CHABEUI,44.914833,4.971833,163,2.0,19.18,5,canicule-aout-2003
26074001,CHAPELLE-EN-VERCORS_SAPC,44.9615,5.422167,879,0.0,16.3,5,canicule-aout-2003
26088001,CHATUZANGE-GOUB,45.038333,5.09,165,0.0,17.6,5,canicule-aout-2003
26100001,COMBOVIN,44.8345,5.09,820,3.0,20.22,5,canicule-aout-2003
26113003,DIE,44.767667,5.3435,384,0.0,15.979999999999999,5,canicule-aout-2003
26115001,DIVAJEU,44.726833,4.990333,175,4.0,20.18,5,canicule-aout-2003
26116002,DONZERE,44.429167,4.725333,66,2.0,19.6,5,canicule-aout-2003
26124001,ETOILE,44.819,4.8895,145,2.0,19.380000000000003,5,canicule-aout-2003
26142001,GLANDAGE_SAPC,44.674667,5.615167,1007,0.0,17.5,5,canicule-aout-2003
26165001,LIVRON,44.794167,4.830667,98,1.0,18.18,5,canicule-aout-2003
26167001,LUC-EN-DIOIS,44.617333,5.451,537,1.0,18.200000000000003,5,canicule-aout-2003
26168001,LUS L CROIX HTE,44.672833,5.710833,1059,0.0,14.02,5,canicule-aout-2003
26176001,MARSANNE,44.643333,4.871667,280,5.0,21.78,5,canicule-aout-2003
26177001,MARSAZ,45.113167,4.938667,213,1.0,18.26,5,canicule-aout-2003
26179001,MERCUROL,45.0585,4.8835,153,2.0,19.56,5,canicule-aout-2003
26188001,MOLLANS-S-OUVEZ,44.234167,5.183167,280,1.0,19.68,5,canicule-aout-2003
26191001,MONTBOUCHER-S-J,44.545,4.824167,136,0.0,18.060000000000002,5,canicule-aout-2003
26198001,MONTELIMAR,44.581167,4.733,73,3.0,20.1,5,canicule-aout-2003
26202001,MONTJOUX,44.5095,5.097167,491,3.0,20.84,5,canicule-aout-2003
26211001,MONTSEGUR-S-LAU,44.3615,4.860833,146,2.0,19.520000000000003,5,canicule-aout-2003
26220009,NYONS - CSP,44.356667,5.121667,270,5.0,22.479999999999997,5,canicule-aout-2003
26235001,PIERRELATTE,44.351833,4.715833,51,2.0,20.140000000000004,5,canicule-aout-2003
26258001,PUY-ST-MARTIN,44.618167,4.976833,211,4.0,20.6,5,canicule-aout-2003
26264002,REMUZAT,44.431667,5.367,475,0.0,15.440000000000001,5,canicule-aout-2003
26273002,ROCHEFORT-SAMSON_SAPC,44.990667,5.165167,368,5.0,21.880000000000003,5,canicule-aout-2003
26281001,ROMANS_SAPC,45.050167,4.998667,156,1.0,18.98,5,canicule-aout-2003
26292002,ST-AUBAN-SUR-OUVEZE,44.294833,5.409833,625,0.0,16.339999999999996,5,canicule-aout-2003
26295001,ST-BARTHELEMY-V_SAPC,45.173833,4.9025,203,0.0,16.8,5,canicule-aout-2003
26298001,ST-CHRISTOPHE-L_SAPC,45.229333,5.071833,452,5.0,22.54,5,canicule-aout-2003
26307001,ST-JEAN-EN-ROYA,45.009167,5.2925,308,2.0,19.860000000000003,5,canicule-aout-2003
26313001,ST-MARCEL-LES-V-INRAE,44.980167,4.931333,190,1.0,19.6,5,canicule-aout-2003
26321003,ST-NAZAIRE-LE-D,44.5545,5.284833,607,0.0,14.98,5,canicule-aout-2003
26327001,ST ROMAN-DIOIS,44.693833,5.428333,545,1.0,18.62,5,canicule-aout-2003
26330001,ST-SORLIN-EN-VA,45.271167,4.930333,237,3.0,20.119999999999997,5,canicule-aout-2003
26340001,SEDERON,44.202333,5.538833,804,0.0,12.360000000000001,5,canicule-aout-2003
26348001,TAULIGNAN,44.430167,4.989833,257,4.0,20.740000000000002,5,canicule-aout-2003
26361001,VALDROME,44.505333,5.576667,786,0.0,12.02,5,canicule-aout-2003
26362003,VALENCE - ZUP,44.93,4.916667,150,5.0,22.78,5,canicule-aout-2003
26377003,VINSOBRES,44.337333,5.060167,346,5.0,22.68,5,canicule-aout-2003
27016001,LES ANDELYS,49.244667,1.412833,16,1.0,18.2,5,canicule-aout-2003
27065001,BEUZEVILLE,49.329167,0.378833,133,0.0,18.1,5,canicule-aout-2003
27096001,LES BOTTEREAUX,48.8775,0.687,212,1.0,17.84,5,canicule-aout-2003
27112001,BRETEUIL,48.8375,0.907667,168,3.0,19.0,5,canicule-aout-2003
27116001,BRIONNE,49.1905,0.713667,59,0.0,16.8,5,canicule-aout-2003
27127001,CANAPPEVILLE,49.1545,1.072667,145,1.0,18.4,5,canicule-aout-2003
27183001,LA COUTURE-BOUS,48.894,1.4055,134,3.0,20.0,5,canicule-aout-2003
27226001,ETREPAGNY,49.307167,1.619333,92,1.0,18.3,5,canicule-aout-2003
27229003,EVREUX VILLE,49.023333,1.145833,65,2.0,19.8,5,canicule-aout-2003
27306001,GUICHAINVILLE,48.977,1.181667,147,2.0,19.619999999999997,5,canicule-aout-2003
27347001,EVREUX-HUEST,49.025,1.221667,138,1.0,20.1,5,canicule-aout-2003
27367001,LIEUREY,49.233,0.524667,163,0.0,17.7,5,canicule-aout-2003
27375001,LOUVIERS,49.204167,1.187167,25,2.0,19.2,5,canicule-aout-2003
27398001,MENNEVAL,49.104167,0.604333,162,0.0,17.3,5,canicule-aout-2003
27679001,VERNEUIL,48.748167,0.925,168,1.0,19.14,5,canicule-aout-2003
28041001,BLANDAINVILLE,48.3035,1.270667,163,1.0,19.18,5,canicule-aout-2003
28064002,BU_SAPC,48.8015,1.493167,132,1.0,18.740000000000002,5,canicule-aout-2003
28070001,CHARTRES,48.4605,1.501167,155,3.0,20.18,5,canicule-aout-2003
28134003,DREUX,48.755,1.366667,133,2.0,19.860000000000003,5,canicule-aout-2003
28190001,GUILLONVILLE_CA28,48.091333,1.666167,132,1.0,19.1,5,canicule-aout-2003
28195001,HOUX,48.566167,1.620833,107,3.0,19.5,5,canicule-aout-2003
28198001,CHATEAUDUN,48.061333,1.376333,126,5.0,20.96,5,canicule-aout-2003
28214003,LA LOUPE_SAPC,48.481,1.013333,200,1.0,18.6,5,canicule-aout-2003
28215001,LOUVILLE,48.329333,1.816833,145,2.0,19.74,5,canicule-aout-2003
28239001,MARVILLE - MAN,48.6535,1.368667,150,2.0,19.380000000000003,5,canicule-aout-2003
28239002,MARVILLE_SAPC,48.652667,1.371833,153,2.0,19.44,5,canicule-aout-2003
28252001,MIERMAIGNE -MAN,48.253333,0.989,267,5.0,21.02,5,canicule-aout-2003
28252002,MIERMAIGNE,48.253,0.99,267,5.0,21.68,5,canicule-aout-2003
28280001,NOGENT-LE-ROTROU,48.318667,0.797833,108,4.0,20.7,5,canicule-aout-2003
28280002,NOGENT,48.328667,0.800167,131,4.0,20.48,5,canicule-aout-2003
28300001,POINVILLE - MAN,48.175,1.896667,130,2.0,19.68,5,canicule-aout-2003
28300002,POINVILLE,48.1735,1.8945,130,2.0,19.66,5,canicule-aout-2003
28305001,PRE-ST-EVROULT,48.181333,1.4675,129,3.0,20.26,5,canicule-aout-2003
28322001,RUEIL,48.712167,0.959333,157,0.0,16.3,5,canicule-aout-2003
28322003,RUEIL,48.713,0.971,164,1.0,17.68,5,canicule-aout-2003
28363001,SAINVILLE,48.403833,1.903167,149,2.0,19.82,5,canicule-aout-2003
28373002,SENONCHES,48.558,1.012167,239,0.0,17.4,5,canicule-aout-2003
28380001,SOURS - MAN,48.406667,1.56,149,2.0,19.82,5,canicule-aout-2003
28386001,THIMERT,48.544167,1.302833,225,2.0,19.68,5,canicule-aout-2003
28406001,VIABON,48.196167,1.679833,138,1.0,19.46,5,canicule-aout-2003
28410001,VILLAMPUY,48.038333,1.492833,131,1.0,19.419999999999998,5,canicule-aout-2003
29004001,BANNALEC,47.929833,-3.701333,100,3.0,20.259999999999998,5,canicule-aout-2003
29018001,BRENNILIS,48.352667,-3.869,220,1.0,17.04,5,canicule-aout-2003
29021001,BRIGNOGAN,48.6765,-4.331,9,0.0,16.580000000000002,5,canicule-aout-2003
29022001,CAMARET,48.274333,-4.606,40,0.0,16.72,5,canicule-aout-2003
29024003,CARHAIX,48.277,-3.525667,150,1.0,16.7,5,canicule-aout-2003
29041002,CORAY CHAT EAU,48.066,-3.8255,242,1.0,18.3,5,canicule-aout-2003
29048003,EDERN,48.105333,-3.976667,150,2.0,17.54,5,canicule-aout-2003
29075001,BREST-GUIPAVAS,48.453833,-4.391167,92,1.0,17.46,5,canicule-aout-2003
29082001,BATZ,48.746333,-4.011833,32,1.0,17.28,5,canicule-aout-2003
29083001,SEIN,48.042833,-4.8675,7,1.0,17.6,5,canicule-aout-2003
29090001,KERLAZ,48.083333,-4.266667,88,1.0,16.96,5,canicule-aout-2003
29113001,LANMEUR,48.6625,-3.692667,57,1.0,16.64,5,canicule-aout-2003
29120001,LANVEOC,48.279333,-4.439333,81,0.0,17.919999999999998,5,canicule-aout-2003
29146001,MELGVEN,47.8975,-3.812333,83,0.0,18.32,5,canicule-aout-2003
29151001,MORLAIX,48.612,-3.8245,55,1.0,16.880000000000003,5,canicule-aout-2003
29155005,OUESSANT-STIFF,48.473333,-5.057,64,0.0,15.88,5,canicule-aout-2003
29156001,PENCRAN,48.441,-4.232167,146,2.0,18.0,5,canicule-aout-2003
29158001,PTE DE PENMARCH,47.7975,-4.374833,3,1.0,19.759999999999998,5,canicule-aout-2003
29163003,PLEYBER-CHRIST SA,48.5,-3.8535,147,1.0,17.42,5,canicule-aout-2003
29168001,PTE DU RAZ,48.038833,-4.732,67,1.0,17.78,5,canicule-aout-2003
29170001,PLOMELIN-INRAE,47.946,-4.128,33,0.0,17.86,5,canicule-aout-2003
29175001,PLONEVEZ-DU-FAOU,48.258667,-3.835,163,1.0,17.48,5,canicule-aout-2003
29178001,PLOUDALMEZEAU,48.548,-4.664167,40,0.0,16.52,5,canicule-aout-2003
29179001,PLOUDANIEL-INRAE,48.503833,-4.327667,76,1.0,16.860000000000003,5,canicule-aout-2003
29190001,PLOUGONVELIN,48.33,-4.771667,22,1.0,17.740000000000002,5,canicule-aout-2003
29216001,QUIMPER,47.973,-4.160667,82,2.0,18.48,5,canicule-aout-2003
29220002,PONT-L'ABBE,47.875667,-4.2195,17,1.0,18.24,5,canicule-aout-2003
29233003,QUIMPERLE S A,47.871667,-3.573333,70,2.0,19.259999999999998,5,canicule-aout-2003
29263002,ST-SEGAL S A,48.225833,-4.09,89,0.0,17.28,5,canicule-aout-2003
29264001,LANDIVISIAU,48.532,-4.151833,109,1.0,17.66,5,canicule-aout-2003
29276001,SIBIRIL S A,48.660833,-4.079167,52,0.0,16.98,5,canicule-aout-2003
29277001,SIZUN,48.391333,-4.0205,157,1.0,18.060000000000002,5,canicule-aout-2003
29278001,SPEZET,48.1735,-3.7295,138,1.0,17.240000000000002,5,canicule-aout-2003
30003001,AIGUES-MORTES,43.537167,4.207,1,5.0,23.04,5,canicule-aout-2003
30009001,ALZON,43.979,3.444,611,0.0,16.3,5,canicule-aout-2003
30015002,ARPHY,44.017667,3.595,427,0.0,17.1,5,canicule-aout-2003
30032007,TARASCON,43.829833,4.640167,15,3.0,20.04,5,canicule-aout-2003
30034003,BELLEGARDE,43.78,4.48,45,4.0,19.94,5,canicule-aout-2003
30068001,CARDET,44.021,4.079667,109,2.0,19.48,5,canicule-aout-2003
30076001,CAVILLARGUES,44.113,4.518667,131,1.0,18.48,5,canicule-aout-2003
30081002,CHUSCLAN,44.134833,4.708333,30,2.0,20.020000000000003,5,canicule-aout-2003
30087002,COLOGNAC,44.021833,3.825,589,2.0,19.66,5,canicule-aout-2003
30093003,CONQUEYRAC,43.9405,3.9,135,4.0,20.3,5,canicule-aout-2003
30101001,DEAUX,44.071833,4.143667,185,5.0,22.119999999999997,5,canicule-aout-2003
30123001,GALLARGUES LE MONTUEUX,43.714833,4.171667,17,4.0,21.0,5,canicule-aout-2003
30129001,GENERARGUES,44.073333,3.977667,139,1.0,18.12,5,canicule-aout-2003
30130001,GENOLHAC,44.342833,3.9615,519,5.0,23.08,5,canicule-aout-2003
30132004,LA GRAND COMBE,44.243,4.010167,499,5.0,23.86,5,canicule-aout-2003
30133001,LE GRAU DU ROI,43.496,4.137167,1,5.0,22.139999999999997,5,canicule-aout-2003
30151002,LUSSAN-PRAT,44.133333,4.401667,226,1.0,17.8,5,canicule-aout-2003
30154001,MANDAGOUT,44.0195,3.6265,485,5.0,22.72,5,canicule-aout-2003
30164001,MEJANNES-LE-CLAP,44.216333,4.331,313,3.0,20.619999999999997,5,canicule-aout-2003
30166001,MEYNES,43.861167,4.5255,71,5.0,20.9,5,canicule-aout-2003
30175001,MONTCLUS,44.268,4.430333,120,1.0,18.26,5,canicule-aout-2003
30189001,NIMES-COURBESSAC,43.856833,4.406333,59,5.0,21.939999999999998,5,canicule-aout-2003
30202002,PONT ST ESPRIT,44.248333,4.627333,79,3.0,20.3,5,canicule-aout-2003
30209002,PUJAUT,43.9985,4.759667,44,4.0,20.4,5,canicule-aout-2003
30221001,ROQUEMAURE,44.046667,4.783333,25,2.0,20.04,5,canicule-aout-2003
30224001,LA ROUVIERE,43.931833,4.2405,79,1.0,18.54,5,canicule-aout-2003
30225002,SABRAN,44.134167,4.567167,204,5.0,22.8,5,canicule-aout-2003
30243001,ST CHRISTOL-LES-ALES,44.092167,4.080333,129,3.0,20.1,5,canicule-aout-2003
30258001,NIMES-GARONS,43.772833,4.412833,94,5.0,22.880000000000003,5,canicule-aout-2003
30269006,ST JEAN DU GARD,44.1105,3.872,196,0.0,17.560000000000002,5,canicule-aout-2003
30273001,ST JULIEN DE PEYROLAS,44.277,4.579333,71,1.0,19.32,5,canicule-aout-2003
30283001,ST MARTIAL,44.035833,3.7345,483,5.0,23.059999999999995,5,canicule-aout-2003
30297001,ST SAUVEUR CAMPRIEU,44.119333,3.4745,1107,0.0,14.02,5,canicule-aout-2003
30305001,SALINDRES,44.1745,4.1525,191,1.0,18.54,5,canicule-aout-2003
30325001,SUMENE,43.9755,3.715667,198,0.0,18.5,5,canicule-aout-2003
30334003,UZES,43.9925,4.401833,72,0.0,17.939999999999998,5,canicule-aout-2003
30339001,MONT AIGOUAL,44.121333,3.5815,1567,3.0,20.56,5,canicule-aout-2003
30339006,VALLERAUGUE,44.081333,3.6345,360,0.0,15.739999999999998,5,canicule-aout-2003
30341001,VAUVERT-DDE,43.71,4.266667,17,5.0,22.1,5,canicule-aout-2003
30347001,VESTRIC-ET-CANDIAC,43.746833,4.2595,26,5.0,21.220000000000002,5,canicule-aout-2003
30349001,VIC LE FESQ,43.870833,4.072167,45,0.0,17.7,5,canicule-aout-2003
30350001,LE VIGAN,43.99,3.6115,222,0.0,17.560000000000002,5,canicule-aout-2003
30352002,VILLEVIEILLE,43.795167,4.090833,41,2.0,19.28,5,canicule-aout-2003
31035001,AUZEVILLE-TOLOSANE-INRAE,43.528833,1.503667,150,5.0,22.725,5,canicule-aout-2003
31042012,LUCHON,42.8015,0.600167,618,0.0,15.379999999999999,5,canicule-aout-2003
31069001,TOULOUSE-BLAGNAC,43.621,1.378833,151,5.0,22.46,5,canicule-aout-2003
31070004,BLAJAN,43.2565,0.643833,325,2.0,19.8,5,canicule-aout-2003
31123400,MAUPAS-NIVOSE,42.7145,0.5495,2417,0.0,13.86,5,canicule-aout-2003
31144001,CIERP-GAUD,42.911667,0.6375,500,3.0,19.8,5,canicule-aout-2003
31147001,CLARAC,43.106,0.617333,401,3.0,20.36,5,canicule-aout-2003
31157001,TOULOUSE-FRANCAZAL,43.540333,1.372667,164,5.0,22.44,5,canicule-aout-2003
31190001,FOS,42.871167,0.739167,544,0.0,18.42,5,canicule-aout-2003
31299001,MURET-LHERM,43.4515,1.262,189,4.0,20.7,5,canicule-aout-2003
31349001,MONDAVEZAN,43.2245,1.0585,261,2.0,20.02,5,canicule-aout-2003
31403002,ONDES,43.778333,1.321333,109,4.0,21.2,5,canicule-aout-2003
31406002,PALAMINY,43.2,1.05,243,1.0,19.080000000000002,5,canicule-aout-2003
31451001,REVEL,43.4375,2.018667,338,5.0,22.6,5,canicule-aout-2003
31508001,ST-PAUL-D'OUEIL,42.828333,0.55,1115,0.0,17.259999999999998,5,canicule-aout-2003
31508400,St Paul d Oueil,42.828333,0.55,1107,0.0,17.259999999999998,5,canicule-aout-2003
31540001,SEGREVILLE,43.491833,1.7425,212,4.0,20.64,5,canicule-aout-2003
31582003,VILLEFRANCHE/SA,43.406667,1.703333,170,4.0,21.18,5,canicule-aout-2003
31583001,VILLEMATIER,43.8275,1.475833,115,3.0,20.1,5,canicule-aout-2003
32013005,AUCH,43.689,0.601167,122,5.0,21.66,5,canicule-aout-2003
32035001,BEAUCAIRE,43.8425,0.372833,120,5.0,20.7,5,canicule-aout-2003
32095001,CAUSSENS,43.938667,0.448,184,5.0,21.119999999999997,5,canicule-aout-2003
32110002,COURRENSAN,43.858167,0.242833,153,5.0,21.459999999999997,5,canicule-aout-2003
32119003,EAUZE,43.862333,0.1325,165,3.0,21.120000000000005,5,canicule-aout-2003
32160001,ISLE-JOURDAIN,43.607667,1.0875,152,2.0,19.3,5,canicule-aout-2003
32208002,LECTOURE,43.933,0.638167,179,5.0,22.3,5,canicule-aout-2003
32219001,LUPIAC,43.683667,0.1825,245,5.0,21.28,5,canicule-aout-2003
32242005,MASSEUBE,43.437833,0.571,217,2.0,20.119999999999997,5,canicule-aout-2003
32242006,MASSEUBE-RABANEOU,43.413167,0.5885,223,3.0,20.5,5,canicule-aout-2003
32245001,MAUMUSSON,43.604333,-0.096667,164,5.0,21.78,5,canicule-aout-2003
32248001,MAUROUX,43.906833,0.824833,201,5.0,21.880000000000003,5,canicule-aout-2003
32256001,MIRANDE,43.530167,0.400833,184,5.0,21.24,5,canicule-aout-2003
32290001,MONTREAL,43.977,0.183,156,5.0,21.26,5,canicule-aout-2003
32315001,PEYRUSSE-GRANDE,43.616667,0.222,254,5.0,21.439999999999998,5,canicule-aout-2003
32338001,RAMOUZENS,43.818833,0.180833,164,4.0,21.3,5,canicule-aout-2003
32355001,SADEILLAN,43.399,0.349167,263,4.0,20.6,5,canicule-aout-2003
32357001,STE-ANNE,43.752,0.961,132,2.0,20.18,5,canicule-aout-2003
32408002,SALLES-D'ARMAGN,43.816,-0.0375,133,5.0,21.86,5,canicule-aout-2003
33029001,LE BARP,44.656667,-0.808333,55,3.0,20.76,5,canicule-aout-2003
33036001,BAZAS,44.438333,-0.23,85,3.0,21.34,5,canicule-aout-2003
33042001,BELIN-BELIET,44.4935,-0.7905,36,5.0,21.32,5,canicule-aout-2003
33049001,BEYCHAC ET CAIL,44.86,-0.353833,40,5.0,21.04,5,canicule-aout-2003
33063001,BORDEAUX-PAULIN,44.849667,-0.588667,10,5.0,23.7,5,canicule-aout-2003
33076001,BUDOS,44.533333,-0.37,24,2.0,20.1,5,canicule-aout-2003
33077002,CABANAC ET VILL,44.568333,-0.55,72,3.0,20.4,5,canicule-aout-2003
33080001,CADAUJAC-INRAE,44.7525,-0.5605,25,3.0,21.259999999999998,5,canicule-aout-2003
33095001,CAPTIEUX,44.295167,-0.2605,96,4.0,20.8,5,canicule-aout-2003
33116001,CAZATS,44.463167,-0.186167,114,4.0,21.14,5,canicule-aout-2003
33119001,CENON,44.856667,-0.5,66,5.0,22.360000000000003,5,canicule-aout-2003
33122003,PIERROTON-INRAE,44.738333,-0.776667,60,2.0,20.2,5,canicule-aout-2003
33138001,COUTRAS,45.040333,-0.1145,21,4.0,21.54,5,canicule-aout-2003
33145001,CURSAN,44.790667,-0.3515,94,5.0,22.0,5,canicule-aout-2003
33151001,DONNEZAC,45.243,-0.4425,62,3.0,20.859999999999996,5,canicule-aout-2003
33214002,LACANAU,45.001167,-1.138167,16,4.0,21.04,5,canicule-aout-2003
33230002,LAPOUYADE,45.126333,-0.286833,70,2.0,20.18,5,canicule-aout-2003
33234002,LATRESNE-INRAE,44.780667,-0.479167,64,5.0,21.939999999999998,5,canicule-aout-2003
33236002,CAP-FERRET,44.6305,-1.251667,8,5.0,23.16,5,canicule-aout-2003
33240001,LESPARRE MEDOC,45.310167,-0.921333,14,3.0,20.860000000000003,5,canicule-aout-2003
33242001,LES LEVES THOUM,44.773667,0.2085,80,3.0,20.46,5,canicule-aout-2003
33281001,BORDEAUX-MERIGNAC,44.830667,-0.691333,47,5.0,22.44,5,canicule-aout-2003
33314003,PAUILLAC-SUD,45.1885,-0.758833,19,5.0,21.98,5,canicule-aout-2003
33314005,PAUILLAC,45.214333,-0.782833,26,5.0,22.080000000000002,5,canicule-aout-2003
33328001,POMEROL,44.931667,-0.188333,35,5.0,21.7,5,canicule-aout-2003
33394002,ST EMILION,44.917667,-0.188,38,5.0,22.02,5,canicule-aout-2003
33415001,ST GERVAIS,45.027167,-0.472667,42,5.0,21.880000000000003,5,canicule-aout-2003
33432002,ST-LOUBERT,44.558333,-0.168333,34,4.0,20.0,5,canicule-aout-2003
33445001,ST-MARTIN-DU-BO,45.035667,-0.258167,66,5.0,21.3,5,canicule-aout-2003
33473001,ST-SAVIN,45.138833,-0.439167,90,5.0,22.3,5,canicule-aout-2003
33482001,ST SULPICE DE POMMIERS,44.683833,-0.12,82,4.0,21.119999999999997,5,canicule-aout-2003
33484002,ST-SYMPHORIENJ,44.41,-0.558333,75,3.0,20.0,5,canicule-aout-2003
33494001,SALAUNES,44.935833,-0.828667,50,4.0,20.8,5,canicule-aout-2003
33504001,SAUTERNES,44.544333,-0.326833,65,5.0,21.68,5,canicule-aout-2003
33506001,SAUVETERRE-DE-G,44.698333,-0.093333,75,4.0,21.54,5,canicule-aout-2003
33528001,LE TEMPLE,44.863667,-0.9385,43,3.0,20.380000000000003,5,canicule-aout-2003
33529001,CAZAUX,44.534667,-1.132,23,3.0,20.979999999999997,5,canicule-aout-2003
33540001,VENDAYS-MONTALIVE,45.378667,-1.119167,6,5.0,21.340000000000003,5,canicule-aout-2003
33541001,VENSAC DAVID,45.394,-1.0395,8,3.0,20.5,5,canicule-aout-2003
33544001,LE VERDON-SUR-M,45.543167,-1.042667,6,5.0,22.7,5,canicule-aout-2003
33550001,VILLENAVE D'ORNON-INRAE,44.79,-0.576667,25,5.0,22.4,5,canicule-aout-2003
34008001,LES AIRES,43.584167,3.108333,190,1.0,17.660000000000004,5,canicule-aout-2003
34026001,BEAUFORT,43.298333,2.756667,86,5.0,23.0,5,canicule-aout-2003
34028003,BEDARIEUX,43.639833,3.146,373,4.0,21.7,5,canicule-aout-2003
34030002,BERLOU,43.490833,2.963,191,5.0,23.46,5,canicule-aout-2003
34032002,BEZIERS-COURTADE,43.334333,3.155,25,4.0,20.78,5,canicule-aout-2003
34046005,CAMBON-ET-SALVERGUES,43.622333,2.865333,955,0.0,14.680000000000001,5,canicule-aout-2003
34064002,LE CAYLAR G.,43.86,3.325,730,0.0,17.660000000000004,5,canicule-aout-2003
34069001,CAZOULS-LES-BEZIERS,43.403,3.097167,97,3.0,19.68,5,canicule-aout-2003
34086001,COURNIOU,43.495,2.695333,501,4.0,20.6,5,canicule-aout-2003
34107006,MURAT SUR VEBRE,43.633333,2.8255,1022,4.0,20.84,5,canicule-aout-2003
34114001,GIGNAC,43.663333,3.563333,58,3.0,19.78,5,canicule-aout-2003
34135001,LESPIGNAN,43.274,3.165,23,5.0,22.64,5,canicule-aout-2003
34141002,LA LIVINIERE,43.314333,2.636167,131,5.0,22.34,5,canicule-aout-2003
34142001,LODEVE,43.730333,3.303167,184,4.0,20.2,5,canicule-aout-2003
34144001,LUNAS,43.695833,3.170667,249,0.0,17.08,5,canicule-aout-2003
34150001,MARSEILLAN-INRAE,43.328333,3.565333,1,4.0,22.119999999999997,5,canicule-aout-2003
34151005,MARSILLARGUES,43.633833,4.168,4,3.0,19.68,5,canicule-aout-2003
34154001,MONTPELLIER-AEROPORT,43.576167,3.964667,1,5.0,22.4,5,canicule-aout-2003
34163001,MONTARNAUD,43.635833,3.688167,148,2.0,18.7,5,canicule-aout-2003
34172001,MONTPELLIER-ENSAM,43.618333,3.858333,45,5.0,22.36,5,canicule-aout-2003
34174002,MOULES-ET-BAUCELS,43.948,3.752,252,4.0,20.68,5,canicule-aout-2003
34178001,MURVIEL LES BEZIERS,43.476,3.146,140,4.0,21.64,5,canicule-aout-2003
34186001,OCTON,43.655,3.306167,184,5.0,22.8,5,canicule-aout-2003
34205001,LES PLANS,43.786,3.246167,846,5.0,24.699999999999996,5,canicule-aout-2003
34209002,BEZIERS-VIAS,43.322,3.352667,15,4.0,21.259999999999998,5,canicule-aout-2003
34210001,LE POUGET,43.581667,3.521667,70,3.0,20.240000000000002,5,canicule-aout-2003
34217001,PRADES LE LEZ,43.718333,3.866667,69,1.0,18.56,5,canicule-aout-2003
34232001,ROQUEBRUN,43.501667,3.028333,155,5.0,22.92,5,canicule-aout-2003
34249002,ST DREZERY,43.728833,3.993333,71,2.0,19.4,5,canicule-aout-2003
34274001,ST MARTIN DE LONDRES,43.7795,3.729333,214,0.0,17.839999999999996,5,canicule-aout-2003
34300001,SERVIAN,43.442167,3.3315,66,4.0,21.12,5,canicule-aout-2003
34301002,SETE,43.397333,3.692167,75,5.0,24.979999999999997,5,canicule-aout-2003
34306001,SOUMONT,43.707,3.3475,252,5.0,24.34,5,canicule-aout-2003
34311001,PEZENAS-TOURBES,43.437667,3.400333,40,2.0,19.02,5,canicule-aout-2003
34322003,VALFLAUNES-PLAINE,43.788167,3.844667,126,3.0,19.479999999999997,5,canicule-aout-2003
34330001,VERARGUES,43.721333,4.096667,56,3.0,20.4,5,canicule-aout-2003
34337001,VILLENEUVE-LES-MAG-INRAE,43.538167,3.853833,20,5.0,22.82,5,canicule-aout-2003
34344001,LA GRANDE MOTTE,43.5565,4.082,2,5.0,23.26,5,canicule-aout-2003
35005001,ARBRISSEL,47.927333,-1.297333,75,1.0,18.72,5,canicule-aout-2003
35095002,DOL-DE-BRETAGNE,48.548333,-1.731667,19,1.0,17.22,5,canicule-aout-2003
35110002,FEINS,48.319,-1.596167,76,1.0,18.04,5,canicule-aout-2003
35115001,FOUGERES,48.337167,-1.212667,74,2.0,19.1,5,canicule-aout-2003
35162003,LOUVIGNE-DU-DESERT,48.479333,-1.129833,153,1.0,18.14,5,canicule-aout-2003
35167003,MARTIGNE-F.,47.833333,-1.31,72,0.0,18.9,5,canicule-aout-2003
35187001,MONTERFIL,48.061667,-2.0,88,0.0,16.619999999999997,5,canicule-aout-2003
35202001,LA-NOE-BLANCHE,47.780167,-1.765,89,2.0,19.36,5,canicule-aout-2003
35211001,PAIMPONT,48.0045,-2.2285,157,1.0,17.66,5,canicule-aout-2003
35228001,DINARD,48.584833,-2.076333,65,1.0,18.18,5,canicule-aout-2003
35240001,LE RHEU-INRAE,48.1125,-1.781167,38,1.0,18.66,5,canicule-aout-2003
35270002,ST-GEORGES,48.572667,-1.539167,6,0.0,16.7,5,canicule-aout-2003
35281001,RENNES-ST JACQUES,48.068833,-1.734,36,2.0,19.880000000000003,5,canicule-aout-2003
35299002,ST-MELOIR,48.64,-1.927333,40,0.0,18.0,5,canicule-aout-2003
36018001,LE BLANC,46.637167,1.073167,117,5.0,20.860000000000003,5,canicule-aout-2003
36035001,CHAILLAC,46.436667,1.291667,180,2.0,19.6,5,canicule-aout-2003
36037001,LA CHAMPENOISE,46.951667,1.77,177,3.0,20.68,5,canicule-aout-2003
36044001,CHATEAUROUX,46.786667,1.695,161,3.0,20.380000000000003,5,canicule-aout-2003
36063001,CHATEAUROUX  DEOLS,46.869833,1.741,158,5.0,21.86,5,canicule-aout-2003
36070001,EGUZON,46.436333,1.581,272,5.0,20.48,5,canicule-aout-2003
36085001,GUILLY,47.072667,1.757,135,1.0,19.32,5,canicule-aout-2003
36088004,ISSOUDUN,46.9425,1.978,138,5.0,20.940000000000005,5,canicule-aout-2003
36089003,JEU-LES-BOIS-AUTO,46.661667,1.798333,185,2.0,19.56,5,canicule-aout-2003
36093002,LEVROUX - TREG.,46.948667,1.663,169,4.0,21.139999999999997,5,canicule-aout-2003
36107001,LYE,47.228333,1.5,130,5.0,20.759999999999998,5,canicule-aout-2003
36113001,MARTIZAY,46.804667,1.040167,80,4.0,19.8,5,canicule-aout-2003
36127002,MONTGIVRAY,46.610167,1.974,204,1.0,18.96,5,canicule-aout-2003
36136001,MURS,46.925,1.168333,148,5.0,22.5,5,canicule-aout-2003
36146001,ORSENNES,46.465,1.668333,315,3.0,20.580000000000002,5,canicule-aout-2003
36155001,PELLEVOISIN,46.974833,1.406167,161,5.0,21.5,5,canicule-aout-2003
36162001,POULAINES,47.182833,1.615167,109,2.0,19.46,5,canicule-aout-2003
36171002,REUILLY,47.076667,2.026667,155,4.0,21.48,5,canicule-aout-2003
36173002,ROSNAY,46.703,1.249833,109,1.0,19.16,5,canicule-aout-2003
36208001,STE-SEVERE,46.488333,2.066667,302,5.0,21.919999999999998,5,canicule-aout-2003
36209001,ST-VALENTIN,46.981667,1.816667,177,2.0,19.86,5,canicule-aout-2003
36219001,TENDU_SAPC,46.6615,1.588333,155,3.0,19.52,5,canicule-aout-2003
37003001,AMBOISE,47.393833,0.976833,119,5.0,21.3,5,canicule-aout-2003
37003004,AMBOISE - LYCEE,47.394167,0.977,116,5.0,21.68,5,canicule-aout-2003
37023002,BEAUMONT_SAPC,47.177167,1.211667,126,4.0,21.08,5,canicule-aout-2003
37055002,CHANNAY/LATHAN,47.4795,0.255333,87,1.0,19.76,5,canicule-aout-2003
37067003,CHEILLE,47.260833,0.403833,60,2.0,20.080000000000002,5,canicule-aout-2003
37072002,CHINON - VITI,47.184333,0.233833,76,5.0,21.32,5,canicule-aout-2003
37087001,COURCOUE,47.0095,0.396333,115,5.0,21.56,5,canicule-aout-2003
37107001,FERRIERE-LARCON,46.9875,0.875,116,5.0,21.72,5,canicule-aout-2003
37109001,FONDETTES,47.425333,0.604167,93,2.0,20.380000000000003,5,canicule-aout-2003
37120001,INGRANDES -BLTO,47.288333,0.268333,56,4.0,21.119999999999997,5,canicule-aout-2003
37122003,JOUE-LES-TOURS,47.337167,0.665333,93,5.0,22.4,5,canicule-aout-2003
37128002,LIGNIERES-DE-T.,47.293,0.402833,32,3.0,19.2,5,canicule-aout-2003
37129001,LIGRE - PICHET,47.118333,0.251667,75,4.0,20.9,5,canicule-aout-2003
37129002,LIGRE,47.112333,0.273,67,4.0,20.8,5,canicule-aout-2003
37136002,LE LOUROUX,47.156333,0.696833,123,5.0,21.139999999999997,5,canicule-aout-2003
37179001,TOURS,47.4445,0.727333,108,5.0,21.82,5,canicule-aout-2003
37183001,PERRUSSON,47.110333,1.023833,110,2.0,19.3,5,canicule-aout-2003
37192001,REIGNAC,47.219333,0.899,90,5.0,20.860000000000003,5,canicule-aout-2003
37213001,ST-CHRIST.-SICA,47.611667,0.473333,64,1.0,19.1,5,canicule-aout-2003
37213003,ST-CHRISTOPHE-SUR-NAIS,47.6155,0.464333,107,4.0,20.5,5,canicule-aout-2003
37216002,ST-EPAIN,47.157167,0.604833,112,5.0,21.46,5,canicule-aout-2003
37224001,ST-LAURENT-EN-G,47.571333,0.7765,155,5.0,21.119999999999997,5,canicule-aout-2003
37240001,SAUNAY,47.590333,0.931333,109,4.0,20.880000000000003,5,canicule-aout-2003
37242002,SAVIGNY - VERON,47.227,0.149333,33,4.0,20.64,5,canicule-aout-2003
37253001,SUBLAINES,47.265,0.993167,111,5.0,21.339999999999996,5,canicule-aout-2003
38005001,ALLEMOND,45.203333,6.040333,1270,0.0,18.6,5,canicule-aout-2003
38021001,AUTRANS,45.182,5.552167,1069,0.0,14.26,5,canicule-aout-2003
38040001,BESSE,45.071167,6.168,1520,0.0,16.9,5,canicule-aout-2003
38053003,BOURGOIN,45.608,5.309333,358,5.0,22.84,5,canicule-aout-2003
38064001,CESSIEU,45.5635,5.404167,304,0.0,16.9,5,canicule-aout-2003
38095001,CHATTE_SAPC,45.140167,5.306,272,0.0,17.3,5,canicule-aout-2003
38103001,CHICHILIANNE,44.812,5.571,1010,0.0,15.2,5,canicule-aout-2003
38130001,LA COTE ST ANDRE,45.3545,5.262667,346,0.0,18.4,5,canicule-aout-2003
38135002,COURTENAY,45.738333,5.388333,315,4.0,21.0,5,canicule-aout-2003
38187400,LE GUA-NIVOSE,45.015,5.588667,1646,1.0,19.02,5,canicule-aout-2003
38191002,ALPE-D'HUEZ,45.087833,6.085667,1860,0.0,14.3,5,canicule-aout-2003
38215002,LUZINAY,45.590667,4.972167,310,5.0,22.040000000000003,5,canicule-aout-2003
38242001,MONESTIER,44.921667,5.6375,806,0.0,18.0,5,canicule-aout-2003
38253002,LES DEUX-ALPES,45.018333,6.126667,1670,0.0,15.8,5,canicule-aout-2003
38253407,Les 2 ALpes Jandri,44.997,6.204667,3200,0.0,5.5,5,canicule-aout-2003
38269001,LA MURE,44.905667,5.783667,881,0.0,15.2,5,canicule-aout-2003
38275001,SERRE-NERPOL,45.284167,5.352833,630,5.0,22.18,5,canicule-aout-2003
38299001,PELLAFOL-CHANEAUX,44.784167,5.906167,947,0.0,15.6,5,canicule-aout-2003
38315002,PONT-DE-BEAUVOISIN,45.528333,5.671333,284,1.0,18.259999999999998,5,canicule-aout-2003
38325001,PROVEYSIEUX,45.275,5.706667,600,5.0,21.3,5,canicule-aout-2003
38349001,SABLONS,45.329667,4.768667,136,1.0,18.1,5,canicule-aout-2003
38366001,ST-BAUDILLE,44.796,5.796167,1040,0.0,15.979999999999999,5,canicule-aout-2003
38375001,ST-CHRISTOPHE,44.9455,6.188167,1570,0.0,16.6,5,canicule-aout-2003
38375400,St Christophe,44.946667,6.188333,1570,0.0,16.6,5,canicule-aout-2003
38375402,LES ECRINS-NIVOSE,44.936833,6.346167,2970,0.0,10.34,5,canicule-aout-2003
38375403,La Berarde,44.932667,6.292,1738,0.0,13.5,5,canicule-aout-2003
38384001,GRENOBLE-ST GEOIRS,45.364,5.313333,384,2.0,19.04,5,canicule-aout-2003
38395001,ST-HILAIRE,45.307833,5.884,970,4.0,19.8,5,canicule-aout-2003
38395400,St Hilaire,45.308333,5.883333,970,4.0,20.2,5,canicule-aout-2003
38395403,ST HILAIRE-NIVOSE,45.313833,5.8635,1756,2.0,18.9,5,canicule-aout-2003
38442001,GRANDE-CHARTREUSE,45.363333,5.791833,945,0.0,19.04,5,canicule-aout-2003
38442005,ST-PIERRE-DE-CH,45.343333,5.816667,895,0.0,15.74,5,canicule-aout-2003
38472403,COL DE PORTE-NIVOSE,45.295,5.765333,1325,3.0,19.75,5,canicule-aout-2003
38522001,VALJOUFFREY,44.88,6.018333,980,0.0,13.919999999999998,5,canicule-aout-2003
38538002,GRENOBLE - LVD,45.217167,5.8485,220,1.0,18.04,5,canicule-aout-2003
38548001,VILLARD-DE-LANS,45.0785,5.561,1027,0.0,13.7,5,canicule-aout-2003
38548402,Villard de Lans,45.074833,5.555333,1020,0.0,14.0,5,canicule-aout-2003
38567002,CHAMROUSSE,45.128,5.878333,1730,0.0,16.8,5,canicule-aout-2003
38567401,Chamrousse,45.13,5.9,2250,,,5,canicule-aout-2003
39013002,ARBOIS,46.901667,5.743333,323,5.0,21.5,5,canicule-aout-2003
39013004,ARBOIS_SAPC,46.896,5.740167,313,5.0,21.52,5,canicule-aout-2003
39050001,BESAIN,46.785,5.796667,535,0.0,15.7,5,canicule-aout-2003
39085002,CERNIEBAUD,46.734667,6.115833,966,1.0,17.3,5,canicule-aout-2003
39086001,CERNON,46.398333,5.651667,500,2.0,18.759999999999998,5,canicule-aout-2003
39097003,CHAMPAGNOLE,46.756833,5.886,537,0.0,13.5,5,canicule-aout-2003
39138001,CHEMIN,46.978333,5.316167,184,3.0,19.6,5,canicule-aout-2003
39156001,COGNA,46.5815,5.764667,577,1.0,19.32,5,canicule-aout-2003
39159002,COLONNE,46.867667,5.572167,244,0.0,17.8,5,canicule-aout-2003
39198001,DOLE,47.063667,5.496,212,1.0,17.72,5,canicule-aout-2003
39225001,LE FIED SA,46.766667,5.72,525,0.0,15.74,5,canicule-aout-2003
39235001,FRAISANS,47.148667,5.768333,254,0.0,15.919999999999998,5,canicule-aout-2003
39275004,LAMOURA,46.390833,5.959667,1124,0.0,15.2,5,canicule-aout-2003
39362001,LONS LE SAUNIER,46.692833,5.517667,298,5.0,22.48,5,canicule-aout-2003
39413001,LA PESSE,46.302833,5.843,1133,0.0,16.259999999999998,5,canicule-aout-2003
39420001,PIMORIN,46.503333,5.505,503,0.0,16.7,5,canicule-aout-2003
39436001,PONT-D HERY,46.881667,5.9085,679,0.0,18.6,5,canicule-aout-2003
39470001,LES ROUSSES,46.481667,6.061667,1110,0.0,14.6,5,canicule-aout-2003
39478004,ST CLAUDE,46.445333,5.879667,580,0.0,16.48,5,canicule-aout-2003
39485002,ST JULIEN - SA,46.385167,5.448,361,0.0,15.36,5,canicule-aout-2003
39487004,ST LAURENT - SA,46.585,5.953333,880,0.0,12.52,5,canicule-aout-2003
39487005,ST LAURENT,46.576667,5.948333,895,0.0,12.6,5,canicule-aout-2003
39522001,SUPT,46.849667,5.962,657,0.0,15.419999999999998,5,canicule-aout-2003
39526001,TAVAUX,47.041667,5.416667,193,4.0,20.2,5,canicule-aout-2003
39526003,TAVAUX SA,47.043833,5.427333,195,1.0,18.7,5,canicule-aout-2003
40001001,AIRE MESTADE,43.700167,-0.2555,79,4.0,22.0,5,canicule-aout-2003
40002002,AMOU LATEOULERE,43.6105,-0.740167,48,5.0,22.919999999999998,5,canicule-aout-2003
40022002,BAHUS FLETON,43.6635,-0.3275,164,5.0,21.82,5,canicule-aout-2003
40031001,BEGAAR,43.833167,-0.836,19,4.0,21.619999999999997,5,canicule-aout-2003
40037001,BENQUET,43.826667,-0.530333,77,4.0,21.1,5,canicule-aout-2003
40046001,BISCARROSSE,44.431667,-1.2475,35,5.0,22.880000000000003,5,canicule-aout-2003
40048001,BOOS,43.8925,-1.012167,80,3.0,21.32,5,canicule-aout-2003
40065002,CAPBRETON,43.627333,-1.453333,11,5.0,22.759999999999998,5,canicule-aout-2003
40088001,DAX,43.689833,-1.07,31,4.0,22.52,5,canicule-aout-2003
40089001,DOAZIT,43.704833,-0.646833,95,4.0,21.6,5,canicule-aout-2003
40117001,GRENADE-SUR-AD,43.801,-0.4375,72,4.0,21.4,5,canicule-aout-2003
40150001,LEON,43.870833,-1.297833,21,4.0,21.7,5,canicule-aout-2003
40164002,RETJONS STNA,44.192,-0.306167,128,3.0,20.24,5,canicule-aout-2003
40167001,LUXEY,44.2605,-0.522667,90,3.0,20.1,5,canicule-aout-2003
40168001,MAGESCQ,43.743167,-1.226,46,4.0,22.28,5,canicule-aout-2003
40184007,MIMIZAN,44.207667,-1.2415,10,4.0,21.8,5,canicule-aout-2003
40192001,MONT-DE-MARSAN,43.909833,-0.500167,59,5.0,22.740000000000002,5,canicule-aout-2003
40218002,PARLEBOSCQ,43.936667,0.044167,155,5.0,20.8,5,canicule-aout-2003
40224002,PEYREHORADE LER,43.54,-1.102833,5,3.0,21.4,5,canicule-aout-2003
40227001,PISSOS,44.313667,-0.787333,56,4.0,20.82,5,canicule-aout-2003
40236001,POYARTIN,43.702333,-0.886167,47,4.0,21.14,5,canicule-aout-2003
40245004,ROQUEFORT,44.037667,-0.327,77,1.0,19.939999999999998,5,canicule-aout-2003
40246001,SABRES LEPA,44.146667,-0.7445,76,4.0,21.1,5,canicule-aout-2003
40246003,SABRES,44.153667,-0.859,81,4.0,21.14,5,canicule-aout-2003
40272001,ST MARTIN HINX,43.570667,-1.299,37,5.0,21.82,5,canicule-aout-2003
40272002,ST M HINX STNA-INRAE,43.570833,-1.299333,37,5.0,21.54,5,canicule-aout-2003
40304001,SOORTS-HOSSEGOR,43.669833,-1.426333,10,5.0,22.82,5,canicule-aout-2003
40321002,URGONS,43.639667,-0.435167,146,5.0,21.939999999999998,5,canicule-aout-2003
41018001,BLOIS - VILLE,47.572,1.3375,69,5.0,22.4,5,canicule-aout-2003
41050002,CHEVERNY,47.505167,1.436333,99,3.0,20.0,5,canicule-aout-2003
41075003,DROUE - MORACHE,48.016167,1.031667,206,4.0,19.9,5,canicule-aout-2003
41097001,ROMORANTIN,47.319667,1.6875,83,0.0,17.4,5,canicule-aout-2003
41106001,LAMOTTE-BEUVRON,47.6105,2.012,117,4.0,20.3,5,canicule-aout-2003
41116001,LISLE,47.849833,1.111667,85,5.0,21.4,5,canicule-aout-2003
41144001,MONTEAUX,47.485833,1.0845,100,4.0,20.68,5,canicule-aout-2003
41221001,ST-LEONARD-EN-B,47.798167,1.367333,126,5.0,21.68,5,canicule-aout-2003
41242001,SELLES-SUR-CHER,47.279833,1.597667,83,1.0,18.82,5,canicule-aout-2003
41243001,SELOMMES,47.752667,1.198167,120,5.0,21.5,5,canicule-aout-2003
41256002,THEILLAY,47.315333,2.089333,140,0.0,18.2,5,canicule-aout-2003
41281001,BLOIS,47.6785,1.212333,119,5.0,21.540000000000003,5,canicule-aout-2003
42005001,ST ETIENNE-BOUTHEON,45.545667,4.293833,395,5.0,21.080000000000002,5,canicule-aout-2003
42018001,BESSEY,45.388667,4.687333,425,3.0,20.279999999999998,5,canicule-aout-2003
42019002,BOEN-LIGN - MAN,45.756167,4.007333,447,5.0,20.24,5,canicule-aout-2003
42019004,BOEN SUR LIGNON,45.756333,4.007333,448,5.0,20.18,5,canicule-aout-2003
42023003,BG-ARGENT - MAN,45.295833,4.556833,562,3.0,19.98,5,canicule-aout-2003
42023004,BOURG-ARGENTAL,45.298667,4.5735,514,5.0,21.54,5,canicule-aout-2003
42032001,CELLIEU,45.533833,4.538667,493,5.0,23.26,5,canicule-aout-2003
42039002,CHALMAZEL,45.705,3.853167,855,0.0,13.4,5,canicule-aout-2003
42039003,CHALMAZEL_RA,45.699,3.844,990,0.0,15.639999999999997,5,canicule-aout-2003
42040001,COL DE LA LOGE_SAPC,45.743833,3.780333,1261,5.0,21.38,5,canicule-aout-2003
42052002,CHARLIEU,46.164,4.174167,278,0.0,17.18,5,canicule-aout-2003
42059001,CHAZELLES-LYON,45.642333,4.396333,632,5.0,21.560000000000002,5,canicule-aout-2003
42094001,FEURS - MAN,45.7335,4.2185,332,0.0,18.619999999999997,5,canicule-aout-2003
42094003,FEURS,45.7385,4.233833,347,1.0,19.1,5,canicule-aout-2003
42095001,FIRMINY,45.378167,4.2885,515,0.0,18.52,5,canicule-aout-2003
42098001,FOURNEAUX,45.941167,4.269167,510,5.0,23.92,5,canicule-aout-2003
42102001,GRAMMOND - MAN,45.565,4.442833,803,5.0,23.78,5,canicule-aout-2003
42102002,GRAMMOND_SAPC,45.564833,4.442833,803,5.0,23.5,5,canicule-aout-2003
42128001,MACHEZAL,45.931667,4.3085,608,5.0,24.220000000000002,5,canicule-aout-2003
42152001,NANDAX,46.097,4.191333,374,5.0,22.1,5,canicule-aout-2003
42156002,NEULISE,45.9065,4.178667,557,5.0,22.160000000000004,5,canicule-aout-2003
42163001,LA PACAUDIERE,46.1755,3.865833,351,5.0,21.34,5,canicule-aout-2003
42168004,CRET-DE-OEILLON,45.392667,4.6105,1370,5.0,21.86,5,canicule-aout-2003
42170001,PERREUX,46.028167,4.110667,297,1.0,18.419999999999998,5,canicule-aout-2003
42184001,RIORGES - MAN,46.048333,4.061,283,2.0,18.66,5,canicule-aout-2003
42184002,RIORGES,46.0545,4.040167,297,1.0,18.72,5,canicule-aout-2003
42193001,ROZIER-EN-DONZY,45.803833,4.278333,530,5.0,22.439999999999998,5,canicule-aout-2003
42199002,ST-ANDRE-APCHON,46.025,3.933333,380,5.0,21.580000000000002,5,canicule-aout-2003
42204002,ST-BONNET-LE-CHATEAU_SAPC,45.436167,4.072,822,2.0,19.68,5,canicule-aout-2003
42207002,ST-CHAMOND,45.459833,4.485667,400,1.0,19.0,5,canicule-aout-2003
42215001,ST DENIS DE CAB,46.174333,4.213333,287,1.0,18.1,5,canicule-aout-2003
42218001,ST-ETIENN - MAN,45.421833,4.417667,588,0.0,19.0,5,canicule-aout-2003
42218007,ST-ETIENN - MET,45.421833,4.417667,590,1.0,19.18,5,canicule-aout-2003
42218008,ST-ETIENNE - CT,45.466667,4.389667,482,5.0,21.259999999999998,5,canicule-aout-2003
42218011,SAINT-ETIENNE,45.435333,4.368167,640,4.0,20.3,5,canicule-aout-2003
42224003,COL REPUBLIQUE,45.352667,4.470833,1071,3.0,19.94,5,canicule-aout-2003
42230001,ST GERMAIN LAVA,45.837333,4.014167,435,2.0,19.36,5,canicule-aout-2003
42248002,ST-JUST-EN-CHEV,45.9085,3.844167,612,0.0,15.36,5,canicule-aout-2003
42257002,ST-MARTIN-D'EST,46.204333,3.816167,470,5.0,24.18,5,canicule-aout-2003
42272001,ST PIERRE DE BO,45.380667,4.750167,140,4.0,20.2,5,canicule-aout-2003
42299001,SAVIGNEUX,45.624833,4.078667,370,0.0,17.7,5,canicule-aout-2003
42306001,TARENTAISE,45.369,4.4985,1090,0.0,17.9,5,canicule-aout-2003
42328001,VERRIERES EN FO,45.572167,4.006333,770,1.0,19.259999999999998,5,canicule-aout-2003
43003001,ALLEGRE,45.203,3.718167,1035,0.0,15.819999999999999,5,canicule-aout-2003
43014001,AUTRAC,45.328667,3.131833,807,5.0,22.46,5,canicule-aout-2003
43015001,AUVERS,44.999833,3.3715,1134,0.0,12.420000000000002,5,canicule-aout-2003
43020002,BAS-EN-BASSET,45.319667,4.129,446,0.0,15.24,5,canicule-aout-2003
43046001,LE PUY-CHADRAC,45.054667,3.8945,714,0.0,16.02,5,canicule-aout-2003
43062001,LE PUY-LOUDES,45.0745,3.764,833,0.0,14.66,5,canicule-aout-2003
43067001,CHAVANIAC-LAFAYETTE,45.1595,3.582,715,0.0,18.66,5,canicule-aout-2003
43091002,ESTABLES.SA,44.912333,4.1545,1486,2.0,19.4,5,canicule-aout-2003
43093001,FELINES_SAPC,45.265833,3.742833,1014,0.0,13.579999999999998,5,canicule-aout-2003
43095001,FIX-ST-GENEYS,45.145833,3.665,1102,0.0,18.38,5,canicule-aout-2003
43096001,FONTANNES,45.300333,3.419667,435,0.0,16.78,5,canicule-aout-2003
43111002,LANDOS-CHARBON,44.858,3.843667,1148,0.0,15.66,5,canicule-aout-2003
43130002,MAZET-VOLAMONT,45.025,4.239833,1130,4.0,20.839999999999996,5,canicule-aout-2003
43132002,MAZEYRAT D'AL,45.106333,3.520833,538,0.0,16.8,5,canicule-aout-2003
43137003,MONISTROL-SUR-LOIRE,45.314,4.231167,777,1.0,18.94,5,canicule-aout-2003
43150001,LE PERTUIS_SAPC,45.098833,4.061333,1020,0.0,18.459999999999997,5,canicule-aout-2003
43157004,PUY-VILLE,45.0415,3.8895,620,0.0,17.240000000000002,5,canicule-aout-2003
43200001,ST-JULIEN-CHAP,45.037667,4.057667,810,0.0,14.139999999999997,5,canicule-aout-2003
43212001,ST-PAL-EN-CHALE,45.357333,3.957333,890,0.0,14.84,5,canicule-aout-2003
43215001,ST-PAUL-DE-TART,44.804333,3.869,1146,0.0,16.599999999999998,5,canicule-aout-2003
43223001,ST-ROMAIN-LACHALM,45.2615,4.3275,902,5.0,21.1,5,canicule-aout-2003
43234001,SAUGUES,44.957667,3.542167,940,0.0,12.7,5,canicule-aout-2003
43234005,SAUGUES-SA,44.966167,3.539833,945,0.0,12.8,5,canicule-aout-2003
43241002,SOLIGNAC-SUR-LO,44.973667,3.882667,832,0.0,16.04,5,canicule-aout-2003
43246001,TIRANGES,45.268333,3.998667,603,0.0,15.88,5,canicule-aout-2003
43268004,YSSINGEAUX,45.135167,4.1275,873,0.0,15.8,5,canicule-aout-2003
43268005,YSSINGEAUX LEP,45.133833,4.123333,898,0.0,18.1,5,canicule-aout-2003
44003001,ANCENIS,47.375,-1.1815,27,3.0,20.2,5,canicule-aout-2003
44015001,BLAIN,47.472833,-1.771667,13,1.0,18.2,5,canicule-aout-2003
44020001,NANTES-BOUGUENAIS,47.15,-1.608833,26,3.0,20.9,5,canicule-aout-2003
44051002,DERVAL,47.692333,-1.687167,43,3.0,19.279999999999998,5,canicule-aout-2003
44069002,GUERANDE,47.292333,-2.430167,4,4.0,21.48,5,canicule-aout-2003
44070001,HAIE-FOUASSIERE,47.161833,-1.384667,20,3.0,19.6,5,canicule-aout-2003
44072002,HERBIGNAC,47.4265,-2.3365,22,3.0,19.78,5,canicule-aout-2003
44087001,MACHECOUL,46.993333,-1.808333,5,4.0,20.5,5,canicule-aout-2003
44103001,ST NAZAIRE-MONTOIR,47.313833,-2.1545,3,3.0,19.64,5,canicule-aout-2003
44110002,NORT-SUR-ERDRE,47.425167,-1.513667,13,0.0,18.619999999999997,5,canicule-aout-2003
44117002,LE PALLET_SAPC,47.1415,-1.336833,35,3.0,20.380000000000003,5,canicule-aout-2003
44131001,PORNIC,47.101167,-2.071833,21,4.0,21.060000000000002,5,canicule-aout-2003
44168001,SAINT-JOACHIM_SAE,47.3815,-2.1925,3,3.0,19.360000000000003,5,canicule-aout-2003
44181001,ST-MEME-LE-TENU,47.005667,-1.7825,4,2.0,19.6,5,canicule-aout-2003
44184001,PTE DE CHEMOULIN,47.233667,-2.2985,14,4.0,21.479999999999997,5,canicule-aout-2003
44199002,SOUDAN,47.737167,-1.2765,77,2.0,19.5,5,canicule-aout-2003
45004001,AMILLY,47.962167,2.728,91,1.0,18.160000000000004,5,canicule-aout-2003
45040001,BONNY-SUR-LOIRE,47.567667,2.853,180,3.0,20.04,5,canicule-aout-2003
45055001,ORLEANS,47.990667,1.778167,123,1.0,19.560000000000002,5,canicule-aout-2003
45069001,CHAMBON-LA-F.,48.025167,2.260333,143,4.0,20.660000000000004,5,canicule-aout-2003
45096001,LES CHOUX,47.799833,2.676,148,1.0,18.1,5,canicule-aout-2003
45108001,COULLONS,47.611833,2.493667,156,0.0,17.22,5,canicule-aout-2003
45147001,FLEURY-LES-AUB.,47.925667,1.914333,119,5.0,20.5,5,canicule-aout-2003
45178001,LADON,48.009667,2.546167,99,3.0,19.9,5,canicule-aout-2003
45182001,LIGNY-LE-R.,47.684667,1.782833,96,2.0,18.8,5,canicule-aout-2003
45188001,LOURY,48.002333,2.071833,130,5.0,21.6,5,canicule-aout-2003
45200001,MENESTREAU-EN-V,47.726167,2.013667,126,3.0,19.919999999999998,5,canicule-aout-2003
45253001,PITHIVIERS-LE-V,48.166333,2.228333,120,5.0,21.479999999999997,5,canicule-aout-2003
45270002,ST-BENOIT/LOIRE,47.808,2.305667,112,3.0,20.28,5,canicule-aout-2003
45282001,ST-HILAIRE-ST-M,47.867,1.8445,100,4.0,21.619999999999997,5,canicule-aout-2003
45330001,TRINAY,48.0865,1.9405,123,3.0,19.6,5,canicule-aout-2003
45340001,VILLEMURLIN-PEUPLIERS,47.689,2.326667,137,1.0,17.6,5,canicule-aout-2003
46005001,ANGLARS,44.493333,1.208167,104,1.0,18.9,5,canicule-aout-2003
46024001,BELMONT-GRANVAL,44.873667,1.864667,152,3.0,19.6,5,canicule-aout-2003
46066001,CAZALS - DDE,44.640667,1.229833,184,1.0,17.6,5,canicule-aout-2003
46069001,CEZAC,44.362167,1.348167,267,4.0,21.0,5,canicule-aout-2003
46083001,CRESSENSAC,45.019333,1.520667,294,5.0,22.2,5,canicule-aout-2003
46102004,FIGEAC-VINADIE,44.573667,2.030167,304,4.0,20.440000000000005,5,canicule-aout-2003
46127001,GOURDON,44.745,1.396667,260,4.0,21.380000000000003,5,canicule-aout-2003
46160001,LATRONQUIERE,44.8,2.067833,658,0.0,17.8,5,canicule-aout-2003
46181001,LUNEGARDE,44.6785,1.6895,383,5.0,23.14,5,canicule-aout-2003
46197002,LE MONTAT,44.373667,1.435,260,5.0,20.86,5,canicule-aout-2003
46201001,MONTCUQ - ROUIL,44.3125,1.213833,193,4.0,20.72,5,canicule-aout-2003
46268001,ST GERY,44.478833,1.580833,137,5.0,20.58,5,canicule-aout-2003
46311001,SOUSCEYRAC,44.875667,2.031167,550,2.0,19.2,5,canicule-aout-2003
47004001,AIGUILLON,44.283167,0.334667,32,3.0,20.7,5,canicule-aout-2003
47007002,ALLONS,44.2155,-0.065333,123,2.0,18.4,5,canicule-aout-2003
47038002,BOURRAN-INRAE,44.331833,0.413167,55,3.0,20.94,5,canicule-aout-2003
47048001,CANCON,44.528833,0.633167,141,4.0,20.759999999999998,5,canicule-aout-2003
47084001,DOUZAINS,44.6305,0.556167,136,5.0,22.82,5,canicule-aout-2003
47086001,DURAS,44.685667,0.2065,112,5.0,21.46,5,canicule-aout-2003
47091001,AGEN-LA GARENNE,44.172167,0.594667,58,4.0,21.54,5,canicule-aout-2003
47095001,FAUILLET,44.428333,0.270833,30,4.0,21.3,5,canicule-aout-2003
47119001,HOUEILLES,44.193167,0.024,150,5.0,21.0,5,canicule-aout-2003
47123001,LACAPELLE-BIRON-PAILLOLES,44.605,0.912333,195,1.0,18.9,5,canicule-aout-2003
47137003,LAPLUME,44.114333,0.582667,160,5.0,21.840000000000003,5,canicule-aout-2003
47138001,LAROQUE-TIMBAUT,44.265667,0.775167,186,5.0,21.080000000000002,5,canicule-aout-2003
47157004,MARMANDE,44.498167,0.193333,30,4.0,21.660000000000004,5,canicule-aout-2003
47213001,PRAYSSAS,44.310833,0.570667,196,5.0,22.16,5,canicule-aout-2003
47221001,REAUP,44.091667,0.193333,158,4.0,20.5,5,canicule-aout-2003
47252002,SAINTE-LIVRADE-SUR-LOT,44.4305,0.613833,49,3.0,20.5,5,canicule-aout-2003
47252003,SAINTE-LIVRADE - M,44.394333,0.575667,47,3.0,20.619999999999997,5,canicule-aout-2003
47254001,SAINT-MARTIN-CURTO,44.345333,0.042833,144,4.0,21.18,5,canicule-aout-2003
47280003,SYLVESTRE/LOT,44.402167,0.815833,68,3.0,20.32,5,canicule-aout-2003
47317002,VERTEUIL,44.464,0.416167,81,4.0,21.16,5,canicule-aout-2003
48004001,ALTIER,44.494,3.852,900,4.0,21.56,5,canicule-aout-2003
48009001,AUMONT AUBRAC,44.727167,3.279833,1018,0.0,14.059999999999999,5,canicule-aout-2003
48014001,BAGNOLS,44.505167,3.667667,918,0.0,12.280000000000001,5,canicule-aout-2003
48020003,BASSURELS,44.1965,3.630667,1042,3.0,19.68,5,canicule-aout-2003
48027003,LE BLEYMARD_SAPC,44.4515,3.748167,1418,1.0,19.6,5,canicule-aout-2003
48030001,MENDE-BRENOUX,44.506,3.527333,1019,0.0,15.76,5,canicule-aout-2003
48039001,CHANAC,44.465333,3.3405,672,0.0,14.839999999999998,5,canicule-aout-2003
48040001,CHASSERADES,44.5375,3.834333,1052,0.0,14.559999999999999,5,canicule-aout-2003
48043001,CHATEAUNEUF-DE-RANDON,44.638167,3.679833,1247,0.0,15.6,5,canicule-aout-2003
48049001,CHIRAC,44.536667,3.216667,1000,1.0,19.839999999999996,5,canicule-aout-2003
48051002,LE COLLET-SAUVEPLANE,44.256,3.925667,485,5.0,21.7,5,canicule-aout-2003
48060001,FAU DE PEYRE,44.763167,3.211833,1163,1.0,18.28,5,canicule-aout-2003
48061002,FLORAC,44.309,3.596333,618,0.0,13.38,5,canicule-aout-2003
48070004,GRANDRIEU,44.780667,3.633833,1163,0.0,17.36,5,canicule-aout-2003
