NUM_POSTE,NOM_USUEL,LAT,LON,ALTI,lcz_source,lcz_dom_100m,lcz_dom_300m,lcz_dom_500m,lcz_comp_100m,lcz_comp_300m,lcz_comp_500m,lcz_category
01028001,BANEINS,46.122,4.9045,243,demuzere,14.0,14.0,14.0,"{""12"": 1, ""14"": 2}","{""12"": 8, ""14"": 19}","{""14"": 60, ""12"": 13, ""9"": 2}",non_bati
01033002,BELLEGARDE,46.0865,5.814167,350,demuzere,6.0,6.0,12.0,"{""6"": 3}","{""12"": 7, ""6"": 13, ""11"": 5, ""17"": 3, ""14"": 1}","{""12"": 26, ""6"": 20, ""11"": 21, ""17"": 10, ""14"": 2}",non_bati
01034004,BELLEY,45.769333,5.688,330,demuzere,14.0,14.0,12.0,"{""14"": 3}","{""12"": 7, ""14"": 15, ""6"": 6}","{""11"": 5, ""12"": 29, ""14"": 26, ""6"": 18}",non_bati
01037001,BENONCES,45.862333,5.484167,944,demuzere,11.0,11.0,11.0,"{""11"": 2, ""12"": 1}","{""11"": 26, ""12"": 3}","{""11"": 72, ""12"": 6}",non_bati
01071001,CESSY,46.310333,6.080333,507,demuzere,14.0,14.0,14.0,"{""14"": 4}","{""14"": 25, ""6"": 3}","{""6"": 5, ""14"": 70, ""12"": 5}",non_bati
01072001,CEYZERIAT_SAPC,46.204333,5.287667,260,demuzere,12.0,11.0,11.0,"{""12"": 3, ""14"": 1}","{""11"": 12, ""12"": 11, ""14"": 6}","{""11"": 36, ""12"": 19, ""14"": 20, ""6"": 4}",non_bati
01089001,AMBERIEU,45.9765,5.329333,250,demuzere,14.0,14.0,14.0,"{""14"": 3}","{""14"": 27}","{""12"": 9, ""14"": 69}",non_bati
01143001,DIVONNE,46.376667,6.156667,488,demuzere,12.0,12.0,12.0,"{""12"": 2, ""14"": 1}","{""14"": 3, ""12"": 25}","{""12"": 45, ""14"": 26, ""6"": 4, ""11"": 2}",non_bati
01174001,GIRON,46.23,5.7725,1015,demuzere,12.0,12.0,12.0,"{""12"": 4}","{""11"": 6, ""12"": 23}","{""11"": 29, ""12"": 52}",non_bati
01204002,BURL,46.166667,5.706667,530,demuzere,11.0,11.0,11.0,"{""11"": 2}","{""11"": 18, ""12"": 4, ""6"": 5}","{""11"": 61, ""12"": 10, ""6"": 6}",non_bati
01224002,LOYETTES,45.8065,5.238333,198,demuzere,6.0,6.0,14.0,"{""6"": 3}","{""6"": 15, ""14"": 13}","{""14"": 62, ""6"": 17}",non_bati
01235001,MARLIEUX,46.0385,5.044333,280,demuzere,14.0,14.0,14.0,"{""14"": 3}","{""14"": 20, ""12"": 7}","{""14"": 48, ""12"": 24, ""11"": 3}",non_bati
01235002,MARLIEUX,46.046667,5.073333,273,demuzere,14.0,14.0,14.0,"{""14"": 3}","{""14"": 27}","{""14"": 77, ""12"": 1}",non_bati
01243001,MESSIMY,46.047167,4.757667,175,demuzere,6.0,6.0,6.0,"{""6"": 3}","{""6"": 23, ""14"": 3, ""12"": 1}","{""14"": 24, ""6"": 41, ""12"": 10}",urbain_aere
01255002,MONTAGNIEU,45.794333,5.469333,336,demuzere,9.0,12.0,12.0,"{""9"": 2, ""12"": 2}","{""12"": 18, ""14"": 2, ""9"": 3, ""11"": 5}","{""12"": 49, ""11"": 23, ""14"": 3, ""6"": 2, ""9"": 3}",non_bati
01262004,MONTLUEL,45.907667,5.017167,275,demuzere,14.0,14.0,14.0,"{""14"": 4}","{""11"": 1, ""14"": 30}","{""14"": 73, ""11"": 5}",non_bati
01273001,NEUVILLE,46.083167,5.373833,291,demuzere,6.0,6.0,12.0,"{""6"": 3}","{""12"": 8, ""11"": 1, ""9"": 6, ""6"": 14}","{""11"": 12, ""12"": 26, ""9"": 12, ""6"": 26, ""17"": 2}",non_bati
01283001,OYONNAX,46.271667,5.661667,535,demuzere,6.0,6.0,6.0,"{""8"": 1, ""6"": 2}","{""8"": 10, ""12"": 3, ""6"": 16}","{""8"": 27, ""12"": 11, ""6"": 41}",urbain_aere
01350001,SAINT ETIENNE DU BOIS,46.296,5.279667,243,demuzere,9.0,11.0,11.0,"{""11"": 1, ""9"": 3}","{""12"": 6, ""11"": 16, ""9"": 6, ""14"": 2}","{""14"": 20, ""12"": 16, ""11"": 32, ""9"": 13}",non_bati
01367002,SAINT JULIEN SUR REYSSOUZE,46.403167,5.109833,189,demuzere,6.0,6.0,14.0,"{""6"": 3}","{""6"": 18, ""14"": 2, ""12"": 7}","{""14"": 28, ""6"": 26, ""12"": 23}",non_bati
01384001,SAINT RAMBERT EN BUGEY,45.931667,5.426667,285,demuzere,12.0,12.0,11.0,"{""6"": 1, ""12"": 3}","{""6"": 8, ""12"": 11, ""11"": 10}","{""6"": 19, ""11"": 48, ""12"": 14}",non_bati
01384003,ST RAMBERT CG01,45.950333,5.461,296,demuzere,11.0,11.0,11.0,"{""6"": 1, ""11"": 3}","{""9"": 2, ""6"": 7, ""11"": 20}","{""11"": 59, ""13"": 3, ""12"": 6, ""9"": 3, ""14"": 2, ""6"": 7}",non_bati
01414001,SUTRIEU,45.916167,5.624667,878,demuzere,12.0,12.0,12.0,"{""12"": 3}","{""12"": 24, ""11"": 3}","{""11"": 20, ""12"": 58}",non_bati
01441001,VIEU,46.088833,5.540833,615,demuzere,12.0,12.0,12.0,"{""12"": 2}","{""12"": 22, ""14"": 5, ""9"": 1}","{""14"": 22, ""6"": 8, ""12"": 47, ""9"": 2}",non_bati
01453001,VIRIEU-LE-PETIT,45.906833,5.718167,603,demuzere,12.0,12.0,12.0,"{""12"": 2}","{""12"": 21, ""14"": 6}","{""12"": 63, ""6"": 2, ""14"": 12}",non_bati
02031001,AUBENTON,49.834,4.2005,177,demuzere,6.0,12.0,12.0,"{""6"": 4}","{""6"": 12, ""12"": 13, ""14"": 3, ""11"": 1}","{""14"": 14, ""11"": 3, ""12"": 41, ""6"": 21}",non_bati
02035001,AUDIGNY,49.866667,3.65,150,demuzere,14.0,14.0,14.0,"{""14"": 4}","{""9"": 2, ""14"": 27}","{""9"": 7, ""14"": 71, ""12"": 1, ""6"": 1}",non_bati
02037002,AULNOIS-SS-LAON,49.595667,3.610333,78,demuzere,14.0,14.0,14.0,"{""14"": 2}","{""14"": 28}","{""14"": 79}",non_bati
02094001,BLESMES,49.009667,3.462667,222,demuzere,14.0,14.0,14.0,"{""14"": 2}","{""14"": 28}","{""14"": 80}",non_bati
02110002,BRAINE,49.351333,3.527,61,demuzere,14.0,14.0,14.0,"{""14"": 2}","{""14"": 27}","{""14"": 73, ""12"": 1, ""11"": 4, ""6"": 1}",non_bati
02153001,CESSIERES,49.553333,3.498333,107,demuzere,14.0,14.0,14.0,"{""14"": 3}","{""9"": 2, ""14"": 27}","{""12"": 7, ""9"": 7, ""14"": 61, ""11"": 5}",non_bati
02173002,CHAUNY,49.633833,3.197833,83,demuzere,14.0,14.0,14.0,"{""14"": 2}","{""14"": 27}","{""14"": 78}",non_bati
02197001,CLAIRFONTAINE,49.966667,3.966667,225,demuzere,14.0,14.0,14.0,"{""14"": 2, ""12"": 1}","{""14"": 23, ""12"": 5}","{""14"": 72, ""12"": 6}",non_bati
02199001,CLASTRES,49.742833,3.2285,75,demuzere,14.0,14.0,14.0,"{""6"": 1, ""14"": 2}","{""14"": 18, ""6"": 8, ""12"": 2}","{""14"": 61, ""6"": 15, ""12"": 3}",non_bati
02220001,COULONGES-COHAN,49.214167,3.605833,168,demuzere,14.0,14.0,14.0,"{""14"": 2}","{""14"": 26}","{""14"": 76}",non_bati
02239001,CREZANCY,49.05,3.5,125,demuzere,14.0,14.0,14.0,"{""14"": 2}","{""14"": 24, ""11"": 3, ""12"": 2}","{""14"": 52, ""11"": 11, ""12"": 11, ""9"": 2}",non_bati
02298001,ETREUX,49.987833,3.646833,120,demuzere,12.0,12.0,14.0,"{""12"": 2}","{""12"": 19, ""14"": 8, ""9"": 1}","{""14"": 44, ""12"": 24, ""9"": 7, ""6"": 4}",non_bati
02301002,FAUCOUCOURT,49.527333,3.462167,100,demuzere,14.0,14.0,14.0,"{""14"": 3}","{""14"": 26, ""12"": 3}","{""14"": 69, ""12"": 8, ""11"": 2}",non_bati
02320001,ST QUENTIN,49.818333,3.206,98,demuzere,14.0,14.0,14.0,"{""14"": 4}","{""14"": 30}","{""14"": 79}",non_bati
02321001,FONTAINE-VV MAN,49.836333,3.8795,184,demuzere,12.0,14.0,14.0,"{""12"": 3}","{""14"": 19, ""12"": 6, ""9"": 2}","{""14"": 70, ""12"": 6, ""9"": 2}",non_bati
02321002,FONTAINE-LES-VV,49.837333,3.877833,186,demuzere,14.0,14.0,14.0,"{""14"": 2, ""12"": 1}","{""14"": 24, ""12"": 5}","{""14"": 70, ""12"": 6, ""9"": 2}",non_bati
02346001,GIZY,49.599833,3.781,75,demuzere,12.0,14.0,14.0,"{""12"": 2, ""14"": 2}","{""14"": 18, ""6"": 3, ""9"": 2, ""12"": 7}","{""14"": 38, ""6"": 14, ""9"": 2, ""12"": 24, ""11"": 3}",non_bati
02471001,MARTIGNY-COURPI,49.485667,3.693167,95,demuzere,14.0,14.0,14.0,"{""14"": 2, ""12"": 2}","{""14"": 20, ""12"": 7, ""11"": 3}","{""14"": 50, ""11"": 20, ""12"": 8}",non_bati
02505001,MONTFAUCON,48.973333,3.441,217,demuzere,14.0,14.0,14.0,"{""14"": 3, ""9"": 1}","{""11"": 2, ""14"": 23, ""9"": 5}","{""14"": 61, ""11"": 13, ""9"": 5, ""12"": 2}",non_bati
02558001,NOUVION-EN-T,50.007833,3.7765,182,demuzere,12.0,12.0,12.0,"{""12"": 2}","{""12"": 17, ""6"": 2, ""11"": 7}","{""14"": 2, ""6"": 11, ""11"": 30, ""12"": 31, ""9"": 1, ""17"": 1}",non_bati
02580001,OULCHY-LE-CHATE,49.208667,3.417,122,demuzere,14.0,14.0,14.0,"{""14"": 3}","{""14"": 24, ""9"": 3}","{""14"": 67, ""9"": 7, ""11"": 1}",non_bati
02594001,PASSY EN VALOIS,49.165167,3.199667,141,cerema,13.0,13.0,13.0,"{""15"": 677.9355253492398, ""14"": 6055.45850281811, ""13"": 11646.949697763084}","{""15"": 4311.297072382294, ""14"": 53599.42252316219, ""16"": 5315.11999979608, ""13"": 91125.34318248615, ""12"": 3080.1209804149526, ""9"": 1418.940429953034}","{""15"": 10824.798250624048, ""14"": 118480.31668754935, ""16"": 110135.75011219588, ""13"": 155287.10083153125, ""12"": 56355.7316027538, ""9"": 27544.696283363464, ""11"": 4932.048104827865}",non_bati
02617001,POUILLY-SUR-SERRE,49.683833,3.597333,68,demuzere,6.0,14.0,14.0,"{""6"": 3}","{""14"": 20, ""6"": 7}","{""14"": 70, ""6"": 8}",non_bati
02705001,NIZY-LE-COMTE,49.566,4.0365,90,demuzere,14.0,14.0,14.0,"{""14"": 3}","{""14"": 28, ""12"": 1}","{""14"": 77, ""12"": 1}",non_bati
02734001,TAILLEFONTAINE,49.312667,3.044,140,demuzere,9.0,14.0,14.0,"{""9"": 1, ""6"": 1, ""14"": 1}","{""14"": 15, ""12"": 2, ""9"": 10, ""6"": 1}","{""14"": 46, ""11"": 7, ""12"": 4, ""9"": 21, ""6"": 1}",non_bati
02758001,VAILLY-SUR-AISN,49.412167,3.519333,65,demuzere,9.0,9.0,6.0,"{""12"": 1, ""9"": 2}","{""9"": 11, ""11"": 5, ""12"": 3, ""6"": 8}","{""11"": 22, ""9"": 19, ""12"": 5, ""6"": 29, ""14"": 2}",urbain_aere
03005001,ARCHIGNAT,46.359333,2.433667,370,demuzere,14.0,14.0,14.0,"{""14"": 2}","{""14"": 24, ""12"": 1, ""17"": 1}","{""14"": 72, ""12"": 1, ""17"": 2, ""11"": 2}",non_bati
03006003,ARFEUILLES,46.163667,3.7355,450,demuzere,12.0,12.0,12.0,"{""12"": 3}","{""12"": 25, ""11"": 1, ""14"": 1}","{""11"": 14, ""12"": 60, ""14"": 1, ""13"": 1}",non_bati
03029001,BILLY,46.233333,3.431667,286,demuzere,9.0,14.0,14.0,"{""9"": 3, ""12"": 1}","{""6"": 6, ""14"": 15, ""9"": 5, ""12"": 3}","{""6"": 17, ""12"": 15, ""14"": 40, ""9"": 5, ""11"": 2}",non_bati
03036002,BOURBON_SAPC,46.58,3.0495,270,demuzere,9.0,9.0,14.0,"{""9"": 2}","{""14"": 6, ""12"": 6, ""9"": 9, ""13"": 3, ""6"": 4}","{""12"": 20, ""14"": 21, ""9"": 20, ""6"": 14, ""13"": 4}",non_bati
03043001,BROUT-VERNET,46.187167,3.267667,315,demuzere,9.0,9.0,9.0,"{""9"": 3}","{""9"": 18, ""6"": 1, ""12"": 6, ""14"": 4}","{""9"": 36, ""14"": 27, ""6"": 5, ""12"": 10}",bati_special
03046001,BUXIERES,46.4535,3.004833,375,demuzere,12.0,14.0,14.0,"{""12"": 3}","{""12"": 11, ""14"": 16, ""11"": 1, ""13"": 1}","{""12"": 34, ""14"": 42, ""11"": 1, ""13"": 1}",non_bati
03059001,CHAREIL-CINTRAT_SAPC,46.275833,3.225667,286,demuzere,14.0,14.0,14.0,"{""14"": 4}","{""14"": 28}","{""14"": 80}",non_bati
03060001,VICHY-CHARMEIL,46.166667,3.398667,249,demuzere,6.0,14.0,14.0,"{""14"": 1, ""6"": 2}","{""12"": 3, ""14"": 16, ""6"": 8}","{""6"": 17, ""14"": 37, ""12"": 21}",non_bati
03061001,CHARMES_SAPC,46.0635,3.233667,330,demuzere,14.0,14.0,14.0,"{""14"": 2}","{""14"": 28}","{""14"": 76}",non_bati
03066003,CHATEL-MONTAGNE,46.1155,3.683,515,demuzere,12.0,12.0,12.0,"{""12"": 3}","{""12"": 29}","{""12"": 66, ""11"": 13}",non_bati
03073001,CHEMILLY,46.488333,3.315833,235,demuzere,14.0,14.0,14.0,"{""14"": 3}","{""12"": 2, ""14"": 20, ""6"": 6}","{""12"": 7, ""14"": 59, ""6"": 9, ""9"": 3}",non_bati
03082003,COMMENTRY,46.295,2.746667,370,demuzere,6.0,6.0,6.0,"{""6"": 3}","{""6"": 26, ""8"": 3}","{""6"": 70, ""8"": 9}",urbain_aere
03083002,CONTIGNY,46.3535,3.292333,305,demuzere,14.0,14.0,14.0,"{""14"": 3}","{""14"": 19, ""9"": 6, ""12"": 2}","{""14"": 57, ""9"": 10, ""12"": 8, ""11"": 2}",non_bati
03100001,DIOU,46.541667,3.706667,220,demuzere,6.0,6.0,6.0,"{""6"": 1, ""14"": 1}","{""6"": 15, ""12"": 2, ""14"": 9}","{""6"": 39, ""14"": 25, ""12"": 9, ""9"": 4, ""11"": 1}",urbain_aere
03106002,DURDAT-LAREQUILLE,46.251667,2.695667,500,demuzere,12.0,14.0,14.0,"{""12"": 2}","{""14"": 15, ""12"": 8, ""6"": 4}","{""14"": 38, ""12"": 31, ""9"": 2, ""13"": 1, ""6"": 5}",non_bati
03108001,ECHASSIERES_SAPC,46.191167,2.957667,650,demuzere,12.0,12.0,12.0,"{""12"": 3}","{""12"": 11, ""11"": 5, ""13"": 4, ""14"": 9}","{""12"": 30, ""11"": 21, ""13"": 4, ""14"": 23}",non_bati
03114001,FERTE-HAUTERIVE,46.376833,3.331,226,demuzere,14.0,14.0,14.0,"{""14"": 2}","{""14"": 28}","{""14"": 73, ""12"": 3}",non_bati
03127001,HERISSON,46.501167,2.757333,248,demuzere,14.0,14.0,14.0,"{""14"": 3}","{""14"": 24, ""12"": 3}","{""14"": 64, ""12"": 14}",non_bati
03130002,ISLE-ET-BARDAIS,46.663333,2.730167,262,demuzere,11.0,11.0,11.0,"{""11"": 4}","{""11"": 32}","{""11"": 80}",non_bati
03149002,LOUCHY-MONTFAND,46.303667,3.241833,280,demuzere,14.0,14.0,14.0,"{""14"": 3, ""9"": 1}","{""14"": 20, ""9"": 10, ""13"": 2}","{""9"": 22, ""14"": 53, ""12"": 2, ""13"": 2}",non_bati
03155001,LURCY-LEVIS,46.730167,2.935167,206,demuzere,6.0,6.0,6.0,"{""14"": 1, ""6"": 2, ""12"": 1}","{""12"": 10, ""6"": 16, ""14"": 3}","{""14"": 14, ""9"": 3, ""12"": 28, ""6"": 34}",urbain_aere
03155003,LURCY-LEVIS SA,46.718333,2.947667,225,demuzere,14.0,14.0,14.0,"{""14"": 3}","{""14"": 28, ""6"": 1}","{""12"": 3, ""14"": 74, ""6"": 1}",non_bati
03159001,MALICORNE,46.300333,2.7775,400,demuzere,9.0,9.0,14.0,"{""9"": 3}","{""14"": 11, ""9"": 12, ""6"": 3, ""12"": 2}","{""14"": 36, ""9"": 19, ""12"": 13, ""6"": 11}",non_bati
03165001,MAYET-DE-MONTAG,46.076833,3.684,542,demuzere,12.0,12.0,12.0,"{""12"": 4}","{""12"": 22, ""9"": 4, ""14"": 2, ""11"": 1}","{""11"": 13, ""12"": 57, ""9"": 4, ""14"": 5}",non_bati
03168001,MEAULNE,46.610833,2.610167,218,demuzere,12.0,12.0,12.0,"{""12"": 4}","{""11"": 8, ""12"": 23, ""14"": 1}","{""11"": 18, ""12"": 52, ""6"": 4, ""13"": 2, ""14"": 4}",non_bati
03180001,MONTBEUGNY,46.536333,3.423167,275,demuzere,14.0,14.0,14.0,"{""12"": 1, ""14"": 3}","{""12"": 9, ""14"": 19}","{""12"": 25, ""14"": 53, ""13"": 2, ""11"": 1}",non_bati
03185006,MONTLUCON,46.365,2.596333,207,demuzere,6.0,6.0,6.0,"{""6"": 3}","{""6"": 22, ""12"": 2, ""8"": 5}","{""6"": 50, ""12"": 6, ""8"": 24}",urbain_aere
03185007,MONTLUCON,46.355167,2.574667,229,demuzere,14.0,14.0,6.0,"{""14"": 2, ""6"": 1}","{""14"": 15, ""6"": 12, ""12"": 1}","{""12"": 12, ""6"": 37, ""14"": 29, ""13"": 1}",urbain_aere
03186001,MONTMARAULT,46.314833,2.9525,466,demuzere,6.0,6.0,6.0,"{""6"": 2, ""12"": 1, ""14"": 1}","{""6"": 14, ""13"": 1, ""12"": 11, ""14"": 4}","{""6"": 35, ""12"": 30, ""13"": 1, ""14"": 12}",urbain_aere
03200001,NEUVY,46.549667,3.2855,250,demuzere,14.0,14.0,14.0,"{""14"": 3}","{""12"": 5, ""14"": 18, ""9"": 5, ""6"": 1}","{""14"": 38, ""12"": 34, ""9"": 6, ""6"": 1}",non_bati
03204001,PARAY-SOUS-BRIAILLES,46.2835,3.337833,250,demuzere,14.0,14.0,14.0,"{""14"": 4}","{""14"": 29}","{""14"": 79}",non_bati
03226001,SAINT DIDIER_SAPC,46.365333,3.850167,293,demuzere,14.0,14.0,14.0,"{""14"": 3}","{""14"": 27}","{""14"": 76, ""12"": 1}",non_bati
03240001,ST-LEON,46.4025,3.685833,378,demuzere,6.0,12.0,12.0,"{""6"": 3, ""11"": 1}","{""12"": 18, ""6"": 9, ""11"": 1}","{""12"": 57, ""14"": 10, ""6"": 11, ""11"": 1}",non_bati
03248001,ST-NICOLAS,46.0515,3.805167,1022,demuzere,11.0,11.0,12.0,"{""11"": 3, ""12"": 1}","{""12"": 14, ""11"": 15}","{""12"": 40, ""11"": 40}",non_bati
03253001,ST-POURCAIN-BES,46.491667,3.615833,268,demuzere,14.0,14.0,14.0,"{""14"": 3}","{""14"": 26, ""12"": 1}","{""12"": 14, ""14"": 62}",non_bati
03285001,TORTEZAIS_SAPC,46.451333,2.857,256,demuzere,14.0,14.0,14.0,"{""14"": 4}","{""14"": 27, ""12"": 2}","{""14"": 63, ""12"": 15}",non_bati
03310001,VICHY-VILLE,46.117667,3.439,255,demuzere,6.0,6.0,6.0,"{""6"": 2}","{""6"": 28}","{""6"": 67, ""12"": 7, ""14"": 2, ""17"": 3}",urbain_aere
03321001,YZEURE,46.579167,3.352833,242,demuzere,14.0,14.0,14.0,"{""14"": 1, ""12"": 1, ""6"": 1}","{""14"": 12, ""12"": 5, ""6"": 11}","{""14"": 41, ""12"": 11, ""6"": 26}",non_bati
04006004,ALLOS,44.226667,6.631667,1370,demuzere,6.0,6.0,6.0,"{""12"": 1, ""6"": 2, ""14"": 1}","{""14"": 8, ""11"": 3, ""12"": 5, ""9"": 1, ""6"": 12}","{""12"": 21, ""14"": 16, ""11"": 12, ""9"": 1, ""6"": 29}",urbain_aere
04019001,BARCELONNETTE,44.391167,6.670167,1155,demuzere,14.0,14.0,14.0,"{""14"": 2}","{""14"": 21, ""15"": 5}","{""12"": 24, ""14"": 44, ""15"": 8}",non_bati
04027002,BEVONS,44.167,5.861833,520,demuzere,9.0,14.0,14.0,"{""9"": 3, ""14"": 1}","{""14"": 22, ""13"": 3, ""9"": 5, ""15"": 2}","{""12"": 12, ""14"": 52, ""13"": 7, ""9"": 5, ""15"": 4}",non_bati
04039001,CASTELLANE,43.849167,6.508,729,demuzere,12.0,12.0,12.0,"{""12"": 2, ""13"": 1}","{""12"": 18, ""11"": 1, ""13"": 1, ""6"": 7, ""9"": 1}","{""12"": 48, ""11"": 7, ""13"": 1, ""6"": 15, ""9"": 6}",non_bati
04049001,ST AUBAN,44.062167,5.989667,458,demuzere,14.0,14.0,14.0,"{""11"": 1, ""14"": 2}","{""12"": 5, ""14"": 17, ""11"": 4, ""6"": 2}","{""6"": 8, ""14"": 43, ""12"": 20, ""11"": 6}",non_bati
04068001,DAUPHIN,43.909833,5.767167,427,demuzere,14.0,14.0,14.0,"{""14"": 2}","{""14"": 26}","{""14"": 78}",non_bati
04070008,DIGNE,44.083333,6.225,585,demuzere,6.0,6.0,6.0,"{""6"": 4}","{""6"": 27, ""12"": 1}","{""6"": 61, ""11"": 4, ""12"": 16}",urbain_aere
04070009,DIGNE LES BAINS,44.07,6.186667,554,demuzere,12.0,14.0,14.0,"{""12"": 2, ""14"": 1}","{""15"": 7, ""12"": 6, ""14"": 16}","{""6"": 5, ""8"": 5, ""15"": 13, ""12"": 16, ""14"": 39}",non_bati
04096002,JAUSIERS-ST ANNE,44.413667,6.725167,1240,demuzere,12.0,14.0,12.0,"{""12"": 2}","{""14"": 10, ""12"": 9, ""6"": 2, ""9"": 1, ""11"": 6}","{""12"": 31, ""14"": 30, ""6"": 3, ""15"": 6, ""9"": 1, ""11"": 8}",non_bati
04096401,RESTEFOND-NIVOSE,44.34,6.8,2550,demuzere,15.0,15.0,15.0,"{""15"": 4}","{""15"": 29}","{""15"": 77, ""14"": 1, ""17"": 1}",non_bati
04112001,MANOSQUE,43.843333,5.785,380,demuzere,6.0,6.0,6.0,"{""6"": 2}","{""6"": 26}","{""6"": 78}",urbain_aere
04160001,REILLANNE,43.87,5.663333,455,demuzere,14.0,14.0,14.0,"{""14"": 2, ""11"": 1, ""12"": 1}","{""14"": 26, ""11"": 1, ""12"": 2}","{""14"": 76, ""12"": 4, ""11"": 1}",non_bati
04172001,ROUMOULES,43.7935,6.150833,665,demuzere,14.0,14.0,14.0,"{""14"": 4}","{""14"": 28}","{""14"": 78, ""12"": 2}",non_bati
04173002,ST ANDRE ALPES,43.958333,6.511667,882,demuzere,15.0,14.0,12.0,"{""15"": 3, ""14"": 1}","{""14"": 14, ""15"": 13, ""16"": 1}","{""12"": 29, ""14"": 25, ""6"": 4, ""15"": 15, ""16"": 2, ""17"": 4}",non_bati
04192001,ST MICHEL L OBS,43.933333,5.713333,650,demuzere,12.0,12.0,12.0,"{""12"": 4}","{""12"": 24, ""11"": 2, ""13"": 2}","{""11"": 13, ""12"": 62, ""13"": 5}",non_bati
04193002,ST PAUL,44.593,6.843333,1908,demuzere,15.0,15.0,15.0,"{""12"": 1, ""15"": 2}","{""15"": 21, ""6"": 2, ""14"": 2, ""12"": 1, ""9"": 2}","{""15"": 55, ""14"": 9, ""6"": 2, ""12"": 6, ""9"": 6}",non_bati
04193400,MALJASSET_NIVO,44.593,6.843333,1908,demuzere,15.0,15.0,15.0,"{""12"": 1, ""15"": 2}","{""15"": 21, ""6"": 2, ""14"": 2, ""12"": 1, ""9"": 2}","{""15"": 55, ""14"": 9, ""6"": 2, ""12"": 6, ""9"": 6}",non_bati
04205004,SEYNE-COL MAURE,44.320333,6.400167,1347,demuzere,12.0,12.0,12.0,"{""12"": 2, ""14"": 1}","{""12"": 13, ""11"": 9, ""14"": 5}","{""12"": 43, ""11"": 24, ""14"": 10}",non_bati
04209005,SISTERON,44.2245,5.916,500,demuzere,14.0,14.0,14.0,"{""14"": 3}","{""6"": 2, ""14"": 24, ""12"": 2}","{""6"": 10, ""14"": 66, ""12"": 2}",non_bati
04217001,THOARD,44.16,6.138333,785,demuzere,14.0,12.0,12.0,"{""14"": 2}","{""12"": 15, ""14"": 13}","{""12"": 43, ""14"": 34, ""11"": 2}",non_bati
04230001,VALENSOLE,43.8395,6.000833,600,demuzere,14.0,14.0,14.0,"{""14"": 4}","{""14"": 28}","{""14"": 61, ""12"": 11, ""9"": 6, ""13"": 1}",non_bati
05007001,ARVIEUX LA CHALP,44.781167,6.736667,1690,demuzere,14.0,12.0,12.0,"{""14"": 1, ""9"": 1}","{""14"": 8, ""12"": 11, ""6"": 2, ""9"": 6}","{""6"": 11, ""16"": 1, ""12"": 26, ""9"": 17, ""14"": 17, ""11"": 8}",non_bati
05023001,BRIANCON,44.908333,6.635,1324,demuzere,6.0,6.0,6.0,"{""6"": 2}","{""6"": 26}","{""6"": 74, ""5"": 4}",urbain_aere
05026001,CEILLAC,44.671167,6.776167,1665,demuzere,9.0,9.0,14.0,"{""9"": 3}","{""9"": 16, ""14"": 11, ""12"": 2}","{""11"": 7, ""6"": 3, ""9"": 24, ""12"": 12, ""14"": 31, ""17"": 1}",non_bati
05026400,CEILLAC_NIVO,44.671167,6.776167,1665,demuzere,9.0,9.0,14.0,"{""9"": 3}","{""9"": 16, ""14"": 11, ""12"": 2}","{""11"": 7, ""6"": 3, ""9"": 24, ""12"": 12, ""14"": 31, ""17"": 1}",non_bati
05028001,CHABESTAN,44.471667,5.781667,755,demuzere,14.0,14.0,14.0,"{""14"": 4}","{""14"": 27, ""12"": 5}","{""12"": 23, ""14"": 55}",non_bati
05046001,EMBRUN,44.571167,6.508667,873,demuzere,12.0,14.0,14.0,"{""12"": 2, ""9"": 1}","{""14"": 14, ""12"": 7, ""9"": 6}","{""14"": 38, ""12"": 20, ""9"": 17}",non_bati
05055001,LA FAURIE,44.566667,5.750167,825,demuzere,12.0,14.0,14.0,"{""12"": 2, ""14"": 1}","{""11"": 1, ""14"": 14, ""12"": 12}","{""11"": 7, ""12"": 31, ""14"": 39}",non_bati
05063402,LA MEIJE-NIVOSE,45.012333,6.265167,3093,demuzere,8.0,8.0,17.0,"{""8"": 3}","{""12"": 6, ""8"": 14, ""17"": 7, ""14"": 2}","{""8"": 18, ""12"": 13, ""17"": 30, ""14"": 16}",non_bati
05064001,CHAPELLE-EN-VALGAUDEMAR,44.81,6.195333,1270,demuzere,11.0,11.0,11.0,"{""12"": 1, ""11"": 2}","{""12"": 14, ""11"": 15}","{""11"": 50, ""12"": 25, ""14"": 4}",non_bati
05064403,LES PORTES EN VALGAUDEMAR_NIVO,44.81,6.195333,1270,demuzere,11.0,11.0,11.0,"{""12"": 1, ""11"": 2}","{""12"": 14, ""11"": 15}","{""11"": 50, ""12"": 25, ""14"": 4}",non_bati
05070003,LARAGNE MONTEGLIN,44.319167,5.7945,565,demuzere,12.0,15.0,12.0,"{""12"": 1, ""15"": 1}","{""14"": 9, ""12"": 4, ""9"": 1, ""15"": 12}","{""14"": 22, ""12"": 31, ""9"": 1, ""15"": 22}",non_bati
05077402,COL AGNEL-NIVOSE,44.688667,6.976167,2627,demuzere,15.0,15.0,15.0,"{""15"": 3}","{""12"": 2, ""15"": 24, ""14"": 2}","{""12"": 12, ""15"": 62, ""14"": 3}",non_bati
05079001,LE MONETIER LES BAINS,44.9715,6.514167,1459,demuzere,14.0,14.0,12.0,"{""14"": 1, ""12"": 1, ""15"": 1}","{""14"": 14, ""12"": 8, ""6"": 4, ""15"": 2}","{""6"": 16, ""9"": 6, ""12"": 28, ""14"": 23, ""15"": 5, ""11"": 1}",non_bati
05085001,MONTGENEVRE,44.9305,6.721333,1848,demuzere,8.0,8.0,8.0,"{""8"": 4}","{""8"": 16, ""15"": 4, ""9"": 1, ""12"": 5, ""14"": 2}","{""12"": 12, ""8"": 29, ""14"": 11, ""15"": 19, ""9"": 7, ""11"": 2}",bati_special
05093001,NEVACHE-EDF-03,45.0185,6.622333,1603,demuzere,14.0,14.0,14.0,"{""14"": 4}","{""14"": 21, ""9"": 8}","{""9"": 20, ""14"": 54, ""11"": 7}",non_bati
05098001,LES ORRES,44.508833,6.559333,1457,demuzere,14.0,11.0,11.0,"{""14"": 1, ""12"": 1}","{""12"": 9, ""11"": 13, ""14"": 5}","{""14"": 23, ""12"": 19, ""11"": 35}",non_bati
05101001,PELVOUX,44.866833,6.486667,1270,demuzere,6.0,6.0,12.0,"{""6"": 4}","{""14"": 2, ""6"": 14, ""12"": 7, ""11"": 3, ""9"": 1, ""15"": 2}","{""6"": 21, ""12"": 37, ""11"": 10, ""14"": 6, ""9"": 1, ""15"": 5}",non_bati
05101400,PELVOUX ST ANTOINE_NIVO,44.870833,6.487167,1270,demuzere,6.0,12.0,12.0,"{""6"": 3}","{""12"": 13, ""6"": 12, ""11"": 2, ""14"": 1}","{""12"": 33, ""9"": 6, ""14"": 5, ""11"": 16, ""6"": 19}",non_bati
05118002,RIBIERS-GRANGE,44.198167,5.881167,530,demuzere,12.0,12.0,11.0,"{""12"": 3}","{""12"": 14, ""14"": 2, ""11"": 12}","{""12"": 32, ""9"": 2, ""14"": 7, ""11"": 36}",non_bati
05118003,RIBIERS,44.2355,5.855,520,demuzere,9.0,9.0,9.0,"{""9"": 2}","{""9"": 18, ""14"": 4, ""12"": 5}","{""9"": 43, ""14"": 18, ""12"": 11, ""6"": 6}",bati_special
05126001,ROSANS,44.3875,5.462167,625,demuzere,12.0,12.0,12.0,"{""12"": 3}","{""12"": 28}","{""12"": 71, ""14"": 3, ""13"": 2, ""9"": 1, ""6"": 1, ""11"": 1}",non_bati
05132001,ST-BONNET CHAMPSAUR,44.684167,6.072833,1005,demuzere,6.0,6.0,12.0,"{""6"": 2, ""12"": 1}","{""11"": 7, ""12"": 10, ""6"": 11}","{""12"": 33, ""11"": 20, ""14"": 4, ""6"": 21}",non_bati
05139002,ST ETIENNE-EN-DEVOLUY,44.6945,5.9405,1300,demuzere,14.0,14.0,14.0,"{""14"": 3, ""12"": 1}","{""14"": 22, ""12"": 7}","{""12"": 19, ""14"": 59, ""11"": 1}",non_bati
05139400,St Etienne en Devoluy,44.69,5.937667,1281,demuzere,14.0,14.0,14.0,"{""14"": 2}","{""14"": 19, ""12"": 7, ""11"": 2}","{""12"": 34, ""11"": 7, ""14"": 39}",non_bati
05142001,ST FIRMIN,44.7825,6.035,935,demuzere,12.0,12.0,12.0,"{""12"": 2, ""14"": 1}","{""9"": 6, ""12"": 15, ""14"": 7}","{""9"": 23, ""12"": 39, ""14"": 17}",non_bati
05145002,ST JEAN-ST-NICOLAS,44.670833,6.209833,1210,demuzere,14.0,14.0,14.0,"{""14"": 3}","{""14"": 19, ""12"": 7, ""9"": 1}","{""12"": 31, ""14"": 45, ""9"": 2}",non_bati
05157001,ST VERAN,44.6985,6.870167,1992,demuzere,14.0,14.0,14.0,"{""9"": 1, ""14"": 2}","{""14"": 15, ""9"": 11, ""12"": 1}","{""14"": 44, ""9"": 28, ""12"": 4, ""11"": 2}",non_bati
05158001,LE SAIX,44.475833,5.8155,801,demuzere,12.0,12.0,12.0,"{""14"": 1, ""12"": 3}","{""14"": 7, ""12"": 23}","{""14"": 18, ""12"": 57, ""11"": 4}",non_bati
05170001,TALLARD,44.452167,6.033333,593,demuzere,14.0,14.0,14.0,"{""14"": 3}","{""14"": 26, ""9"": 1}","{""14"": 74, ""12"": 3, ""9"": 1}",non_bati
05182001,VILLAR LOUBIERE,44.826833,6.146,1072,demuzere,9.0,9.0,12.0,"{""9"": 3, ""12"": 1}","{""9"": 15, ""14"": 2, ""12"": 12}","{""9"": 28, ""13"": 1, ""14"": 13, ""12"": 30, ""15"": 2, ""11"": 6}",non_bati
05184002,VITROLLES,44.408667,5.951667,595,demuzere,12.0,12.0,12.0,"{""12"": 3}","{""12"": 20, ""13"": 2, ""14"": 5, ""11"": 1, ""9"": 1}","{""12"": 49, ""6"": 6, ""13"": 2, ""14"": 19, ""11"": 1, ""9"": 1}",non_bati
06004002,ANTIBES-GAROUPE,43.564667,7.133,75,demuzere,6.0,6.0,6.0,"{""6"": 2}","{""12"": 2, ""6"": 21, ""11"": 5}","{""6"": 66, ""12"": 2, ""11"": 5}",urbain_aere
06004009,ANTIBES_SAPC,43.599167,7.111167,32,demuzere,6.0,6.0,6.0,"{""6"": 4}","{""6"": 28}","{""6"": 79}",urbain_aere
06005001,ASCROS,43.922,7.013667,1173,demuzere,12.0,12.0,12.0,"{""12"": 3}","{""11"": 5, ""12"": 20, ""13"": 3}","{""11"": 21, ""12"": 54, ""13"": 4}",non_bati
06015001,BERRE-DES-ALPES,43.838333,7.321667,715,demuzere,12.0,12.0,12.0,"{""12"": 3}","{""12"": 18, ""11"": 8, ""13"": 1}","{""11"": 31, ""12"": 40, ""9"": 1, ""6"": 1, ""13"": 2}",non_bati
06016004,BEUIL,44.089,6.989333,1368,demuzere,12.0,12.0,12.0,"{""12"": 2, ""14"": 1}","{""12"": 15, ""14"": 12, ""11"": 1}","{""12"": 33, ""14"": 27, ""9"": 1, ""11"": 15, ""6"": 1}",non_bati
06022002,BOUYON,43.823,7.118167,723,demuzere,12.0,12.0,12.0,"{""12"": 4}","{""12"": 28}","{""12"": 66, ""13"": 11, ""14"": 1, ""11"": 1}",non_bati
06023004,BREIL SUR ROYA,43.940167,7.513667,305,demuzere,13.0,13.0,12.0,"{""13"": 3}","{""12"": 7, ""6"": 4, ""13"": 14, ""17"": 1, ""9"": 2}","{""12"": 31, ""11"": 11, ""13"": 17, ""14"": 1, ""6"": 9, ""9"": 8, ""17"": 2}",non_bati
06029001,CANNES,43.5565,6.9505,2,demuzere,8.0,8.0,8.0,"{""8"": 1, ""14"": 1}","{""6"": 6, ""14"": 10, ""8"": 11}","{""14"": 17, ""6"": 22, ""8"": 39}",bati_special
06033002,CARROS_SAPC,43.786667,7.209167,78,demuzere,8.0,8.0,8.0,"{""8"": 2, ""6"": 1}","{""8"": 17, ""6"": 11, ""15"": 1}","{""8"": 34, ""15"": 15, ""6"": 29}",bati_special
06037002,CAUSSOLS,43.752333,6.923167,1268,demuzere,14.0,14.0,12.0,"{""14"": 3}","{""12"": 4, ""14"": 19, ""15"": 5, ""13"": 1}","{""12"": 32, ""14"": 32, ""15"": 5, ""13"": 9}",non_bati
06048003,CONTES,43.8,7.316667,200,demuzere,11.0,11.0,11.0,"{""11"": 3, ""12"": 1}","{""11"": 18, ""6"": 3, ""12"": 5, ""14"": 2}","{""6"": 24, ""11"": 48, ""12"": 5, ""14"": 2}",non_bati
06050002,COURSEGOULES_SAPC,43.792,7.0485,985,demuzere,12.0,12.0,12.0,"{""13"": 1, ""12"": 2}","{""13"": 11, ""12"": 16}","{""12"": 58, ""13"": 18}",non_bati
06056400,ESTENC_NIVO,44.239167,6.753,1850,demuzere,9.0,9.0,9.0,"{""9"": 3}","{""9"": 20, ""15"": 4, ""11"": 4, ""14"": 1}","{""9"": 31, ""15"": 17, ""11"": 20, ""14"": 10, ""12"": 1}",bati_special
06057001,L ESCARENE,43.838,7.355,380,demuzere,6.0,6.0,6.0,"{""6"": 3}","{""6"": 17, ""13"": 4, ""11"": 7}","{""6"": 42, ""12"": 5, ""13"": 12, ""11"": 18, ""9"": 1}",urbain_aere
06059003,EZE,43.738833,7.365833,704,demuzere,6.0,6.0,6.0,"{""6"": 3}","{""12"": 7, ""11"": 3, ""6"": 18}","{""11"": 17, ""12"": 21, ""6"": 40, ""9"": 1}",urbain_aere
06069008,GRASSE,43.653667,6.9395,183,demuzere,6.0,6.0,6.0,"{""6"": 4}","{""6"": 29}","{""6"": 79}",urbain_aere
06071001,GUILLAUMES-OBS,44.090667,6.852333,788,demuzere,6.0,12.0,12.0,"{""6"": 2}","{""12"": 14, ""6"": 11, ""13"": 1, ""11"": 1}","{""12"": 36, ""11"": 25, ""6"": 13, ""13"": 3, ""9"": 1}",non_bati
06071003,GUILLAUMES,44.1,6.85,780,demuzere,11.0,11.0,11.0,"{""11"": 4}","{""12"": 6, ""11"": 23}","{""12"": 21, ""11"": 59}",non_bati
06073005,ISOLA 2000,44.1895,7.149,1912,demuzere,15.0,14.0,14.0,"{""15"": 3}","{""14"": 11, ""6"": 5, ""12"": 4, ""15"": 6, ""11"": 3}","{""14"": 34, ""6"": 7, ""15"": 8, ""12"": 18, ""11"": 11}",non_bati
06075006,LEVENS_RESERVOIRS,43.861667,7.236667,668,demuzere,11.0,11.0,11.0,"{""11"": 4}","{""13"": 3, ""11"": 20, ""12"": 7}","{""11"": 43, ""13"": 12, ""12"": 21, ""6"": 3}",non_bati
06077006,PEIRA CAVA,43.929167,7.363333,1443,demuzere,12.0,11.0,11.0,"{""12"": 2}","{""11"": 15, ""12"": 13}","{""11"": 58, ""13"": 2, ""12"": 19}",non_bati
06079002,MANDELIEU LA NAPOULE_SAPC,43.523667,6.898667,104,demuzere,14.0,14.0,12.0,"{""14"": 3, ""12"": 1}","{""12"": 9, ""11"": 6, ""14"": 13, ""13"": 1}","{""12"": 34, ""11"": 24, ""14"": 21, ""13"": 1}",non_bati
06083005,MENTON,43.785833,7.488667,216,demuzere,11.0,6.0,6.0,"{""11"": 3}","{""11"": 11, ""12"": 1, ""6"": 17}","{""12"": 5, ""6"": 58, ""9"": 3, ""11"": 13}",urbain_aere
06083006,MENTON-PORT,43.784,7.519333,19,demuzere,6.0,6.0,6.0,"{""6"": 1, ""8"": 1}","{""6"": 12, ""8"": 2}","{""6"": 37, ""8"": 2, ""17"": 1}",urbain_aere
06084002,MOUANS SARTOUX,43.611833,6.951167,165,demuzere,6.0,11.0,11.0,"{""6"": 2}","{""11"": 13, ""6"": 9, ""8"": 6}","{""6"": 29, ""11"": 36, ""12"": 3, ""8"": 10}",non_bati
06086001,MOULINET,43.942,7.414667,817,demuzere,12.0,12.0,12.0,"{""13"": 1, ""12"": 3}","{""14"": 1, ""12"": 15, ""13"": 4, ""11"": 9}","{""11"": 31, ""12"": 37, ""14"": 2, ""13"": 11}",non_bati
06088001,NICE,43.648833,7.209,2,demuzere,,,,{},{},{},
06088009,NICE-ST ROMAN,43.751667,7.216667,323,demuzere,6.0,6.0,6.0,"{""6"": 3}","{""11"": 5, ""6"": 22}","{""11"": 32, ""6"": 45}",urbain_aere
06091003,PEILLE,43.775167,7.428333,1106,demuzere,12.0,12.0,12.0,"{""12"": 3}","{""12"": 28}","{""11"": 8, ""12"": 70}",non_bati
06094001,PEONE-VALBERG,44.1,6.933333,1659,demuzere,14.0,14.0,12.0,"{""14"": 2}","{""12"": 6, ""14"": 15, ""9"": 6}","{""11"": 1, ""12"": 28, ""14"": 28, ""9"": 16, ""6"": 3, ""15"": 1}",non_bati
06094002,PEONE,44.099667,6.930833,1784,demuzere,14.0,12.0,12.0,"{""12"": 1, ""14"": 3}","{""12"": 16, ""14"": 10, ""6"": 2, ""9"": 1}","{""11"": 8, ""12"": 30, ""14"": 22, ""9"": 12, ""6"": 6, ""5"": 1, ""15"": 1}",non_bati
06099004,PUGET THENIERS_SAPC,43.956833,6.892333,449,demuzere,13.0,6.0,11.0,"{""13"": 2, ""3"": 2}","{""11"": 8, ""12"": 2, ""13"": 6, ""3"": 2, ""6"": 11}","{""13"": 14, ""12"": 16, ""11"": 23, ""3"": 2, ""6"": 23, ""15"": 2}",non_bati
06106002,ROQUESTERON,43.876333,7.006167,405,demuzere,13.0,12.0,12.0,"{""13"": 2, ""12"": 2}","{""12"": 15, ""13"": 12, ""11"": 1}","{""13"": 26, ""12"": 37, ""11"": 16}",non_bati
06116002,ST AUBAN,43.847,6.727,1048,demuzere,12.0,12.0,12.0,"{""12"": 3, ""14"": 1}","{""13"": 1, ""6"": 1, ""12"": 21, ""14"": 6}","{""11"": 7, ""12"": 51, ""13"": 4, ""6"": 1, ""14"": 17}",non_bati
06118001,ST CEZAIRE,43.645167,6.797667,474,demuzere,6.0,6.0,6.0,"{""6"": 4}","{""6"": 20, ""9"": 1, ""11"": 6, ""13"": 1, ""12"": 1}","{""6"": 47, ""11"": 28, ""12"": 2, ""9"": 2, ""13"": 2}",urbain_aere
06120001,TINEE-AURON,44.222667,6.937333,1605,demuzere,14.0,11.0,11.0,"{""9"": 1, ""14"": 2}","{""12"": 6, ""9"": 4, ""14"": 4, ""11"": 15}","{""15"": 5, ""12"": 11, ""9"": 15, ""14"": 9, ""11"": 38}",non_bati
06121001,CAP FERRAT,43.683333,7.328333,138,demuzere,6.0,6.0,6.0,"{""6"": 2, ""9"": 1}","{""6"": 21, ""9"": 7}","{""6"": 60, ""9"": 10, ""17"": 7, ""11"": 1, ""14"": 1}",urbain_aere
06127001,ST-MARTIN-DE-VESUBIE-OBS,44.074167,7.254167,994,demuzere,12.0,12.0,12.0,"{""12"": 4}","{""12"": 29, ""14"": 1}","{""11"": 9, ""9"": 1, ""12"": 56, ""13"": 1, ""6"": 12, ""14"": 2}",non_bati
06127003,ST MARTIN VESUBIE,44.073667,7.258167,1044,demuzere,12.0,12.0,12.0,"{""12"": 2, ""6"": 1}","{""12"": 16, ""13"": 1, ""6"": 8, ""14"": 1, ""11"": 3}","{""11"": 18, ""12"": 45, ""13"": 1, ""6"": 12, ""14"": 1, ""17"": 1}",non_bati
06130001,ST-VALLIER-OBS,43.716667,6.833333,715,demuzere,11.0,11.0,11.0,"{""11"": 4}","{""12"": 10, ""11"": 19}","{""12"": 39, ""11"": 41}",non_bati
06130002,ST VALLIER,43.691333,6.843,708,demuzere,6.0,9.0,12.0,"{""6"": 1, ""9"": 1}","{""9"": 10, ""12"": 7, ""6"": 10}","{""9"": 26, ""12"": 38, ""6"": 13}",non_bati
06136004,SOSPEL-COLLETTA,43.866667,7.433333,540,demuzere,11.0,11.0,11.0,"{""11"": 2}","{""11"": 21, ""12"": 6}","{""11"": 56, ""12"": 22}",non_bati
06148001,TOURRETTES SUR LOUP,43.708167,7.055833,311,demuzere,6.0,6.0,6.0,"{""6"": 1, ""13"": 1}","{""9"": 5, ""13"": 9, ""6"": 14}","{""6"": 33, ""12"": 6, ""9"": 19, ""13"": 20, ""11"": 2}",urbain_aere
06152002,VALBONNE-SOPHIA,43.623167,7.0285,238,demuzere,6.0,11.0,11.0,"{""11"": 1, ""6"": 2}","{""11"": 16, ""6"": 12}","{""11"": 53, ""6"": 25}",non_bati
06153004,VALDEBLORE,44.069,7.1695,1058,demuzere,12.0,12.0,12.0,"{""12"": 4}","{""12"": 26, ""11"": 2}","{""12"": 62, ""6"": 1, ""11"": 16}",non_bati
06154002,VALDEROURE,43.792333,6.7345,1105,demuzere,14.0,12.0,11.0,"{""12"": 1, ""14"": 2}","{""12"": 13, ""14"": 6, ""11"": 8}","{""12"": 26, ""14"": 18, ""11"": 31}",non_bati
06163005,TENDE-CASTERINO,44.091833,7.5035,1554,demuzere,11.0,11.0,11.0,"{""11"": 3}","{""11"": 26, ""12"": 1}","{""11"": 68, ""12"": 6, ""14"": 1, ""9"": 3}",non_bati
06163007,TENDE_SAPC,44.043167,7.586,636,demuzere,11.0,11.0,11.0,"{""11"": 3}","{""12"": 7, ""11"": 21}","{""12"": 21, ""11"": 58}",non_bati
07005001,ALBA LA ROMAINE,44.539833,4.5825,223,demuzere,14.0,14.0,14.0,"{""14"": 4}","{""14"": 28}","{""14"": 79}",non_bati
07005002,ALBA SA,44.538833,4.582833,223,demuzere,14.0,14.0,14.0,"{""14"": 2}","{""14"": 26}","{""14"": 77}",non_bati
07010001,ANNONAY,45.246167,4.6705,336,demuzere,6.0,6.0,6.0,"{""6"": 4}","{""6"": 28}","{""6"": 75, ""2"": 1, ""5"": 1, ""3"": 2}",urbain_aere
07011004,ANTRAIGUES SA,44.712167,4.352167,600,demuzere,12.0,11.0,11.0,"{""12"": 3}","{""11"": 16, ""12"": 13}","{""11"": 54, ""12"": 26}",non_bati
07019005,AUBENAS SA,44.601667,4.409833,176,demuzere,14.0,6.0,6.0,"{""14"": 2}","{""6"": 10, ""14"": 10, ""9"": 1, ""17"": 1, ""12"": 2, ""11"": 2}","{""6"": 32, ""9"": 3, ""14"": 23, ""12"": 15, ""17"": 2, ""11"": 2}",urbain_aere
07025001,BARNAS RAD,44.666,4.159833,480,demuzere,11.0,11.0,11.0,"{""11"": 3, ""12"": 1}","{""11"": 19, ""12"": 10}","{""11"": 57, ""12"": 20, ""13"": 3}",non_bati
07032003,BERZEME SA,44.6285,4.5665,760,demuzere,12.0,12.0,12.0,"{""12"": 3}","{""12"": 23, ""9"": 1, ""14"": 3, ""11"": 1}","{""12"": 61, ""9"": 2, ""14"": 6, ""11"": 10}",non_bati
07064001,CHEYLARD SA,44.914833,4.4375,418,demuzere,6.0,6.0,6.0,"{""6"": 3}","{""9"": 5, ""6"": 22}","{""9"": 15, ""12"": 2, ""6"": 54, ""14"": 3, ""11"": 1}",urbain_aere
07066001,CHOMERAC SA_RCE,44.6995,4.648333,216,demuzere,14.0,14.0,14.0,"{""14"": 2}","{""14"": 24, ""9"": 4}","{""14"": 59, ""9"": 18, ""12"": 2}",non_bati
07068001,COLOMBIER JEUNE RAD,45.0155,4.671167,566,demuzere,12.0,12.0,11.0,"{""12"": 3}","{""11"": 8, ""12"": 19}","{""11"": 45, ""12"": 29}",non_bati
07069001,COLOMBIER VIEUX SA,45.063667,4.698,408,demuzere,14.0,14.0,14.0,"{""14"": 3}","{""9"": 8, ""14"": 21}","{""14"": 59, ""6"": 2, ""9"": 13, ""12"": 4}",non_bati
07075001,CROS GEORAND,44.780167,4.099667,1021,demuzere,12.0,17.0,11.0,"{""12"": 2, ""17"": 1, ""14"": 1}","{""17"": 15, ""12"": 11, ""14"": 2, ""11"": 4}","{""12"": 25, ""17"": 22, ""14"": 5, ""11"": 28}",non_bati
07101001,GROSPIERRES,44.411333,4.300833,127,demuzere,12.0,12.0,12.0,"{""12"": 3}","{""14"": 6, ""12"": 14, ""9"": 7}","{""12"": 41, ""14"": 13, ""6"": 3, ""9"": 18}",non_bati
07101002,GROSPIERRES SA,44.4115,4.295833,107,demuzere,12.0,14.0,14.0,"{""12"": 1, ""14"": 1}","{""14"": 16, ""12"": 6, ""6"": 4, ""9"": 2}","{""12"": 21, ""14"": 35, ""6"": 13, ""9"": 10}",non_bati
07105001,ISSANLAS,44.773167,3.981667,1215,demuzere,12.0,12.0,14.0,"{""12"": 3}","{""12"": 18, ""14"": 11}","{""12"": 31, ""11"": 2, ""14"": 46}",non_bati
07110001,JOYEUSE,44.477667,4.230833,212,demuzere,6.0,6.0,6.0,"{""6"": 4}","{""11"": 6, ""6"": 16, ""12"": 1, ""14"": 5, ""9"": 2}","{""6"": 34, ""11"": 13, ""12"": 11, ""14"": 10, ""9"": 11}",urbain_aere
07117001,LABLACHERE DROME,44.461333,4.234833,265,demuzere,14.0,14.0,14.0,"{""14"": 3, ""12"": 1}","{""14"": 25, ""9"": 2, ""12"": 2}","{""12"": 14, ""9"": 25, ""14"": 41}",non_bati
07117002,LABLACHERE,44.480833,4.208333,295,demuzere,9.0,9.0,9.0,"{""9"": 1, ""13"": 1}","{""9"": 10, ""12"": 6, ""13"": 6, ""14"": 4}","{""11"": 5, ""14"": 12, ""13"": 19, ""12"": 15, ""9"": 27}",bati_special
07128001,LALOUVESC,45.117833,4.535,1090,demuzere,12.0,12.0,11.0,"{""12"": 3}","{""6"": 1, ""12"": 16, ""11"": 11}","{""12"": 37, ""6"": 2, ""11"": 39}",non_bati
07131001,LANAS SYN,44.537167,4.368167,265,demuzere,14.0,14.0,14.0,"{""9"": 1, ""14"": 2}","{""9"": 7, ""14"": 12, ""12"": 6, ""13"": 3}","{""9"": 13, ""14"": 31, ""12"": 31, ""13"": 4}",non_bati
07144001,LOUBARESSE,44.599833,4.049333,1200,demuzere,12.0,12.0,12.0,"{""12"": 3}","{""12"": 27, ""14"": 1}","{""12"": 70, ""13"": 5, ""14"": 2, ""11"": 1}",non_bati
07154005,MAZAN ABBAYE RAD,44.733833,4.083833,1240,demuzere,12.0,12.0,12.0,"{""14"": 1, ""12"": 2}","{""12"": 19, ""11"": 6, ""14"": 3}","{""11"": 19, ""12"": 46, ""14"": 14}",non_bati
07159001,MIRABEL SA,44.5815,4.497333,275,demuzere,14.0,14.0,14.0,"{""14"": 4}","{""14"": 30}","{""14"": 69, ""9"": 5, ""12"": 5}",non_bati
07161001,MONTPEZAT SA,44.715667,4.207,602,demuzere,12.0,12.0,12.0,"{""12"": 2}","{""12"": 17, ""14"": 1, ""9"": 3, ""11"": 7}","{""11"": 32, ""14"": 6, ""12"": 38, ""9"": 3, ""13"": 1}",non_bati
07168001,ORGNAC AVEN,44.288333,4.421667,230,demuzere,14.0,14.0,14.0,"{""14"": 4}","{""9"": 1, ""12"": 1, ""14"": 25, ""11"": 3}","{""9"": 4, ""14"": 57, ""12"": 9, ""11"": 8, ""13"": 1}",non_bati
07172002,PEAUGRES RAD,45.286167,4.705833,480,demuzere,14.0,14.0,14.0,"{""14"": 4}","{""14"": 27, ""9"": 1}","{""9"": 14, ""12"": 5, ""14"": 60}",non_bati
07185001,PREAUX SA,45.14,4.665,525,demuzere,14.0,14.0,14.0,"{""14"": 4}","{""9"": 2, ""14"": 18, ""12"": 8}","{""14"": 39, ""12"": 24, ""9"": 10, ""11"": 5}",non_bati
07192001,ROCHEPAULE SA,45.081667,4.453333,1055,demuzere,12.0,12.0,12.0,"{""12"": 3}","{""12"": 24, ""11"": 5}","{""14"": 3, ""12"": 48, ""11"": 24, ""9"": 5}",non_bati
07202002,SABLIERES OARA,44.533,4.0725,540,demuzere,12.0,12.0,11.0,"{""12"": 4}","{""12"": 20, ""11"": 7, ""13"": 2}","{""12"": 32, ""13"": 6, ""11"": 42}",non_bati
07204005,ST-AGREVE,45.012167,4.401,1072,demuzere,12.0,12.0,12.0,"{""12"": 2}","{""12"": 25, ""6"": 2}","{""14"": 5, ""12"": 57, ""11"": 3, ""6"": 10}",non_bati
07228001,ST-DESIRAT SA,45.260333,4.783667,275,demuzere,13.0,13.0,14.0,"{""13"": 3}","{""9"": 5, ""14"": 8, ""13"": 9, ""12"": 4, ""6"": 2}","{""14"": 29, ""9"": 13, ""13"": 14, ""12"": 12, ""6"": 11}",non_bati
07230002,ESCRINET SA,44.715333,4.4905,737,demuzere,12.0,11.0,11.0,"{""12"": 2, ""11"": 1}","{""12"": 9, ""11"": 18}","{""12"": 31, ""11"": 47}",non_bati
07232001,ST-ETIENNE LUGDARES,44.651333,3.9485,1022,demuzere,12.0,12.0,12.0,"{""12"": 2}","{""14"": 9, ""12"": 18, ""11"": 1}","{""12"": 55, ""14"": 11, ""13"": 2, ""11"": 11}",non_bati
07237001,ST-FORTUNAT,44.816667,4.661667,205,demuzere,11.0,11.0,11.0,"{""11"": 4}","{""14"": 1, ""12"": 1, ""11"": 29}","{""9"": 3, ""11"": 68, ""12"": 3, ""14"": 2, ""13"": 3}",non_bati
07261001,ST-LAURENT PAPE,44.817833,4.746833,112,demuzere,12.0,12.0,11.0,"{""12"": 3}","{""12"": 10, ""14"": 5, ""9"": 3, ""11"": 9}","{""11"": 34, ""12"": 14, ""15"": 4, ""14"": 11, ""16"": 4, ""9"": 10}",non_bati
07265001,ST-MARCEL ANNONAY,45.296,4.642,494,demuzere,12.0,12.0,12.0,"{""12"": 3}","{""12"": 20, ""11"": 8}","{""12"": 36, ""17"": 4, ""14"": 7, ""11"": 32}",non_bati
07286004,ST PVILLE S.A.,44.82,4.488333,640,demuzere,12.0,12.0,12.0,"{""12"": 3}","{""12"": 26, ""11"": 2}","{""11"": 14, ""12"": 61, ""9"": 1, ""13"": 1}",non_bati
07294001,ST-SAUVEUR SA,44.296,4.26,149,demuzere,6.0,14.0,14.0,"{""6"": 1, ""12"": 1, ""14"": 1}","{""6"": 8, ""14"": 18, ""12"": 2}","{""13"": 3, ""9"": 1, ""14"": 56, ""6"": 16, ""12"": 2}",non_bati
07330004,VALLON SA,44.391833,4.403667,120,demuzere,9.0,12.0,12.0,"{""14"": 1, ""9"": 2}","{""12"": 15, ""11"": 10, ""14"": 1, ""9"": 2}","{""14"": 9, ""12"": 34, ""11"": 32, ""9"": 3, ""17"": 1}",non_bati
07331001,VALS-LES-BAINS,44.6695,4.360667,283,demuzere,6.0,6.0,6.0,"{""6"": 3}","{""6"": 18, ""9"": 4, ""12"": 5}","{""12"": 15, ""6"": 37, ""9"": 15, ""11"": 7}",urbain_aere
07334003,LES VANS SA,44.411667,4.118,275,demuzere,9.0,9.0,9.0,"{""13"": 1, ""9"": 3}","{""11"": 5, ""9"": 16, ""13"": 6, ""12"": 2, ""14"": 2}","{""11"": 21, ""12"": 4, ""13"": 19, ""9"": 27, ""14"": 7}",bati_special
07338001,VERNOUX,44.8995,4.652333,561,demuzere,6.0,6.0,6.0,"{""6"": 2, ""12"": 2}","{""6"": 16, ""12"": 13, ""13"": 1}","{""6"": 40, ""12"": 38, ""14"": 1, ""13"": 1, ""17"": 1}",urbain_aere
07338005,VERNOUX SA,44.893333,4.626667,510,demuzere,12.0,12.0,12.0,"{""12"": 4}","{""12"": 20, ""11"": 9}","{""12"": 46, ""11"": 32, ""14"": 1}",non_bati
08025001,ATTIGNY,49.475,4.575,81,demuzere,6.0,6.0,6.0,"{""6"": 3}","{""6"": 18, ""14"": 8, ""9"": 3}","{""6"": 40, ""14"": 30, ""9"": 9}",urbain_aere
08046001,BANOGNE-RECOUVRANCE,49.571667,4.129167,130,demuzere,14.0,14.0,14.0,"{""6"": 1, ""14"": 3}","{""6"": 7, ""14"": 21, ""12"": 1}","{""14"": 70, ""6"": 8, ""12"": 2}",non_bati
08092001,CAUROY,49.346833,4.465167,139,demuzere,14.0,14.0,14.0,"{""14"": 2, ""9"": 1, ""6"": 1}","{""14"": 18, ""9"": 4, ""6"": 7}","{""14"": 59, ""9"": 8, ""6"": 12}",non_bati
08105003,MONTCY-ST-PIER,49.773667,4.739667,145,demuzere,6.0,6.0,6.0,"{""6"": 4}","{""6"": 26, ""17"": 3}","{""17"": 7, ""14"": 2, ""12"": 2, ""6"": 68}",urbain_aere
08105005,CHARLEVILLE-MEZ,49.782833,4.643167,145,demuzere,14.0,14.0,14.0,"{""14"": 3}","{""14"": 25, ""12"": 3}","{""14"": 59, ""12"": 19}",non_bati
08116001,LE CHESNE,49.510333,4.766167,168,demuzere,14.0,14.0,14.0,"{""14"": 2, ""12"": 1}","{""6"": 6, ""12"": 10, ""14"": 12}","{""6"": 26, ""12"": 15, ""11"": 1, ""14"": 35}",non_bati
08145001,DOUZY,49.658,5.039833,153,demuzere,14.0,14.0,14.0,"{""14"": 3}","{""14"": 28}","{""14"": 77}",non_bati
08207001,HAM-SUR-MEUSE,50.116,4.7795,109,demuzere,12.0,12.0,12.0,"{""12"": 1, ""14"": 1}","{""12"": 18, ""14"": 3, ""11"": 3, ""17"": 2}","{""12"": 47, ""14"": 10, ""11"": 9, ""9"": 2, ""17"": 5, ""6"": 3}",non_bati
08239001,JUNIVILLE,49.397333,4.371667,90,demuzere,14.0,14.0,14.0,"{""14"": 3}","{""14"": 21, ""9"": 2, ""12"": 4, ""11"": 1}","{""14"": 60, ""9"": 4, ""12"": 8, ""11"": 1, ""6"": 6}",non_bati
08255001,LINAY,49.616833,5.216833,177,demuzere,14.0,14.0,14.0,"{""14"": 3}","{""14"": 21, ""12"": 8}","{""14"": 55, ""12"": 22, ""11"": 1}",non_bati
08354001,RAUCOURT - MAN,49.605,4.96,200,demuzere,9.0,6.0,12.0,"{""6"": 1, ""9"": 2}","{""6"": 10, ""9"": 8, ""14"": 1, ""12"": 5, ""11"": 5}","{""14"": 6, ""12"": 22, ""9"": 18, ""6"": 15, ""11"": 17}",non_bati
08362002,RETHEL - MAN,49.5025,4.363667,71,demuzere,6.0,6.0,6.0,"{""6"": 3}","{""6"": 29}","{""6"": 66, ""8"": 4, ""12"": 8}",urbain_aere
08362003,RETHEL,49.516667,4.373333,115,demuzere,6.0,6.0,6.0,"{""6"": 3}","{""6"": 22, ""14"": 5}","{""6"": 54, ""14"": 22}",urbain_aere
08363001,REVIN,49.9325,4.626667,130,demuzere,6.0,6.0,6.0,"{""6"": 3, ""17"": 1}","{""6"": 19, ""12"": 1, ""11"": 4, ""17"": 4, ""14"": 1}","{""6"": 34, ""17"": 8, ""14"": 2, ""11"": 26, ""12"": 10}",urbain_aere
08367001,ROCROI - MAN,49.921667,4.52,386,demuzere,14.0,14.0,14.0,"{""14"": 2}","{""14"": 27, ""6"": 1}","{""14"": 71, ""6"": 5, ""12"": 1}",non_bati
08367002,ROCROI,49.918667,4.53,382,demuzere,14.0,14.0,14.0,"{""14"": 2}","{""14"": 27}","{""14"": 76, ""12"": 1, ""9"": 1}",non_bati
08419001,SIGNY-L'ABBAYE,49.686,4.418833,180,demuzere,11.0,11.0,11.0,"{""12"": 1, ""11"": 2}","{""12"": 8, ""11"": 20}","{""12"": 21, ""14"": 3, ""11"": 53}",non_bati
08490001,VOUZIERS,49.404167,4.704,96,demuzere,6.0,6.0,6.0,"{""14"": 1, ""6"": 2}","{""11"": 1, ""12"": 4, ""14"": 9, ""6"": 15}","{""11"": 4, ""14"": 28, ""6"": 40, ""12"": 6}",urbain_aere
09022001,ARVIGNA,43.057833,1.729167,370,demuzere,14.0,14.0,14.0,"{""14"": 2, ""12"": 1}","{""14"": 19, ""12"": 6, ""13"": 2}","{""14"": 43, ""12"": 26, ""11"": 6, ""13"": 2}",non_bati
09023002,ASCOU LAVAIL,42.725333,1.8885,1090,demuzere,11.0,11.0,12.0,"{""11"": 3}","{""11"": 14, ""12"": 11, ""17"": 2}","{""11"": 37, ""12"": 38, ""17"": 2}",non_bati
09024004,ASTON,42.724167,1.691,1781,demuzere,9.0,9.0,11.0,"{""14"": 1, ""9"": 3}","{""9"": 14, ""12"": 3, ""14"": 4, ""11"": 8}","{""12"": 11, ""11"": 36, ""14"": 14, ""9"": 19}",non_bati
09024005,RULHE,42.638167,1.725833,2185,demuzere,9.0,9.0,9.0,"{""9"": 3, ""14"": 1}","{""9"": 19, ""12"": 6, ""14"": 4, ""15"": 1}","{""14"": 16, ""9"": 47, ""12"": 11, ""15"": 6}",bati_special
09027001,AUGIREIN,42.930167,0.92,655,demuzere,12.0,11.0,11.0,"{""11"": 1, ""12"": 3}","{""12"": 13, ""11"": 15}","{""11"": 50, ""12"": 29}",non_bati
09029001,AULUS-LES-BAINS,42.793833,1.333833,733,demuzere,12.0,11.0,11.0,"{""12"": 2, ""11"": 2}","{""11"": 18, ""12"": 11}","{""11"": 51, ""12"": 26, ""6"": 3}",non_bati
09029402,Aulus les Bains,42.793833,1.333833,733,demuzere,12.0,11.0,11.0,"{""12"": 2, ""11"": 2}","{""11"": 18, ""12"": 11}","{""11"": 51, ""12"": 26, ""6"": 3}",non_bati
09042003,LA BASTIDE DE S,43.024333,1.3885,420,demuzere,12.0,12.0,12.0,"{""12"": 2, ""13"": 2}","{""12"": 19, ""13"": 4, ""14"": 6}","{""12"": 49, ""14"": 20, ""13"": 6, ""11"": 5}",non_bati
09067001,BRIE,43.202667,1.524333,265,demuzere,14.0,14.0,14.0,"{""14"": 2, ""12"": 2}","{""14"": 17, ""12"": 12}","{""14"": 45, ""12"": 35, ""11"": 1}",non_bati
09071001,CADARCET,43.012667,1.501333,510,demuzere,13.0,12.0,12.0,"{""13"": 2, ""9"": 1}","{""12"": 14, ""13"": 7, ""9"": 3, ""14"": 4}","{""11"": 9, ""12"": 36, ""13"": 12, ""9"": 3, ""14"": 17}",non_bati
09079001,CARLA BAYLE,43.143,1.3745,375,demuzere,14.0,14.0,14.0,"{""14"": 4}","{""14"": 29}","{""14"": 76, ""12"": 4}",non_bati
09094001,CERIZOLS,43.126,1.063,374,demuzere,12.0,12.0,12.0,"{""13"": 1, ""12"": 2}","{""13"": 3, ""14"": 6, ""12"": 18}","{""12"": 60, ""13"": 6, ""14"": 10, ""11"": 2}",non_bati
09139001,HOSPITALET,42.588667,1.796333,1425,demuzere,11.0,11.0,11.0,"{""11"": 3, ""12"": 1}","{""12"": 11, ""11"": 15, ""9"": 1, ""6"": 2}","{""12"": 29, ""11"": 45, ""9"": 4, ""6"": 2}",non_bati
09161003,LERAN,42.990333,1.919167,391,demuzere,14.0,14.0,14.0,"{""14"": 4}","{""14"": 21, ""12"": 6, ""11"": 2}","{""14"": 53, ""11"": 5, ""12"": 17, ""13"": 5}",non_bati
09181003,LE MAS D AZIL,43.0735,1.357667,293,demuzere,11.0,11.0,12.0,"{""11"": 3, ""12"": 1}","{""11"": 23, ""12"": 7}","{""12"": 41, ""11"": 37, ""13"": 1}",non_bati
09185001,MAZERES,43.221333,1.673667,253,demuzere,11.0,11.0,14.0,"{""11"": 1, ""14"": 1, ""13"": 1, ""12"": 1}","{""11"": 14, ""12"": 5, ""14"": 9, ""13"": 1}","{""14"": 52, ""11"": 22, ""12"": 6, ""13"": 1}",non_bati
09194001,MIREPOIX,43.085833,1.87,310,demuzere,6.0,6.0,6.0,"{""6"": 4}","{""6"": 24, ""14"": 3, ""9"": 1, ""12"": 1}","{""6"": 54, ""12"": 7, ""14"": 16, ""9"": 4}",urbain_aere
09199002,MONTAUT,43.192167,1.6435,295,demuzere,14.0,14.0,14.0,"{""14"": 3}","{""12"": 3, ""14"": 22, ""9"": 1}","{""14"": 48, ""12"": 19, ""9"": 11}",non_bati
09206001,MONTFERRIER,42.891833,1.781167,760,demuzere,11.0,11.0,11.0,"{""11"": 3}","{""12"": 9, ""11"": 20}","{""11"": 58, ""12"": 21}",non_bati
09206002,MONT D'OLMES,42.843667,1.744333,1500,demuzere,12.0,12.0,12.0,"{""12"": 4}","{""12"": 20, ""11"": 7, ""9"": 1}","{""11"": 36, ""12"": 37, ""9"": 6}",non_bati
09206400,Mont d Olmes,42.843833,1.744167,1472,demuzere,12.0,12.0,12.0,"{""12"": 4}","{""12"": 22, ""11"": 7, ""9"": 1}","{""11"": 36, ""12"": 37, ""9"": 6}",non_bati
09225004,PAMIERS LYCAGRI,43.127,1.6455,294,demuzere,14.0,14.0,14.0,"{""12"": 1, ""14"": 2}","{""12"": 6, ""11"": 1, ""14"": 20}","{""12"": 9, ""11"": 4, ""14"": 62, ""6"": 2}",non_bati
09230001,LE PLA,42.715,2.083667,1040,demuzere,12.0,12.0,12.0,"{""12"": 2, ""11"": 1}","{""12"": 25, ""11"": 4}","{""12"": 56, ""11"": 22}",non_bati
09250001,LES CASCADES,42.963667,1.748,530,demuzere,12.0,12.0,12.0,"{""12"": 3, ""14"": 1}","{""12"": 27, ""14"": 4, ""11"": 1}","{""11"": 25, ""12"": 47, ""14"": 7}",non_bati
09277001,ST-YBARS,43.2515,1.4215,330,demuzere,14.0,14.0,14.0,"{""14"": 4}","{""14"": 29}","{""14"": 79}",non_bati
09289001,ST GIRONS,43.005333,1.106833,414,demuzere,12.0,12.0,12.0,"{""12"": 3}","{""12"": 20, ""14"": 9}","{""12"": 61, ""14"": 17}",non_bati
09290004,EYLIE D'EN HAUT,42.835167,0.9345,1010,demuzere,12.0,12.0,11.0,"{""12"": 4}","{""11"": 9, ""12"": 19}","{""11"": 49, ""12"": 31}",non_bati
09290400,SENTEIN EYLIE HAUT,42.835333,0.934667,1000,demuzere,12.0,12.0,11.0,"{""12"": 3}","{""11"": 9, ""12"": 19}","{""11"": 47, ""12"": 31}",non_bati
09301001,SOULAN,42.914667,1.234333,638,demuzere,12.0,12.0,12.0,"{""12"": 2}","{""12"": 19, ""11"": 8}","{""12"": 59, ""11"": 18}",non_bati
09306001,TARASCON SUR AR,42.850667,1.598333,475,demuzere,6.0,6.0,6.0,"{""6"": 4}","{""6"": 26, ""12"": 2}","{""12"": 14, ""6"": 67}",urbain_aere
09334004,VICDESSOS,42.771667,1.488167,750,demuzere,12.0,12.0,12.0,"{""12"": 3, ""11"": 1}","{""11"": 5, ""12"": 23}","{""12"": 49, ""13"": 3, ""11"": 26}",non_bati
10002001,AILLEVILLE_SAPC,48.254167,4.685667,195,demuzere,14.0,14.0,14.0,"{""14"": 4}","{""14"": 28, ""6"": 2}","{""14"": 62, ""12"": 7, ""11"": 1, ""6"": 8}",non_bati
10030001,TROYES-BARBEREY,48.324667,4.02,112,demuzere,14.0,14.0,14.0,"{""14"": 4}","{""14"": 29}","{""14"": 76, ""6"": 3}",non_bati
10057001,BOUY-SUR-ORVIN,48.439833,3.504833,102,demuzere,14.0,14.0,14.0,"{""14"": 2}","{""14"": 27}","{""14"": 77}",non_bati
10060001,BREVIANDES,48.263333,4.09,115,demuzere,6.0,6.0,6.0,"{""6"": 3}","{""6"": 29}","{""6"": 74, ""14"": 1, ""12"": 3}",urbain_aere
10075001,CHAMPFLEURY,48.619667,4.050833,118,demuzere,14.0,14.0,14.0,"{""14"": 4}","{""14"": 29}","{""14"": 80}",non_bati
10099002,CHESSY-LES-PRES_SAPC,48.0255,3.915,119,demuzere,14.0,14.0,14.0,"{""14"": 4}","{""12"": 2, ""14"": 27}","{""14"": 73, ""12"": 7}",non_bati
10102001,COLOMBE-LA-FOSSE-CIVC,48.261667,4.779667,252,demuzere,14.0,14.0,14.0,"{""15"": 1, ""14"": 2}","{""14"": 24, ""6"": 2, ""15"": 2}","{""14"": 66, ""13"": 3, ""6"": 6, ""15"": 2, ""12"": 2}",non_bati
10119001,CUNFIN_SAPC,48.0365,4.6785,315,demuzere,14.0,14.0,14.0,"{""14"": 2}","{""14"": 28}","{""14"": 60, ""12"": 9, ""13"": 1, ""11"": 10}",non_bati
10130001,DOSNON,48.609167,4.224667,115,demuzere,14.0,14.0,14.0,"{""14"": 2, ""9"": 1}","{""14"": 24, ""9"": 4}","{""14"": 69, ""9"": 8}",non_bati
10202001,LOGES-MARGUERON,48.082833,4.098667,150,demuzere,12.0,12.0,11.0,"{""12"": 2, ""14"": 1}","{""11"": 4, ""12"": 15, ""14"": 9}","{""11"": 30, ""12"": 29, ""9"": 4, ""14"": 15}",non_bati
10223001,MARCILLY-LE-HAY,48.346167,3.636,128,demuzere,14.0,14.0,14.0,"{""6"": 1, ""14"": 2}","{""9"": 7, ""12"": 1, ""6"": 4, ""14"": 15}","{""14"": 46, ""9"": 19, ""12"": 5, ""6"": 4}",non_bati
10228002,MATHAUX-ETAPE,48.353167,4.472333,145,demuzere,14.0,14.0,14.0,"{""14"": 3}","{""14"": 28}","{""14"": 79}",non_bati
10238001,MESNIL-ST-PERE,48.244833,4.322167,142,demuzere,14.0,14.0,14.0,"{""17"": 1, ""14"": 3}","{""17"": 9, ""14"": 20}","{""17"": 27, ""14"": 50, ""9"": 3}",non_bati
10255002,MONTREUIL,48.217333,4.275833,150,demuzere,14.0,14.0,14.0,"{""14"": 4}","{""14"": 28, ""16"": 1}","{""14"": 79, ""16"": 1}",non_bati
10317001,LES-RICEYS,47.997167,4.372,185,demuzere,14.0,14.0,14.0,"{""14"": 2, ""6"": 1}","{""14"": 17, ""12"": 1, ""6"": 10}","{""9"": 3, ""14"": 45, ""12"": 8, ""6"": 21, ""13"": 1}",non_bati
10317002,LES-RICEYS-CIVC,47.981333,4.3305,274,demuzere,14.0,14.0,14.0,"{""14"": 4}","{""14"": 24, ""9"": 4, ""11"": 1}","{""11"": 20, ""14"": 42, ""13"": 3, ""9"": 14, ""12"": 1}",non_bati
10323001,ROMILLY,48.503333,3.7495,77,demuzere,14.0,14.0,14.0,"{""14"": 3}","{""6"": 3, ""14"": 25}","{""6"": 20, ""14"": 57}",non_bati
10350001,ST-MARDS,48.169833,3.789,227,demuzere,14.0,14.0,14.0,"{""14"": 3}","{""14"": 27}","{""14"": 77}",non_bati
10360001,ST-POUANGE,48.238833,4.049833,122,demuzere,14.0,14.0,14.0,"{""14"": 4}","{""14"": 25, ""6"": 3}","{""14"": 65, ""12"": 8, ""6"": 4, ""9"": 2}",non_bati
10372001,SOULAINES,48.399333,4.671333,138,demuzere,6.0,11.0,11.0,"{""9"": 1, ""6"": 2}","{""11"": 9, ""9"": 6, ""12"": 3, ""6"": 9, ""14"": 2}","{""11"": 39, ""12"": 6, ""9"": 11, ""6"": 18, ""14"": 4}",non_bati
10429001,VILLETTE-SUR-AU,48.532833,4.119667,98,demuzere,14.0,8.0,8.0,"{""14"": 2, ""8"": 2}","{""14"": 9, ""15"": 4, ""8"": 14, ""16"": 2}","{""14"": 28, ""12"": 8, ""15"": 5, ""8"": 32, ""16"": 4, ""17"": 4}",bati_special
10438001,VITRY-LE-CROISE-CIVC,48.144333,4.554167,237,demuzere,14.0,14.0,14.0,"{""14"": 3}","{""14"": 24, ""6"": 1, ""12"": 3}","{""14"": 67, ""12"": 6, ""11"": 1, ""6"": 5}",non_bati
11004001,ALAIGNE,43.1125,2.098333,293,demuzere,14.0,14.0,14.0,"{""14"": 2}","{""14"": 25, ""11"": 3}","{""14"": 75, ""11"": 5}",non_bati
11012001,ARGELIERS,43.308167,2.911667,31,demuzere,6.0,6.0,6.0,"{""6"": 3}","{""6"": 29}","{""6"": 78}",urbain_aere
11013001,ARGENS-MINERVOIS,43.238333,2.768333,34,demuzere,14.0,14.0,14.0,"{""14"": 3}","{""6"": 5, ""14"": 24}","{""6"": 22, ""14"": 51, ""11"": 5}",non_bati
11016003,ARQUETTES-EN-VAL,43.100833,2.503333,240,demuzere,14.0,14.0,14.0,"{""14"": 3}","{""13"": 4, ""14"": 25}","{""13"": 16, ""14"": 62}",non_bati
11028001,BELCAIRE,42.8195,1.968,980,demuzere,14.0,12.0,12.0,"{""14"": 1, ""12"": 1}","{""12"": 22, ""14"": 5}","{""12"": 64, ""11"": 3, ""14"": 10}",non_bati
11041003,VILLESPASSANS,43.364167,2.880833,219,demuzere,13.0,6.0,13.0,"{""13"": 2, ""6"": 1}","{""13"": 11, ""12"": 2, ""6"": 12, ""11"": 3}","{""13"": 34, ""6"": 16, ""11"": 26, ""12"": 2}",non_bati
11069001,CARCASSONNE,43.215333,2.2955,128,demuzere,6.0,6.0,14.0,"{""6"": 4}","{""12"": 9, ""6"": 12, ""14"": 8}","{""14"": 34, ""12"": 18, ""6"": 17, ""8"": 10}",non_bati
11075001,CASTANS,43.404667,2.494333,650,demuzere,11.0,11.0,11.0,"{""11"": 2, ""12"": 1}","{""11"": 22, ""12"": 6}","{""11"": 72, ""12"": 6}",non_bati
11076001,CASTELNAUDARY,43.305333,1.949167,160,demuzere,14.0,14.0,14.0,"{""14"": 2}","{""6"": 8, ""8"": 1, ""14"": 18}","{""6"": 19, ""8"": 21, ""14"": 40}",non_bati
11081003,CAUNES-MINERVOIS,43.334333,2.481,371,demuzere,11.0,11.0,11.0,"{""11"": 2}","{""11"": 29}","{""11"": 73, ""12"": 4}",non_bati
11113001,CUCUGNAN,42.848333,2.6,299,demuzere,13.0,13.0,13.0,"{""13"": 4}","{""14"": 1, ""13"": 28}","{""12"": 2, ""13"": 77, ""14"": 1}",non_bati
11115001,CUXAC-CABARDES,43.351167,2.272167,499,demuzere,13.0,12.0,12.0,"{""13"": 1, ""12"": 1}","{""14"": 1, ""12"": 14, ""11"": 8, ""13"": 3}","{""14"": 20, ""12"": 32, ""11"": 21, ""13"": 3}",non_bati
11124003,DURBAN-CORBIERES,42.993333,2.819167,120,demuzere,12.0,14.0,14.0,"{""12"": 2, ""14"": 2}","{""6"": 3, ""13"": 6, ""14"": 18, ""12"": 2}","{""6"": 22, ""11"": 4, ""14"": 42, ""13"": 9, ""12"": 3}",non_bati
11140001,FERRALS-LES-CORBIERES,43.147167,2.7325,65,demuzere,6.0,6.0,6.0,"{""6"": 2}","{""6"": 21, ""14"": 3, ""11"": 2, ""13"": 1}","{""14"": 20, ""6"": 46, ""11"": 2, ""13"": 9, ""12"": 2}",urbain_aere
11144001,FITOU,42.894667,2.995833,9,demuzere,6.0,6.0,6.0,"{""6"": 3}","{""6"": 24, ""14"": 2}","{""6"": 59, ""14"": 9, ""17"": 5}",urbain_aere
11168001,GRANES,42.909167,2.2505,420,demuzere,12.0,12.0,13.0,"{""12"": 2, ""13"": 1}","{""12"": 15, ""14"": 2, ""13"": 12}","{""13"": 36, ""14"": 10, ""12"": 32}",non_bati
11185001,LAGRASSE,43.0915,2.621833,130,demuzere,6.0,6.0,6.0,"{""6"": 3}","{""6"": 18, ""13"": 3, ""11"": 6, ""12"": 1}","{""13"": 17, ""12"": 10, ""11"": 24, ""6"": 26, ""14"": 1}",urbain_aere
11198001,LAURE-MINERVOIS,43.268667,2.518167,80,demuzere,6.0,6.0,6.0,"{""6"": 3}","{""6"": 28, ""14"": 1}","{""14"": 31, ""6"": 46, ""12"": 1, ""13"": 1}",urbain_aere
11202001,LEUCATE,42.917333,3.059667,42,demuzere,14.0,6.0,6.0,"{""14"": 1}","{""6"": 10, ""14"": 2, ""17"": 1}","{""6"": 26, ""14"": 4, ""17"": 3}",urbain_aere
11203004,LEZIGNAN-CORBIERES,43.173,2.728833,60,demuzere,14.0,14.0,14.0,"{""14"": 3}","{""14"": 24, ""6"": 4}","{""14"": 53, ""6"": 24}",non_bati
11206003,LIMOUX,43.046,2.201167,230,demuzere,14.0,14.0,14.0,"{""14"": 3}","{""12"": 3, ""14"": 13, ""13"": 10, ""11"": 3}","{""9"": 5, ""12"": 11, ""14"": 26, ""6"": 1, ""13"": 26, ""11"": 10}",non_bati
11221004,LES MARTYS,43.4085,2.292333,760,demuzere,12.0,12.0,12.0,"{""12"": 3}","{""12"": 28}","{""12"": 72, ""11"": 7}",non_bati
11243001,MONTFERRAND,43.3535,1.821667,190,demuzere,12.0,14.0,14.0,"{""12"": 2, ""14"": 1}","{""14"": 23, ""12"": 5}","{""14"": 71, ""12"": 8}",non_bati
11260002,MOUTHOUMET,42.9595,2.529,538,demuzere,12.0,12.0,12.0,"{""12"": 2, ""13"": 1}","{""14"": 2, ""6"": 4, ""12"": 12, ""13"": 10}","{""12"": 39, ""13"": 24, ""14"": 9, ""6"": 4, ""11"": 3}",non_bati
11262002,NARBONNE-EGASSIAIRAL,43.179167,3.019167,5,demuzere,6.0,6.0,6.0,"{""6"": 2, ""8"": 1}","{""6"": 16, ""8"": 9, ""14"": 4}","{""6"": 35, ""8"": 24, ""12"": 4, ""14"": 16}",urbain_aere
11262005,NARBONNE,43.150333,2.955833,110,demuzere,6.0,6.0,6.0,"{""12"": 1, ""6"": 2}","{""12"": 7, ""6"": 16, ""11"": 5}","{""12"": 18, ""6"": 33, ""14"": 11, ""11"": 17}",urbain_aere
11295001,PORTEL-DES-CORBIERES,43.041,2.9435,29,demuzere,6.0,6.0,14.0,"{""6"": 3, ""14"": 1}","{""12"": 1, ""14"": 13, ""6"": 18}","{""14"": 44, ""6"": 32, ""12"": 1, ""13"": 1, ""11"": 1}",non_bati
11352001,ST LOUIS-ET-PARAHOU,42.850333,2.3405,684,demuzere,12.0,12.0,12.0,"{""12"": 3}","{""12"": 27, ""11"": 1}","{""11"": 10, ""12"": 69}",non_bati
11367001,SAISSAC,43.393333,2.165,630,demuzere,11.0,11.0,11.0,"{""11"": 2}","{""11"": 27}","{""11"": 77}",non_bati
11401001,TUCHAN,42.888333,2.723333,160,demuzere,6.0,6.0,6.0,"{""6"": 3}","{""6"": 24, ""14"": 3}","{""6"": 50, ""14"": 27}",urbain_aere
11404001,VENTENAC-CABARDES,43.264833,2.302333,123,demuzere,14.0,14.0,14.0,"{""14"": 3}","{""14"": 28}","{""14"": 76, ""13"": 2}",non_bati
12014001,AURELLE-VERLAC_SAPC,44.533667,3.012833,1076,demuzere,12.0,12.0,12.0,"{""12"": 2, ""14"": 1}","{""12"": 20, ""14"": 9}","{""12"": 51, ""11"": 2, ""14"": 25}",non_bati
12021001,BASTIDE EVEQUE,44.341333,2.139167,500,demuzere,12.0,12.0,12.0,"{""12"": 2, ""11"": 1}","{""12"": 20, ""13"": 4, ""11"": 4}","{""12"": 50, ""14"": 8, ""13"": 10, ""11"": 9}",non_bati
12023001,BASTIDE SOLAGES,43.951167,2.503,230,demuzere,14.0,12.0,11.0,"{""14"": 1, ""13"": 1, ""12"": 1}","{""12"": 9, ""17"": 1, ""14"": 7, ""13"": 2, ""11"": 8}","{""12"": 21, ""11"": 39, ""17"": 8, ""14"": 7, ""13"": 2}",non_bati
12024001,BELCASTEL,44.387333,2.339167,444,demuzere,11.0,11.0,11.0,"{""11"": 2, ""12"": 1}","{""11"": 14, ""9"": 3, ""12"": 8, ""13"": 1, ""14"": 1}","{""12"": 29, ""11"": 34, ""9"": 3, ""13"": 1, ""14"": 10}",non_bati
12025002,BELMONT LIMOU,43.822333,2.728,410,demuzere,14.0,14.0,14.0,"{""14"": 3}","{""14"": 16, ""12"": 11}","{""14"": 37, ""12"": 33, ""13"": 1, ""11"": 3}",non_bati
12026002,BERTHOLENE,44.384167,2.761833,665,demuzere,11.0,11.0,11.0,"{""11"": 3}","{""11"": 27}","{""11"": 75}",non_bati
12036001,BROMMAT,44.778,2.689667,732,demuzere,13.0,12.0,12.0,"{""13"": 3}","{""12"": 15, ""13"": 10, ""11"": 2, ""15"": 1}","{""12"": 48, ""11"": 17, ""13"": 12, ""15"": 1}",non_bati
12051001,CANTOIN,44.834667,2.814,930,demuzere,12.0,12.0,12.0,"{""12"": 3}","{""12"": 27}","{""12"": 60, ""14"": 15, ""9"": 1}",non_bati
12063003,MILLAU-LARZAC_SAPC,43.987,3.181833,794,demuzere,12.0,12.0,14.0,"{""12"": 3}","{""12"": 19, ""14"": 8, ""13"": 1}","{""12"": 36, ""14"": 41, ""13"": 2}",non_bati
12068001,COLOMBIES,44.357833,2.317167,647,demuzere,12.0,12.0,12.0,"{""12"": 3}","{""12"": 29}","{""12"": 76, ""14"": 1, ""11"": 2}",non_bati
12077002,CORNUS,43.922333,3.192167,718,demuzere,14.0,14.0,14.0,"{""14"": 2}","{""13"": 8, ""14"": 16, ""12"": 2}","{""13"": 28, ""14"": 40, ""12"": 8}",non_bati
12089002,DECAZEVILLE,44.575167,2.2405,325,demuzere,11.0,11.0,12.0,"{""11"": 2}","{""12"": 8, ""11"": 15, ""9"": 1, ""6"": 3}","{""11"": 31, ""12"": 36, ""6"": 8, ""9"": 1, ""14"": 1}",non_bati
12094002,ENTRAYGUES SUR,44.6375,2.566167,292,demuzere,12.0,12.0,11.0,"{""13"": 1, ""12"": 2}","{""12"": 13, ""11"": 10, ""13"": 5}","{""13"": 14, ""11"": 39, ""12"": 26}",non_bati
12102001,FLAVIN,44.279333,2.606333,657,demuzere,12.0,12.0,12.0,"{""12"": 3, ""9"": 1}","{""12"": 24, ""9"": 5}","{""14"": 10, ""12"": 56, ""6"": 4, ""9"": 8, ""17"": 2}",non_bati
12116001,HUPARLAC,44.713333,2.762,860,demuzere,12.0,12.0,12.0,"{""12"": 3}","{""12"": 27, ""14"": 2}","{""12"": 64, ""14"": 15}",non_bati
12119001,LAGUIOLE,44.682667,2.852833,1030,demuzere,12.0,12.0,12.0,"{""12"": 3}","{""6"": 11, ""12"": 16}","{""6"": 27, ""12"": 40, ""14"": 11}",non_bati
12145001,MILLAU,44.1185,3.0195,712,demuzere,12.0,12.0,12.0,"{""12"": 3}","{""11"": 3, ""12"": 24, ""13"": 1}","{""12"": 56, ""11"": 9, ""13"": 10, ""14"": 3}",non_bati
12148001,MONTBAZENS,44.484,2.220167,400,demuzere,14.0,14.0,14.0,"{""14"": 2, ""12"": 1}","{""12"": 10, ""14"": 18}","{""14"": 39, ""12"": 38, ""11"": 1}",non_bati
12150001,MONTEILS,44.265667,1.991667,268,demuzere,13.0,12.0,12.0,"{""13"": 3, ""12"": 1}","{""12"": 21, ""13"": 7, ""11"": 1}","{""12"": 50, ""14"": 1, ""11"": 18, ""13"": 11}",non_bati
12154002,MONTLAUR-PRIVAT,43.877333,2.836167,345,demuzere,14.0,14.0,14.0,"{""12"": 1, ""14"": 3}","{""13"": 8, ""14"": 17, ""12"": 5}","{""13"": 16, ""6"": 2, ""14"": 53, ""9"": 4, ""12"": 6}",non_bati
12154003,MONTLAUR,43.891667,2.836333,374,demuzere,14.0,14.0,14.0,"{""14"": 3}","{""14"": 27, ""12"": 1}","{""14"": 70, ""12"": 7}",non_bati
12155001,MONTPAON FONDAM,43.886667,3.147667,519,demuzere,12.0,12.0,12.0,"{""12"": 3}","{""14"": 6, ""12"": 21}","{""14"": 23, ""12"": 49, ""9"": 4, ""11"": 2}",non_bati
12194001,QUINS,44.239333,2.383,607,demuzere,12.0,12.0,12.0,"{""12"": 3}","{""12"": 27, ""11"": 2}","{""11"": 18, ""12"": 47, ""14"": 12}",non_bati
12197002,REQUISTA COMBEC,44.072667,2.555833,600,demuzere,14.0,12.0,12.0,"{""12"": 1, ""14"": 2}","{""12"": 18, ""14"": 9}","{""12"": 52, ""14"": 17, ""9"": 6}",non_bati
12214005,SA AUBRAC,44.631333,2.985167,1393,demuzere,12.0,12.0,12.0,"{""14"": 1, ""12"": 2}","{""14"": 9, ""12"": 20}","{""14"": 21, ""12"": 57}",non_bati
12216001,ST-COME-D'OLT,44.514667,2.827833,380,demuzere,12.0,12.0,12.0,"{""12"": 3}","{""12"": 25, ""14"": 3}","{""12"": 72, ""14"": 7}",non_bati
12253001,SALLES CURAN,44.151833,2.866167,959,demuzere,12.0,12.0,12.0,"{""12"": 3}","{""12"": 25, ""11"": 3}","{""12"": 55, ""14"": 3, ""11"": 21}",non_bati
12254001,RODEZ-AVEYRON,44.410333,2.4825,578,demuzere,14.0,14.0,14.0,"{""12"": 1, ""14"": 2}","{""14"": 21, ""12"": 2, ""15"": 4}","{""14"": 61, ""12"": 5, ""13"": 4, ""15"": 6}",non_bati
12300003,VILLEFRANCH IFIP,44.362833,1.9975,337,demuzere,6.0,6.0,12.0,"{""6"": 2}","{""12"": 3, ""14"": 7, ""6"": 17}","{""12"": 33, ""14"": 15, ""6"": 32}",non_bati
12300004,VILLEFRANCHE-DE-ROUERGUE,44.371833,2.023667,330,demuzere,14.0,14.0,14.0,"{""14"": 3}","{""14"": 28}","{""14"": 71, ""12"": 4, ""13"": 1, ""6"": 2}",non_bati
12301001,VILLENEUVE,44.471333,2.032833,353,demuzere,12.0,12.0,14.0,"{""12"": 3}","{""12"": 20, ""14"": 9}","{""12"": 36, ""14"": 42}",non_bati
13001006,AIX-LES MILLES,43.504667,5.365667,106,cerema,14.0,14.0,14.0,"{""15"": 564.4621054184083, ""11"": 464.13417399276796, ""14"": 30362.383775419534}","{""15"": 9246.995195570442, ""8"": 18232.265189996655, ""11"": 23076.036487914087, ""5"": 7839.439689200569, ""12"": 32580.191011391616, ""14"": 191543.89301170796}","{""15"": 28179.39974187179, ""9"": 46577.075871431756, ""11"": 34697.126200778715, ""8"": 29798.72009155403, ""5"": 18319.13575477533, ""12"": 173606.45236133484, ""13"": 49263.40715507415, ""14"": 404333.1849684535}",non_bati
13001009,AIX EN PROVENCE,43.5295,5.4245,173,cerema,6.0,8.0,8.0,"{""15"": 4815.61702798065, ""9"": 11302.957113642999, ""6"": 15271.02110008043}","{""15"": 61640.92983911846, ""8"": 101933.7181634569, ""9"": 77219.56689382327, ""6"": 41575.06906109152, ""11"": 137.07331090562778}","{""9"": 198689.53487314802, ""8"": 239518.16794736165, ""15"": 156205.6243606135, ""11"": 93353.3557665219, ""5"": 43772.142248803146, ""3"": 1119.0359977982534, ""6"": 46802.9763713449, ""16"": 5279.044253758384}",bati_special
13004001,ARLES-VILLE,43.686667,4.611667,5,demuzere,6.0,6.0,6.0,"{""6"": 3}","{""14"": 4, ""17"": 5, ""6"": 20}","{""14"": 22, ""12"": 2, ""17"": 6, ""6"": 50}",urbain_aere
13004003,ARLES,43.51,4.693833,1,demuzere,14.0,14.0,14.0,"{""14"": 3}","{""14"": 28}","{""14"": 79}",non_bati
13004008,ARLES-ROUSTY,43.623333,4.528333,5,demuzere,14.0,14.0,14.0,"{""14"": 4}","{""14"": 29}","{""14"": 80}",non_bati
13005003,AUBAGNE,43.307333,5.601167,130,cerema,13.0,13.0,12.0,"{""14"": 5871.805151284311, ""16"": 10394.171098040484, ""13"": 13610.747720919244, ""15"": 1525.6596561094102}","{""15"": 24528.206894912502, ""12"": 37803.09906703839, ""16"": 71374.04513802586, ""14"": 59988.031449807546, ""9"": 10750.541607676021, ""13"": 75398.92382756846, ""11"": 2778.604744985628}","{""13"": 205367.44686243773, ""12"": 207774.11619304353, ""9"": 37926.87373311978, ""11"": 31563.617481650974, ""15"": 67231.3722294818, ""16"": 140748.59334661916, ""14"": 91523.84491243944, ""6"": 2923.7266780613236}",non_bati
13010001,BARBENTANE,43.916667,4.743333,15,demuzere,14.0,14.0,14.0,"{""14"": 4}","{""14"": 28, ""12"": 1}","{""12"": 7, ""14"": 73}",non_bati
13022003,CASSIS,43.222167,5.503167,212,cerema,12.0,12.0,12.0,"{""12"": 26100.044953114844, ""9"": 4726.388843122654, ""15"": 581.0903043642627}","{""12"": 271278.34425991715, ""9"": 4853.085493264699, ""15"": 6536.287245120017}","{""12"": 765835.220600663, ""9"": 4853.085493264699, ""15"": 14499.797197937483}",non_bati
13028001,BEC DE L AIGLE,43.174667,5.574167,316,cerema,12.0,12.0,12.0,"{""12"": 30123.176205411975, ""15"": 1287.2721878824018}","{""11"": 382.428292581225, ""12"": 252517.1555373689, ""17"": 23967.763339973037, ""15"": 5826.688462577278}","{""12"": 519501.83659829467, ""11"": 24271.309536400186, ""17"": 126951.81679729217, ""15"": 11483.301682125213}",non_bati
13035002,EYGUIERES,43.726333,5.008,160,demuzere,12.0,14.0,14.0,"{""12"": 2, ""14"": 1}","{""12"": 9, ""14"": 15, ""11"": 2, ""13"": 2}","{""12"": 17, ""14"": 53, ""13"": 7, ""11"": 3}",non_bati
13036003,EYRAGUES,43.847167,4.834833,17,demuzere,6.0,6.0,14.0,"{""6"": 3}","{""14"": 12, ""6"": 15}","{""14"": 41, ""6"": 37}",non_bati
13037001,LA FARE LES OLIVIERS,43.548333,5.2,53,cerema,9.0,9.0,9.0,"{""15"": 934.1399895524493, ""11"": 3194.895417204175, ""12"": 9214.93561727388, ""9"": 18044.581489292854}","{""15"": 13607.554901061776, ""11"": 77438.22897456893, ""14"": 47395.9010096328, ""13"": 3301.6244636854117, ""12"": 26057.16015843737, ""9"": 103282.99905111172, ""6"": 8052.645564948427, ""3"": 3360.8585896916975}","{""14"": 108878.04389407593, ""15"": 45771.75344571057, ""12"": 78647.42259745758, ""11"": 165993.20044745348, ""9"": 194613.85120947653, ""13"": 72889.56354070915, ""6"": 100959.39981719706, ""3"": 16960.578658725397}",bati_special
13042001,GEMENOS,43.288333,5.618333,130,cerema,15.0,15.0,16.0,"{""15"": 19959.237612886387, ""14"": 6.182288319533175, ""8"": 1137.0524836511954, ""12"": 1558.5741744797158, ""9"": 3835.7054112763467, ""16"": 4906.767033466777}","{""8"": 14552.636596171695, ""15"": 86046.2187993387, ""14"": 30467.40231331366, ""11"": 7539.506414508259, ""12"": 20469.877608707542, ""16"": 65951.56417689164, ""13"": 15443.046388130953, ""9"": 42161.41883305986}","{""8"": 32790.09681935168, ""11"": 47559.476605554475, ""12"": 123082.50161362365, ""13"": 48180.59573921283, ""15"": 170119.66873101695, ""14"": 38455.11259499756, ""16"": 188337.67205556645, ""9"": 129430.26914385658, ""6"": 7132.582576954279}",non_bati
13047001,ISTRES,43.522667,4.9275,23,demuzere,14.0,14.0,14.0,"{""16"": 1, ""14"": 3}","{""14"": 19, ""16"": 10}","{""16"": 16, ""14"": 62}",non_bati
13050001,LAMBESC,43.668667,5.2865,260,cerema,13.0,13.0,13.0,"{""15"": 1295.330218994014, ""13"": 24303.627515443328, ""11"": 370.95968959006115, ""9"": 4599.2986473003975, ""14"": 812.8265977114352}","{""15"": 8990.035946474001, ""13"": 156850.12556549156, ""11"": 37810.956123200565, ""16"": 16876.500084977335, ""9"": 4779.563690419474, ""14"": 57131.20270293214}","{""15"": 16545.547325965526, ""11"": 230001.713953846, ""13"": 365177.0189884306, ""14"": 122115.88569102836, ""16"": 44080.62865798929, ""9"": 4779.563690419474, ""12"": 1850.709193692551}",non_bati
13053002,MALLEMORT,43.715,5.206667,128,cerema,13.0,16.0,16.0,"{""15"": 1957.8483392474034, ""13"": 18267.95260642747, ""8"": 9.354019694145213, ""9"": 127.10716437228467, ""12"": 9369.584890794335, ""16"": 1647.7595756540313}","{""15"": 12532.271045439076, ""9"": 12906.972494409001, ""12"": 70210.66372917531, ""13"": 60994.11131156307, ""17"": 24761.465063057723, ""16"": 96463.68692898616, ""8"": 4547.288885852597}","{""15"": 57361.9074035044, ""12"": 165433.1191414448, ""9"": 36720.60232009046, ""13"": 111930.98060671819, ""5"": 3101.1210694970873, ""11"": 1540.0653343183074, ""17"": 47657.44417351848, ""16"": 356197.63674557477, ""8"": 4547.288885852597}",non_bati
13054001,MARIGNANE,43.437,5.2115,6,cerema,15.0,15.0,15.0,"{""15"": 31394.810529247497}","{""15"": 282553.2948554267}","{""15"": 784870.2640057576}",non_bati
13055025,MARSEILLE,43.255667,5.38,5,cerema,14.0,14.0,14.0,"{""14"": 31405.486363134496}","{""9"": 17231.984352134117, ""15"": 22586.532813490343, ""6"": 72084.12118920547, ""14"": 165231.80115386093, ""11"": 5514.9378530816175}","{""5"": 16930.95781688562, ""9"": 53073.47254827389, ""6"": 222816.660084394, ""15"": 114712.44400836981, ""17"": 50371.49990356517, ""3"": 14853.577522761028, ""12"": 1579.1999098692538, ""16"": 4481.0389647977245, ""11"": 66428.19111743374, ""14"": 234294.67667467223}",non_bati
13056002,CAP COURONNE,43.331667,5.053333,27,demuzere,6.0,6.0,6.0,"{""6"": 4}","{""6"": 22, ""17"": 2, ""14"": 3, ""11"": 1, ""12"": 1}","{""6"": 50, ""17"": 8, ""14"": 12, ""11"": 2, ""12"": 1, ""16"": 4}",urbain_aere
13059003,MEYRARGUES,43.641667,5.513333,210,cerema,11.0,11.0,11.0,"{""15"": 11525.723238370403, ""17"": 3524.2624160751993, ""12"": 2966.3398882142706, ""11"": 12172.559253988313, ""13"": 1194.5955351535474}","{""15"": 55494.4601658762, ""12"": 68132.9218332955, ""11"": 90478.96540011314, ""17"": 24259.946362710645, ""14"": 31378.714829698605, ""13"": 12706.314488306738}","{""15"": 85325.02382201172, ""11"": 243162.86939985974, ""13"": 40805.95867816117, ""14"": 193521.91904794873, ""12"": 179849.1069531229, ""17"": 41891.31201600062, ""9"": 30.819156138439816}",non_bati
13060002,MEYREUIL,43.486667,5.526667,176,cerema,13.0,11.0,11.0,"{""16"": 2353.086418066224, ""11"": 7896.053125150475, ""13"": 21142.85130705481}","{""12"": 13842.259602670727, ""16"": 28159.06605151823, ""11"": 134364.23130248388, ""13"": 90337.23051516016, ""9"": 9812.693421469376, ""15"": 6012.436852319796}","{""12"": 53344.22172236112, ""11"": 481807.2705479851, ""13"": 141381.5393497597, ""16"": 41096.90009401998, ""9"": 22029.114000333182, ""8"": 10497.87916915567, ""15"": 34642.84714956975}",non_bati
13062002,MIMET,43.4185,5.499667,416,cerema,11.0,11.0,11.0,"{""12"": 9524.597138890713, ""11"": 19001.286266987092, ""15"": 2869.988883124495}","{""11"": 236563.34994995312, ""15"": 23435.208965411635, ""12"": 18064.770026447186, ""6"": 4499.521752961317}","{""11"": 668989.3534452314, ""9"": 13705.998165007342, ""15"": 51035.523677300196, ""6"": 17308.606735573776, ""12"": 31975.667734275143, ""13"": 1881.6582489891277}",non_bati
13074002,PEYROLLES_FORET,43.623333,5.586667,295,cerema,11.0,11.0,11.0,"{""11"": 31384.464141521185}","{""15"": 146.24270957173886, ""11"": 271098.9682694985, ""12"": 11214.966388267634}","{""15"": 8232.770665736996, ""11"": 738930.8063667316, ""12"": 37448.02728354969}",non_bati
13077001,PORT-DE-BOUC-SJ,43.432167,5.0025,18,demuzere,14.0,14.0,14.0,"{""14"": 1, ""6"": 1}","{""6"": 11, ""14"": 15}","{""14"": 43, ""12"": 6, ""6"": 22, ""11"": 6}",non_bati
13078001,PORT-ST-LOUIS-DU-RHONE-MAS,43.471667,4.786667,2,demuzere,14.0,14.0,14.0,"{""14"": 3}","{""14"": 27}","{""14"": 75}",non_bati
13080001,LE-PUY-STE-REPA,43.639,5.4435,277,cerema,12.0,13.0,13.0,"{""15"": 1334.2709574870196, ""13"": 11814.90543431269, ""12"": 18234.446671156955}","{""15"": 12806.039562662067, ""11"": 19333.955178032324, ""12"": 118056.72756183281, ""13"": 130083.87230645216, ""16"": 2172.013051034884}","{""15"": 28544.600588369314, ""16"": 90067.85597698638, ""13"": 325366.80648117285, ""11"": 144737.4152262907, ""12"": 185908.45988093416, ""14"": 9965.439197333375}",non_bati
13085001,ROQUEFORT-LA-BEDOULE,43.2515,5.625,354,cerema,9.0,14.0,11.0,"{""14"": 3538.9547294635186, ""13"": 2935.6854509686273, ""9"": 17626.6030633131, ""6"": 2771.9104797055866, ""15"": 4532.584998823212}","{""14"": 113343.5396328937, ""6"": 5829.317552684441, ""13"": 6137.777431948716, ""9"": 45213.7827046395, ""15"": 24804.712431852313, ""11"": 87322.51884019104}","{""14"": 287352.3424327744, ""11"": 333376.82985221734, ""6"": 5829.317552684441, ""13"": 69087.52107898987, ""9"": 49969.22340153485, ""15"": 39528.23451950938}",non_bati
13086001,ROQUEVAIRE,43.366667,5.611667,175,cerema,15.0,12.0,12.0,"{""9"": 1666.1846224339265, ""12"": 14632.027061699402, ""15"": 15100.668612646678}","{""12"": 88461.66656671329, ""9"": 38307.64986168977, ""11"": 24071.63279844146, ""15"": 78407.32870018936, ""13"": 53341.644835373576}","{""12"": 246963.49232304876, ""9"": 113804.92645227516, ""11"": 128438.44972790909, ""15"": 105773.21170390863, ""6"": 17657.900965382647, ""13"": 172334.02702109204}",non_bati
13089001,ST-ANDIOL,43.828333,4.971667,54,demuzere,14.0,12.0,14.0,"{""14"": 3}","{""12"": 15, ""14"": 14}","{""14"": 41, ""6"": 1, ""12"": 37}",non_bati
13091001,ST CANNAT,43.591333,5.251333,198,cerema,13.0,14.0,13.0,"{""14"": 11639.095077954398, ""13"": 19747.10088821152}","{""15"": 9786.848761904419, ""12"": 11314.405361926196, ""11"": 1356.2791476951634, ""14"": 143905.45513975897, ""13"": 101991.19701060333, ""16"": 11751.511175150608, ""9"": 2370.0671917550526}","{""15"": 24962.628519352555, ""12"": 145626.1411750582, ""11"": 115444.03669826293, ""13"": 239232.04135719256, ""14"": 217975.24153463193, ""16"": 34474.65323696323, ""9"": 6940.15741003178}",non_bati
13097002,ST-MARTIN-CRAU,43.596667,4.851667,21,demuzere,14.0,14.0,14.0,"{""14"": 4}","{""14"": 27, ""12"": 3}","{""14"": 65, ""12"": 15}",non_bati
13100002,ST-REMY-DE-PROVENCE,43.791167,4.835,49,demuzere,6.0,6.0,6.0,"{""6"": 3}","{""6"": 29}","{""6"": 78}",urbain_aere
13103001,SALON DE PROVENCE,43.612833,5.108,58,demuzere,14.0,14.0,14.0,"{""14"": 4}","{""14"": 29}","{""14"": 81}",non_bati
13110003,TRETS,43.445333,5.698667,264,cerema,12.0,9.0,9.0,"{""12"": 15207.077578794959, ""13"": 13625.228829924747, ""9"": 2562.0279052357796}","{""12"": 67542.40855270441, ""11"": 18005.49556865911, ""13"": 81746.55943915804, ""14"": 138.28636682292165, ""9"": 93353.23191455209, ""15"": 15947.336446620799, ""16"": 5815.690630235507}","{""11"": 90619.61847337351, ""12"": 201732.28198138071, ""13"": 124123.44572290126, ""14"": 32474.39539683594, ""9"": 240947.45789617352, ""6"": 9838.294404682147, ""15"": 55796.38124791709, ""16"": 19032.479956237876, ""8"": 10294.003545487594}",bati_special
13111002,VAUVENARGUES,43.551,5.68,565,cerema,13.0,12.0,12.0,"{""12"": 6881.508661829697, ""9"": 3880.3118661509543, ""13"": 20626.58484400553}","{""15"": 5360.74786205785, ""12"": 153444.4989665577, ""9"": 5309.4635308483585, ""13"": 107688.84482880888, ""11"": 10692.09325219906}","{""15"": 9680.097906096385, ""12"": 493277.93281276495, ""9"": 5309.4635308483585, ""13"": 177582.25104608497, ""14"": 457.4417924107503, ""11"": 98402.94798795425}",non_bati
14020002,ARGENCES,49.140333,-0.155,53,demuzere,14.0,14.0,14.0,"{""14"": 2}","{""14"": 18, ""11"": 5, ""12"": 4, ""17"": 1}","{""14"": 49, ""12"": 17, ""11"": 7, ""17"": 1, ""9"": 3}",non_bati
14055002,BEAUMONT EN A.,49.256167,0.090833,140,demuzere,14.0,14.0,14.0,"{""14"": 4}","{""14"": 28, ""12"": 1}","{""14"": 77, ""12"": 2}",non_bati
14066001,BERNIERES,49.334,-0.430667,2,demuzere,14.0,14.0,14.0,"{""14"": 1, ""12"": 1}","{""14"": 16, ""17"": 3, ""15"": 1, ""12"": 5, ""6"": 1, ""9"": 1}","{""17"": 12, ""14"": 32, ""15"": 3, ""9"": 6, ""12"": 9, ""6"": 9}",non_bati
14126001,CAMBREMER,49.1455,0.041833,125,demuzere,14.0,14.0,14.0,"{""14"": 3}","{""14"": 19, ""12"": 9}","{""14"": 48, ""12"": 29, ""9"": 1}",non_bati
14137001,CAEN-CARPIQUET,49.18,-0.456167,67,demuzere,14.0,14.0,14.0,"{""14"": 3}","{""14"": 29}","{""14"": 77, ""12"": 1}",non_bati
14216001,DAMBLAINVILLE,48.928,-0.148667,155,demuzere,14.0,14.0,14.0,"{""14"": 4}","{""14"": 28, ""12"": 1}","{""14"": 66, ""12"": 10, ""11"": 3}",non_bati
14239001,ENGLESQUEVILLE,49.3875,-0.956667,38,demuzere,14.0,14.0,14.0,"{""14"": 2}","{""14"": 24, ""12"": 3}","{""14"": 72, ""12"": 5}",non_bati
14291002,FRESNEY LE VIEU,49.011667,-0.379333,175,demuzere,12.0,14.0,14.0,"{""12"": 3}","{""12"": 12, ""14"": 16}","{""14"": 55, ""11"": 4, ""12"": 19}",non_bati
14296001,LEGAST_SAPC,48.794667,-1.037167,336,demuzere,12.0,12.0,12.0,"{""12"": 2}","{""12"": 28}","{""11"": 23, ""12"": 57}",non_bati
14366002,LISIEUX_SAPC,49.165,0.227,62,demuzere,12.0,12.0,12.0,"{""12"": 4}","{""12"": 25, ""14"": 2, ""11"": 1}","{""12"": 58, ""14"": 4, ""11"": 7, ""6"": 10}",non_bati
14372001,LIVRY,49.099167,-0.7665,194,demuzere,14.0,14.0,14.0,"{""14"": 3}","{""14"": 20, ""12"": 5, ""11"": 3}","{""14"": 59, ""11"": 13, ""12"": 6}",non_bati
14431002,MEZIDON-CANON,49.0885,-0.077333,35,demuzere,12.0,12.0,12.0,"{""12"": 4}","{""11"": 5, ""12"": 23, ""14"": 1}","{""12"": 40, ""11"": 18, ""14"": 21}",non_bati
14488001,OUISTREHAM,49.266667,-0.25,10,demuzere,14.0,14.0,14.0,"{""14"": 3}","{""12"": 4, ""14"": 18, ""17"": 6}","{""17"": 19, ""9"": 1, ""6"": 4, ""12"": 11, ""14"": 43}",non_bati
14501002,PIERREFITTE CIN_SAPC,48.894,-0.3875,187,demuzere,14.0,14.0,14.0,"{""14"": 4}","{""14"": 27, ""12"": 1}","{""14"": 65, ""12"": 14}",non_bati
14515001,PORT EN BESSIN,49.349167,-0.772667,68,demuzere,14.0,14.0,14.0,"{""14"": 3}","{""12"": 9, ""14"": 19, ""9"": 1}","{""17"": 13, ""14"": 43, ""12"": 16, ""9"": 6}",non_bati
14578001,ST GATIEN DES B,49.3645,0.167,139,demuzere,12.0,14.0,14.0,"{""12"": 2, ""14"": 1}","{""11"": 2, ""12"": 9, ""14"": 17}","{""11"": 10, ""12"": 20, ""14"": 49}",non_bati
14579002,SAINT GEORGES D,49.0345,-0.686,185,demuzere,14.0,14.0,14.0,"{""14"": 3}","{""14"": 25, ""9"": 3, ""12"": 1}","{""14"": 65, ""12"": 5, ""11"": 2, ""9"": 6}",non_bati
14584001,SAINT GERMAIN D,48.822833,-0.9035,183,demuzere,14.0,14.0,14.0,"{""14"": 2}","{""14"": 26, ""12"": 1}","{""14"": 76, ""12"": 1}",non_bati
14624001,L OUDON LIEURY_SAPC,48.9895,-0.009167,52,demuzere,14.0,14.0,14.0,"{""14"": 1, ""12"": 1}","{""14"": 16, ""12"": 10, ""9"": 1}","{""14"": 51, ""12"": 23, ""9"": 2}",non_bati
14634001,SAINT MICHEL DE,49.006833,0.1295,140,demuzere,12.0,14.0,14.0,"{""12"": 2}","{""14"": 22, ""12"": 5}","{""14"": 67, ""12"": 9, ""11"": 1}",non_bati
14659001,ST SYLVAIN_SAPC,49.06,-0.234333,62,demuzere,14.0,14.0,14.0,"{""14"": 4}","{""14"": 30}","{""14"": 79}",non_bati
14727001,VAUBADON,49.21,-0.835333,105,demuzere,14.0,14.0,14.0,"{""14"": 3, ""12"": 1}","{""14"": 22, ""12"": 7}","{""14"": 69, ""12"": 9}",non_bati
14762001,VIRE,48.878167,-0.863833,103,demuzere,14.0,14.0,14.0,"{""14"": 1, ""12"": 1}","{""14"": 14, ""12"": 13}","{""14"": 60, ""12"": 17}",non_bati
15014004,AURILLAC,44.8915,2.419167,632,demuzere,12.0,12.0,12.0,"{""12"": 2}","{""12"": 26, ""14"": 2}","{""12"": 61, ""14"": 11, ""6"": 7}",non_bati
15050001,LE CLAUX,45.1725,2.7105,1033,demuzere,12.0,12.0,12.0,"{""12"": 3}","{""12"": 27, ""14"": 2}","{""12"": 67, ""14"": 12}",non_bati
15053001,COLTINES,45.074667,2.990667,979,demuzere,14.0,14.0,14.0,"{""14"": 3}","{""14"": 20, ""12"": 7}","{""9"": 5, ""14"": 59, ""12"": 9}",non_bati
15060001,DEUX-VERG,44.8005,3.013833,1098,demuzere,12.0,12.0,12.0,"{""12"": 3}","{""12"": 25, ""14"": 3}","{""11"": 5, ""12"": 69, ""14"": 4}",non_bati
15060002,DEUX-VERGES,44.8015,3.012667,1080,demuzere,12.0,12.0,12.0,"{""12"": 4}","{""12"": 27, ""14"": 2}","{""12"": 66, ""11"": 11, ""14"": 4}",non_bati
15067001,LE FAU,45.102333,2.607333,1060,demuzere,12.0,12.0,12.0,"{""12"": 3}","{""12"": 26, ""11"": 3}","{""11"": 29, ""12"": 49}",non_bati
15101004,LE LIORAN_SAPC,45.080833,2.747667,1236,demuzere,12.0,12.0,11.0,"{""12"": 1, ""11"": 1}","{""12"": 14, ""11"": 13}","{""12"": 25, ""11"": 50}",non_bati
15114002,MARCENAT,45.302667,2.833,1075,demuzere,12.0,12.0,12.0,"{""12"": 4}","{""12"": 27, ""11"": 1}","{""6"": 3, ""12"": 72, ""11"": 4}",non_bati
15118002,MARMANHAC,45.002833,2.4745,644,demuzere,12.0,12.0,12.0,"{""12"": 4}","{""12"": 28}","{""12"": 79}",non_bati
15119001,MASSIAC,45.263333,3.197833,533,demuzere,12.0,12.0,12.0,"{""12"": 4}","{""12"": 25, ""13"": 3}","{""13"": 10, ""12"": 69}",non_bati
15120001,MAURIAC-MOULIN,45.214833,2.3435,730,demuzere,6.0,6.0,6.0,"{""6"": 2}","{""6"": 20, ""12"": 5, ""14"": 3}","{""6"": 46, ""12"": 26, ""14"": 6, ""13"": 1}",urbain_aere
15120005,MAURIAC,45.222167,2.293167,674,demuzere,12.0,12.0,12.0,"{""12"": 3}","{""12"": 26, ""11"": 1}","{""12"": 67, ""11"": 10}",non_bati
15122002,MAURS,44.734167,2.166,480,demuzere,12.0,12.0,12.0,"{""12"": 2, ""14"": 2}","{""12"": 16, ""14"": 14}","{""12"": 48, ""14"": 31}",non_bati
15168003,RUYNES,45.001333,3.221333,905,demuzere,12.0,12.0,12.0,"{""12"": 3}","{""12"": 23, ""6"": 3, ""13"": 1}","{""12"": 65, ""6"": 3, ""13"": 1, ""14"": 2, ""11"": 4}",non_bati
15169001,SAIGNES,45.334167,2.4915,533,demuzere,12.0,12.0,12.0,"{""12"": 3}","{""12"": 26, ""11"": 1}","{""11"": 5, ""12"": 70}",non_bati
15181001,ST CONSTANT,44.684833,2.23,260,demuzere,12.0,12.0,12.0,"{""12"": 4}","{""12"": 30}","{""12"": 78, ""14"": 3}",non_bati
15187006,ST FLOUR,45.024333,3.067333,909,demuzere,12.0,12.0,12.0,"{""12"": 4}","{""12"": 19, ""14"": 9, ""9"": 1}","{""12"": 57, ""5"": 1, ""14"": 20, ""9"": 2}",non_bati
15219001,SALERS,45.141333,2.493167,945,demuzere,12.0,12.0,12.0,"{""12"": 3}","{""12"": 27, ""11"": 1, ""6"": 1}","{""14"": 1, ""12"": 74, ""11"": 1, ""6"": 3}",non_bati
15226001,SENEZERGUES,44.704,2.428167,530,demuzere,12.0,12.0,12.0,"{""12"": 3}","{""9"": 3, ""13"": 7, ""12"": 17, ""14"": 1, ""11"": 1}","{""12"": 35, ""13"": 17, ""11"": 22, ""9"": 3, ""14"": 1}",non_bati
15231001,TALIZAT,45.113833,3.037333,975,demuzere,14.0,14.0,14.0,"{""14"": 2, ""12"": 2}","{""12"": 9, ""14"": 11, ""9"": 8}","{""12"": 30, ""14"": 32, ""9"": 17}",non_bati
15248001,VALUEJOLS,45.053167,2.935833,1074,demuzere,12.0,12.0,12.0,"{""12"": 2, ""6"": 1}","{""12"": 20, ""6"": 9}","{""12"": 52, ""14"": 14, ""9"": 2, ""6"": 10}",non_bati
16005001,AIGRE,45.9015,0.011167,69,demuzere,14.0,14.0,14.0,"{""14"": 4}","{""14"": 25, ""6"": 2, ""12"": 1, ""11"": 1}","{""14"": 58, ""6"": 14, ""12"": 7, ""11"": 1}",non_bati
16012001,ANGEAC,45.611833,-0.313,57,demuzere,14.0,14.0,14.0,"{""14"": 2}","{""14"": 23, ""9"": 5}","{""14"": 62, ""11"": 1, ""6"": 10, ""9"": 6, ""16"": 1}",non_bati
16025003,BAIGNES BEL AIR,45.375833,-0.27,73,demuzere,14.0,14.0,14.0,"{""14"": 3}","{""14"": 29}","{""14"": 78}",non_bati
16052001,BORS,45.347333,0.118333,98,demuzere,14.0,14.0,14.0,"{""14"": 4}","{""14"": 29}","{""14"": 77, ""12"": 3}",non_bati
16057001,BOUTEVILLE,45.603167,-0.1275,67,demuzere,14.0,14.0,14.0,"{""14"": 3}","{""14"": 27}","{""14"": 76}",non_bati
16060001,BREVILLE,45.7835,-0.274833,21,demuzere,6.0,14.0,14.0,"{""6"": 3, ""14"": 1}","{""14"": 27, ""6"": 5}","{""14"": 74, ""6"": 5}",non_bati
16061003,BRIE,45.731833,0.205333,125,demuzere,14.0,14.0,14.0,"{""14"": 4}","{""14"": 29}","{""6"": 4, ""9"": 2, ""14"": 74}",non_bati
16089001,COGNAC,45.665,-0.315833,30,demuzere,14.0,14.0,14.0,"{""6"": 1, ""14"": 3}","{""6"": 10, ""14"": 19}","{""14"": 57, ""6"": 21, ""15"": 1}",non_bati
16090001,CHATEAUNEUF,45.588167,-0.0455,55,demuzere,14.0,14.0,14.0,"{""14"": 3}","{""12"": 5, ""14"": 19, ""6"": 2, ""11"": 1}","{""6"": 7, ""9"": 1, ""14"": 49, ""12"": 19, ""11"": 2}",non_bati
16106003,CONFOLENS,46.018833,0.670833,141,demuzere,6.0,6.0,6.0,"{""6"": 2}","{""6"": 24, ""17"": 2}","{""6"": 62, ""12"": 8, ""17"": 6, ""9"": 1}",urbain_aere
16113001,LA COURONNE,45.627833,0.099833,58,demuzere,14.0,14.0,14.0,"{""14"": 4}","{""14"": 27, ""12"": 2}","{""6"": 20, ""11"": 11, ""12"": 11, ""14"": 38}",non_bati
16123001,ECHALLAT,45.725833,-0.028333,116,demuzere,14.0,14.0,14.0,"{""14"": 3}","{""14"": 25, ""12"": 1, ""11"": 2}","{""14"": 69, ""12"": 5, ""11"": 3}",non_bati
16152001,GIMEUX,45.656667,-0.348167,22,demuzere,14.0,14.0,14.0,"{""14"": 4}","{""6"": 3, ""14"": 26}","{""6"": 9, ""14"": 71}",non_bati
16160002,GUIMPS,45.473333,-0.255667,93,demuzere,14.0,14.0,14.0,"{""14"": 3}","{""14"": 28}","{""14"": 78}",non_bati
16163001,HIERSAC,45.671,0.018667,87,demuzere,14.0,14.0,14.0,"{""14"": 3, ""9"": 1}","{""14"": 24, ""9"": 4}","{""14"": 67, ""9"": 9, ""6"": 3}",non_bati
16167001,JARNAC,45.687667,-0.151167,16,demuzere,6.0,14.0,14.0,"{""6"": 3}","{""14"": 12, ""6"": 8, ""11"": 3, ""12"": 5}","{""14"": 47, ""6"": 15, ""12"": 9, ""11"": 6}",non_bati
16169001,JAVREZAC,45.7125,-0.370833,67,demuzere,14.0,14.0,14.0,"{""14"": 3}","{""14"": 25, ""6"": 3}","{""14"": 73, ""12"": 2, ""6"": 3, ""9"": 1}",non_bati
16171001,JUILLAC-LE-COQ,45.58,-0.258,84,demuzere,14.0,14.0,14.0,"{""14"": 4}","{""14"": 28}","{""14"": 79}",non_bati
16211002,MARTHON,45.608833,0.4405,120,demuzere,9.0,9.0,14.0,"{""9"": 3}","{""9"": 15, ""6"": 3, ""14"": 10}","{""12"": 9, ""14"": 42, ""6"": 11, ""9"": 17}",non_bati
16225001,MONTEMBOEUF,45.787167,0.543,247,demuzere,14.0,14.0,14.0,"{""14"": 4}","{""12"": 2, ""14"": 27}","{""11"": 6, ""12"": 7, ""14"": 62, ""13"": 1, ""9"": 2}",non_bati
16226001,MONTIGNAC,45.777167,0.1015,63,demuzere,14.0,14.0,14.0,"{""14"": 3}","{""11"": 3, ""6"": 1, ""14"": 24}","{""11"": 18, ""14"": 52, ""6"": 1, ""12"": 7}",non_bati
16250001,ORGEDEUIL,45.680667,0.476667,134,demuzere,12.0,12.0,12.0,"{""12"": 2}","{""12"": 26, ""14"": 2}","{""12"": 68, ""11"": 3, ""14"": 8}",non_bati
16256001,PASSIRAC,45.334,-0.078667,114,demuzere,11.0,14.0,11.0,"{""11"": 2, ""14"": 2}","{""11"": 12, ""14"": 16, ""12"": 1}","{""12"": 8, ""11"": 37, ""14"": 35}",non_bati
16259002,LA PERUSE,45.884,0.613333,235,demuzere,12.0,12.0,12.0,"{""14"": 1, ""12"": 2}","{""14"": 9, ""12"": 17, ""11"": 2}","{""12"": 54, ""14"": 19, ""11"": 6}",non_bati
16279001,RIOUX MARTIN,45.262,0.003333,81,demuzere,14.0,14.0,14.0,"{""14"": 3}","{""14"": 29}","{""14"": 80}",non_bati
16280001,RIVIERES,45.7655,0.371667,109,demuzere,14.0,14.0,14.0,"{""14"": 2, ""12"": 1, ""6"": 1}","{""11"": 2, ""12"": 8, ""14"": 12, ""6"": 4, ""9"": 4}","{""11"": 12, ""14"": 44, ""12"": 10, ""6"": 8, ""9"": 4}",non_bati
16283002,RONSENAC,45.477833,0.253333,109,demuzere,14.0,14.0,14.0,"{""14"": 3}","{""14"": 24, ""9"": 5}","{""14"": 60, ""6"": 9, ""9"": 9, ""12"": 1}",non_bati
16292001,RUFFEC,46.022667,0.178167,121,demuzere,6.0,14.0,14.0,"{""6"": 2, ""14"": 1}","{""14"": 19, ""6"": 10}","{""14"": 64, ""6"": 14}",non_bati
16297001,GRAVES-SAINT-AMANT,45.647333,-0.102333,22,demuzere,14.0,14.0,14.0,"{""12"": 1, ""14"": 2}","{""11"": 1, ""14"": 20, ""12"": 5, ""9"": 1}","{""14"": 62, ""11"": 5, ""12"": 9, ""9"": 1}",non_bati
16301001,ST AULAIS,45.454167,-0.031667,100,demuzere,14.0,14.0,14.0,"{""14"": 3}","{""14"": 27}","{""14"": 75, ""12"": 2, ""11"": 1}",non_bati
16318001,ST FRONT,45.881667,0.295833,99,demuzere,14.0,14.0,14.0,"{""14"": 3}","{""12"": 5, ""14"": 18, ""6"": 2, ""9"": 3}","{""12"": 11, ""14"": 59, ""6"": 3, ""9"": 4}",non_bati
16346001,ST QUENTIN DE C,45.2435,0.071833,76,demuzere,14.0,14.0,14.0,"{""14"": 4}","{""14"": 28}","{""14"": 75, ""11"": 1, ""12"": 2}",non_bati
16360001,SALLES DE BARB,45.450667,-0.112667,74,demuzere,14.0,14.0,14.0,"{""14"": 4}","{""14"": 31}","{""14"": 73, ""12"": 4, ""9"": 1}",non_bati
16363001,SAULGOND_SAPC,45.956333,0.781667,228,demuzere,14.0,14.0,14.0,"{""14"": 3}","{""14"": 22, ""12"": 6}","{""14"": 53, ""12"": 24, ""11"": 1}",non_bati
16366001,SEGONZAC_SAPC,45.6145,-0.2235,62,demuzere,14.0,6.0,14.0,"{""14"": 2, ""6"": 2}","{""14"": 13, ""6"": 14, ""9"": 1}","{""14"": 42, ""6"": 34, ""9"": 2, ""12"": 1}",non_bati
16369001,SIGOGNE,45.735,-0.149167,74,demuzere,6.0,14.0,14.0,"{""6"": 2, ""14"": 2}","{""6"": 11, ""14"": 16, ""9"": 2}","{""6"": 25, ""12"": 1, ""9"": 3, ""14"": 52}",non_bati
16380001,LE TATRE,45.408167,-0.217333,97,demuzere,14.0,14.0,14.0,"{""14"": 3}","{""14"": 28, ""9"": 1}","{""14"": 73, ""9"": 5}",non_bati
16390001,TUSSON,45.949,0.062167,88,demuzere,14.0,14.0,14.0,"{""14"": 4}","{""14"": 29}","{""14"": 80}",non_bati
16397001,VERDILLE,45.888167,-0.064833,87,demuzere,14.0,14.0,14.0,"{""14"": 4}","{""14"": 29}","{""14"": 79, ""6"": 1}",non_bati
16403001,LE VIEUX CERIER_SAPC,45.9675,0.442,162,demuzere,14.0,12.0,12.0,"{""12"": 1, ""14"": 2}","{""12"": 16, ""14"": 13}","{""12"": 49, ""14"": 30}",non_bati
17004001,ILE-D AIX,46.019167,-1.1565,10,demuzere,,,,{},{},{},
17016002,ARCHIAC,45.523333,-0.283333,56,demuzere,14.0,14.0,14.0,"{""14"": 3}","{""14"": 28}","{""14"": 77}",non_bati
17072001,BURIE,45.783333,-0.426667,56,demuzere,14.0,14.0,14.0,"{""14"": 3, ""11"": 1}","{""14"": 22, ""11"": 3, ""12"": 2, ""6"": 2}","{""11"": 7, ""14"": 56, ""12"": 8, ""6"": 9, ""9"": 1}",non_bati
17093002,CHATEAU D'OLERON,45.862167,-1.204333,3,demuzere,14.0,14.0,14.0,"{""14"": 3}","{""14"": 22, ""8"": 1, ""17"": 1}","{""14"": 63, ""8"": 2, ""17"": 3}",non_bati
17121001,COUARDE SUR MER,46.1945,-1.417667,3,demuzere,6.0,14.0,14.0,"{""6"": 2, ""14"": 1}","{""6"": 12, ""14"": 16}","{""6"": 33, ""14"": 46}",non_bati
17218001,MARANS,46.316333,-1.012167,2,demuzere,14.0,14.0,14.0,"{""14"": 3}","{""14"": 27}","{""14"": 75, ""6"": 2}",non_bati
17224001,MATHA,45.858667,-0.319667,38,demuzere,14.0,14.0,14.0,"{""14"": 3}","{""6"": 7, ""14"": 20}","{""6"": 24, ""14"": 47, ""12"": 6}",non_bati
17243002,MONTLIEU_SAPC,45.220167,-0.291833,89,demuzere,11.0,11.0,11.0,"{""12"": 1, ""11"": 2}","{""12"": 8, ""11"": 21}","{""11"": 55, ""12"": 22, ""14"": 1}",non_bati
17266001,LES NOUILLERS,45.935167,-0.687667,18,demuzere,14.0,14.0,14.0,"{""14"": 3}","{""14"": 20, ""11"": 9}","{""14"": 53, ""11"": 21, ""12"": 3, ""17"": 1}",non_bati
17268002,NUAILLE SUR BOUTONNE,46.019833,-0.406667,36,demuzere,14.0,14.0,14.0,"{""14"": 3}","{""14"": 27}","{""14"": 77}",non_bati
17300001,LA ROCHELLE,46.1525,-1.159,4,demuzere,17.0,8.0,8.0,"{""17"": 1, ""8"": 1}","{""8"": 18, ""17"": 5}","{""12"": 3, ""6"": 1, ""17"": 12, ""8"": 52}",bati_special
17300009,LA ROCHELLE-ILE DE RE,46.178,-1.193167,20,demuzere,14.0,14.0,14.0,"{""14"": 2}","{""14"": 22, ""8"": 4}","{""14"": 62, ""8"": 15}",non_bati
17306004,ROYAN-MEDIS,45.633,-0.974667,12,demuzere,14.0,14.0,14.0,"{""14"": 4}","{""14"": 30}","{""14"": 79}",non_bati
17308001,ST AGNANT,45.888,-0.984667,18,demuzere,14.0,14.0,14.0,"{""14"": 4}","{""14"": 29}","{""14"": 74, ""6"": 2, ""11"": 4}",non_bati
17323001,CHASSIRON,46.046833,-1.411667,11,demuzere,14.0,14.0,14.0,"{""14"": 3}","{""14"": 24, ""17"": 2}","{""17"": 5, ""14"": 44}",non_bati
17339002,ST GERMAIN DE LUSIGNAN,45.458333,-0.409667,71,demuzere,14.0,14.0,14.0,"{""14"": 3}","{""14"": 28}","{""14"": 79}",non_bati
17353001,ST-LAURENT PREE-INRAE,45.988333,-1.027,3,demuzere,14.0,14.0,14.0,"{""14"": 2}","{""14"": 28}","{""14"": 70, ""6"": 1, ""12"": 8, ""17"": 1}",non_bati
17415003,SAINTES,45.761167,-0.652,38,demuzere,14.0,14.0,14.0,"{""14"": 3}","{""14"": 24, ""12"": 2, ""6"": 3}","{""14"": 65, ""6"": 7, ""11"": 2, ""12"": 4}",non_bati
17418001,SALIGNAC,45.670667,-0.4225,15,demuzere,14.0,14.0,14.0,"{""6"": 1, ""14"": 2}","{""6"": 9, ""14"": 18}","{""14"": 57, ""6"": 20}",non_bati
17434002,SURGERES,46.096667,-0.737,25,demuzere,14.0,14.0,14.0,"{""14"": 2}","{""14"": 26}","{""14"": 74, ""6"": 2}",non_bati
17451001,LES-TOUCHES,45.916667,-0.233333,52,demuzere,14.0,14.0,14.0,"{""14"": 3}","{""14"": 27, ""11"": 1}","{""11"": 6, ""14"": 68, ""12"": 3}",non_bati
17469001,VILLARS EN PONS,45.6,-0.625,55,demuzere,14.0,14.0,14.0,"{""14"": 3}","{""14"": 24, ""6"": 3, ""9"": 2}","{""14"": 65, ""6"": 10, ""9"": 4}",non_bati
17477001,VILLIERS_SAPC,45.9875,-0.152,106,demuzere,14.0,14.0,14.0,"{""14"": 3}","{""14"": 26, ""9"": 2, ""6"": 1}","{""14"": 73, ""9"": 2, ""6"": 3}",non_bati
18015001,AUBIGNY,47.488333,2.441667,188,demuzere,6.0,6.0,6.0,"{""6"": 3}","{""6"": 28}","{""6"": 75, ""12"": 2}",urbain_aere
18015003,AUBIGNY-SUR-NERE,47.4995,2.427333,176,demuzere,14.0,14.0,14.0,"{""14"": 4}","{""14"": 28, ""12"": 1}","{""14"": 69, ""12"": 10}",non_bati
18033001,BOURGES,47.059167,2.359833,161,demuzere,6.0,6.0,6.0,"{""6"": 2, ""14"": 1}","{""6"": 16, ""14"": 12}","{""12"": 2, ""14"": 37, ""6"": 39}",urbain_aere
18057003,CHATEAUMEILLANT,46.564,2.2175,243,demuzere,14.0,14.0,14.0,"{""14"": 2}","{""14"": 19, ""12"": 6, ""11"": 1}","{""14"": 53, ""12"": 22, ""9"": 4, ""11"": 1}",non_bati
18059001,LE CHATELET,46.644,2.273833,210,demuzere,14.0,14.0,14.0,"{""14"": 3}","{""14"": 23, ""12"": 5}","{""14"": 49, ""12"": 24, ""6"": 6}",non_bati
18066002,CIVRAY,46.992167,2.182167,148,demuzere,14.0,14.0,14.0,"{""14"": 3}","{""14"": 29}","{""14"": 78}",non_bati
18087001,DUN,46.878333,2.566167,160,demuzere,9.0,9.0,9.0,"{""9"": 3}","{""9"": 28, ""14"": 1}","{""9"": 40, ""6"": 20, ""14"": 13, ""12"": 7}",bati_special
18087003,DUN-SUR-AURON,46.9055,2.557833,167,demuzere,14.0,14.0,14.0,"{""14"": 4}","{""14"": 28}","{""14"": 76, ""12"": 4}",non_bati
18090001,ETRECHY,47.147167,2.698667,194,demuzere,14.0,14.0,14.0,"{""14"": 4}","{""14"": 28}","{""14"": 76, ""12"": 4}",non_bati
18092001,AVORD,47.052167,2.642167,175,demuzere,14.0,14.0,14.0,"{""14"": 3}","{""16"": 1, ""14"": 25, ""6"": 2, ""12"": 1}","{""14"": 66, ""16"": 1, ""6"": 12, ""12"": 1}",non_bati
18103001,GRACAY,47.139333,1.844667,108,demuzere,9.0,6.0,14.0,"{""9"": 1, ""12"": 1}","{""6"": 10, ""9"": 5, ""14"": 10, ""12"": 3}","{""6"": 22, ""9"": 11, ""12"": 5, ""14"": 41}",non_bati
18109002,HENRICHEMONT,47.285833,2.579167,377,demuzere,12.0,12.0,11.0,"{""12"": 4}","{""11"": 11, ""12"": 18}","{""11"": 47, ""12"": 33}",non_bati
18125004,LERE,47.457833,2.893167,139,demuzere,14.0,14.0,14.0,"{""14"": 4}","{""14"": 28}","{""12"": 5, ""14"": 72, ""11"": 4}",non_bati
18127001,LIGNIERES,46.753333,2.1985,191,demuzere,14.0,14.0,14.0,"{""14"": 3}","{""14"": 16, ""12"": 12, ""11"": 1}","{""12"": 32, ""14"": 44, ""11"": 3}",non_bati
18135001,MAISONNAIS,46.672667,2.2235,219,demuzere,14.0,14.0,14.0,"{""14"": 3}","{""12"": 8, ""14"": 21}","{""12"": 24, ""14"": 51, ""11"": 3}",non_bati
18137001,MAREUIL,46.8805,2.155667,137,demuzere,17.0,17.0,14.0,"{""14"": 1, ""6"": 1, ""17"": 2}","{""14"": 9, ""6"": 8, ""17"": 13}","{""14"": 41, ""6"": 14, ""17"": 24, ""12"": 2}",non_bati
18159001,NANCAY,47.393167,2.201,142,demuzere,12.0,12.0,12.0,"{""12"": 3}","{""14"": 10, ""12"": 19}","{""14"": 32, ""11"": 2, ""12"": 44}",non_bati
18165001,NEUVY-SUR-BAR.,47.323,2.243833,154,demuzere,12.0,11.0,11.0,"{""12"": 2, ""11"": 1}","{""11"": 25, ""12"": 4}","{""11"": 73, ""12"": 5}",non_bati
18172001,ORVAL,46.721667,2.483167,165,demuzere,6.0,6.0,6.0,"{""6"": 3}","{""6"": 16, ""14"": 4, ""12"": 9}","{""6"": 37, ""12"": 29, ""14"": 11, ""9"": 1}",urbain_aere
18175001,OUROUER-LES-B.,46.919833,2.8185,253,demuzere,14.0,14.0,14.0,"{""14"": 4}","{""14"": 25, ""12"": 3}","{""14"": 68, ""12"": 12}",non_bati
18175003,OUROUER,46.925333,2.803333,221,demuzere,14.0,14.0,14.0,"{""14"": 2}","{""14"": 25, ""12"": 1}","{""14"": 77, ""12"": 3}",non_bati
18187004,PREVERANGES,46.425333,2.2365,462,demuzere,14.0,14.0,14.0,"{""14"": 2}","{""14"": 20, ""12"": 6}","{""14"": 67, ""12"": 10}",non_bati
18190001,QUINCY,47.129833,2.152333,124,demuzere,9.0,9.0,9.0,"{""12"": 1, ""9"": 3}","{""9"": 23, ""6"": 5, ""12"": 2}","{""6"": 20, ""12"": 17, ""9"": 29, ""14"": 15}",bati_special
18197004,ST-AMAND-MTROND,46.737333,2.502833,177,demuzere,6.0,6.0,6.0,"{""6"": 4}","{""12"": 7, ""6"": 22}","{""11"": 7, ""12"": 19, ""14"": 3, ""6"": 52}",urbain_aere
18223003,ST-MARTIN-D'A.,47.200667,2.416833,172,demuzere,6.0,14.0,6.0,"{""6"": 2, ""14"": 1}","{""6"": 9, ""12"": 8, ""14"": 11, ""9"": 1}","{""6"": 31, ""12"": 18, ""14"": 27, ""9"": 2}",urbain_aere
18241002,SANCERRE,47.336167,2.799,240,demuzere,6.0,6.0,14.0,"{""6"": 2, ""14"": 1}","{""6"": 14, ""14"": 12, ""9"": 1}","{""13"": 5, ""14"": 39, ""6"": 17, ""9"": 13}",non_bati
18242001,SANCOINS,46.831333,2.9265,203,demuzere,9.0,9.0,9.0,"{""9"": 3}","{""9"": 13, ""6"": 9, ""14"": 4, ""12"": 2}","{""9"": 29, ""6"": 25, ""14"": 20, ""12"": 4}",bati_special
18251001,SEVRY,47.138,2.804667,205,demuzere,14.0,14.0,14.0,"{""14"": 3}","{""14"": 29}","{""14"": 80}",non_bati
18269001,VAILLY,47.456833,2.641667,197,demuzere,6.0,14.0,14.0,"{""6"": 2, ""14"": 1}","{""14"": 13, ""12"": 6, ""6"": 9}","{""12"": 19, ""14"": 43, ""6"": 12, ""11"": 5}",non_bati
18269003,VAILLY/SAULDRE,47.453833,2.615833,226,demuzere,14.0,14.0,14.0,"{""14"": 3}","{""14"": 28}","{""14"": 77, ""12"": 1}",non_bati
18279001,VIERZON - VEVES,47.219167,2.0135,98,demuzere,12.0,14.0,14.0,"{""12"": 2}","{""14"": 13, ""12"": 9, ""11"": 4}","{""14"": 54, ""12"": 15, ""11"": 8}",non_bati
18279005,VIERZON,47.237833,2.073167,155,demuzere,6.0,6.0,6.0,"{""6"": 3}","{""12"": 7, ""6"": 21}","{""14"": 4, ""12"": 25, ""6"": 48}",urbain_aere
19010001,ARGENTAT,45.101333,1.9375,190,demuzere,14.0,12.0,12.0,"{""14"": 3}","{""12"": 12, ""14"": 4, ""13"": 2, ""9"": 9, ""6"": 1}","{""11"": 5, ""12"": 41, ""14"": 4, ""9"": 17, ""13"": 2, ""6"": 10}",non_bati
19029001,BRANCEILLES,45.011167,1.704833,190,demuzere,12.0,12.0,12.0,"{""12"": 4}","{""12"": 29}","{""12"": 72, ""14"": 4, ""11"": 3}",non_bati
19031008,BRIVE,45.146667,1.473333,115,demuzere,8.0,8.0,8.0,"{""8"": 2, ""14"": 1}","{""8"": 17, ""14"": 12}","{""14"": 22, ""12"": 8, ""8"": 34, ""6"": 14}",bati_special
19033001,BUGEAT,45.602667,1.930333,694,demuzere,12.0,12.0,12.0,"{""12"": 2}","{""12"": 23, ""11"": 3}","{""11"": 21, ""12"": 52, ""13"": 3}",non_bati
19034001,CAMPS,44.983667,1.988333,519,demuzere,12.0,12.0,12.0,"{""12"": 3}","{""12"": 27, ""11"": 2}","{""12"": 60, ""11"": 18}",non_bati
19036001,CHAMBERET,45.573667,1.724667,444,demuzere,12.0,14.0,12.0,"{""12"": 1, ""14"": 1}","{""12"": 12, ""14"": 14}","{""12"": 35, ""11"": 3, ""9"": 3, ""14"": 35}",non_bati
19073001,EGLETONS-MART.,45.405667,2.042833,638,demuzere,6.0,6.0,6.0,"{""6"": 2}","{""6"": 23, ""12"": 3}","{""12"": 4, ""6"": 75}",urbain_aere
19073006,EGLETONS,45.398833,2.059167,610,demuzere,12.0,6.0,6.0,"{""12"": 2}","{""6"": 18, ""12"": 3, ""9"": 2, ""14"": 3}","{""12"": 8, ""9"": 11, ""6"": 46, ""11"": 5, ""14"": 8, ""13"": 1}",urbain_aere
19121002,LUBERSAC,45.410333,1.411167,390,demuzere,12.0,12.0,12.0,"{""12"": 4}","{""12"": 28}","{""12"": 78}",non_bati
19125001,MARCILLAC,45.2835,2.039833,598,demuzere,12.0,11.0,11.0,"{""12"": 3}","{""11"": 20, ""12"": 9}","{""11"": 64, ""12"": 14}",non_bati
19134001,MERLINES,45.6255,2.462333,728,demuzere,12.0,12.0,12.0,"{""12"": 4}","{""11"": 2, ""12"": 27}","{""12"": 56, ""11"": 20, ""13"": 2}",non_bati
19136002,MEYMAC,45.534333,2.154333,670,demuzere,6.0,6.0,12.0,"{""6"": 4}","{""6"": 14, ""9"": 1, ""11"": 5, ""12"": 8, ""14"": 1}","{""6"": 26, ""14"": 3, ""9"": 4, ""12"": 33, ""11"": 14}",non_bati
19146001,NAVES,45.3215,1.772667,450,demuzere,13.0,13.0,12.0,"{""13"": 4}","{""12"": 7, ""13"": 11, ""11"": 10}","{""14"": 5, ""12"": 31, ""13"": 15, ""11"": 28}",non_bati
19148001,NEUVIC,45.379167,2.2815,615,demuzere,12.0,12.0,12.0,"{""12"": 2}","{""12"": 28}","{""11"": 10, ""12"": 67, ""13"": 2}",non_bati
19164001,PEYRELEVADE,45.701,2.058667,827,demuzere,12.0,12.0,12.0,"{""12"": 4}","{""12"": 28}","{""12"": 74, ""14"": 5, ""13"": 1}",non_bati
19237001,ST-PRIVAT,45.139,2.096,585,demuzere,12.0,12.0,12.0,"{""12"": 3, ""6"": 1}","{""12"": 23, ""6"": 9}","{""12"": 63, ""11"": 2, ""6"": 14}",non_bati
19272001,TULLE,45.2425,1.740333,235,demuzere,12.0,12.0,11.0,"{""12"": 2}","{""11"": 10, ""12"": 12, ""6"": 4, ""13"": 1}","{""11"": 44, ""12"": 19, ""6"": 11, ""13"": 3}",non_bati
19275001,USSEL-LAMARTINE,45.558833,2.321333,654,demuzere,6.0,6.0,6.0,"{""6"": 3}","{""6"": 26, ""12"": 3}","{""12"": 19, ""9"": 2, ""13"": 2, ""11"": 1, ""6"": 54}",urbain_aere
19275004,USSEL-LES PLAINES,45.527667,2.281667,670,demuzere,11.0,11.0,11.0,"{""14"": 1, ""12"": 1, ""11"": 2}","{""11"": 15, ""12"": 13, ""14"": 1}","{""11"": 43, ""12"": 34, ""14"": 1}",non_bati
19276006,UZERCHE,45.396333,1.568167,422,demuzere,12.0,12.0,12.0,"{""12"": 1, ""13"": 1}","{""12"": 20, ""6"": 5, ""13"": 2}","{""6"": 17, ""12"": 49, ""13"": 3, ""11"": 2, ""14"": 6}",non_bati
19288004,VOUTEZAC,45.279833,1.416,124,demuzere,12.0,12.0,12.0,"{""12"": 2}","{""12"": 15, ""14"": 2, ""11"": 1, ""6"": 8}","{""12"": 48, ""14"": 13, ""11"": 2, ""6"": 13}",non_bati
