NUM_POSTE,NOM_USUEL,LAT,LON,ALTI,NDays,NTrop,TnMax,TnMoy,TxMax,TxMoy,TmMoy,NTrop_abs,NTrop_taux,episode,episode_label
1014002,ARBENT,46.278167,5.669,534,11,0,19.5,14.61818181818182,38.0,34.32727272727273,24.236363636363635,0,0.0,canicule-aout-2023,aou23
1027003,BALAN_AERO,45.833,5.106667,196,11,1,21.2,18.045454545454543,40.0,36.40909090909091,26.618181818181824,1,0.09090909090909091,canicule-aout-2023,aou23
1033002,BELLEGARDE,46.0865,5.814167,350,11,0,18.6,16.3,39.9,36.89090909090909,25.572727272727267,0,0.0,canicule-aout-2023,aou23
1034004,BELLEY,45.769333,5.688,330,11,5,22.2,19.845454545454544,40.2,36.86363636363637,28.0,5,0.45454545454545453,canicule-aout-2023,aou23
1064001,VERIZIEU,45.777167,5.487167,281,11,1,20.2,18.55454545454545,41.8,38.290909090909096,27.38181818181818,1,0.09090909090909091,canicule-aout-2023,aou23
1071001,CESSY,46.310333,6.080333,507,11,6,21.6,19.618181818181817,38.5,34.981818181818184,27.04545454545454,6,0.5454545454545454,canicule-aout-2023,aou23
1072001,CEYZERIAT_SAPC,46.204333,5.287667,260,11,2,21.5,18.59090909090909,39.7,34.581818181818186,25.9,2,0.18181818181818182,canicule-aout-2023,aou23
1089001,AMBERIEU,45.9765,5.329333,250,11,5,22.7,19.290909090909093,41.2,37.29090909090909,27.518181818181816,5,0.45454545454545453,canicule-aout-2023,aou23
1143002,DIVONNE ZA,46.3415,6.139667,467,11,0,17.1,15.363636363636362,39.9,36.3,24.972727272727276,0,0.0,canicule-aout-2023,aou23
1185006,HAUTEVILLE_EDF_RIC-A2-DOUBLON,45.979667,5.598167,805,11,0,19.4,15.109090909090908,35.2,32.47272727272727,,0,0.0,canicule-aout-2023,aou23
1200002,LA BALME SUR CERDON_SAPC,46.09,5.482,596,11,3,21.1,18.60909090909091,38.0,33.47272727272727,25.13636363636364,3,0.2727272727272727,canicule-aout-2023,aou23
1235001,MARLIEUX,46.0385,5.044333,280,11,3,21.1,18.454545454545453,40.5,35.22727272727273,26.11818181818182,3,0.2727272727272727,canicule-aout-2023,aou23
1247003,MIJOUX,46.378833,6.019333,1002,11,0,13.6,12.02727272727273,33.2,30.60909090909091,20.25454545454545,0,0.0,canicule-aout-2023,aou23
1269001,NANTUA,46.148167,5.607333,483,11,2,22.1,17.98181818181818,38.9,34.38181818181818,25.08181818181818,2,0.18181818181818182,canicule-aout-2023,aou23
1367002,SAINT JULIEN SUR REYSSOUZE,46.403167,5.109833,189,11,2,20.5,18.62727272727273,40.5,34.86363636363637,25.872727272727275,2,0.18181818181818182,canicule-aout-2023,aou23
1384003,ST RAMBERT CG01,45.950333,5.461,296,11,0,19.6,17.818181818181817,40.1,36.36363636363636,25.827272727272728,0,0.0,canicule-aout-2023,aou23
1414001,SUTRIEU,45.916167,5.624667,878,11,2,20.9,17.454545454545457,37.1,34.163636363636364,24.91818181818182,2,0.18181818181818182,canicule-aout-2023,aou23
2037002,AULNOIS-SS-LAON,49.595667,3.610333,78,11,1,20.9,16.172727272727272,30.8,27.527272727272724,21.60909090909091,1,0.09090909090909091,canicule-aout-2023,aou23
2058001,BEAURIEUX,49.390333,3.732667,56,11,1,21.0,16.681818181818183,32.1,28.44545454545454,22.05454545454545,1,0.09090909090909091,canicule-aout-2023,aou23
2094001,BLESMES,49.009667,3.462667,222,11,1,20.2,17.172727272727272,30.7,27.154545454545453,21.80909090909091,1,0.09090909090909091,canicule-aout-2023,aou23
2110002,BRAINE,49.351333,3.527,61,11,1,21.1,16.672727272727272,32.2,27.94545454545454,21.963636363636365,1,0.09090909090909091,canicule-aout-2023,aou23
2173002,CHAUNY,49.633833,3.197833,83,11,1,21.5,16.063636363636366,31.2,27.2,21.354545454545452,1,0.09090909090909091,canicule-aout-2023,aou23
2320001,ST QUENTIN,49.818333,3.206,98,11,1,21.2,15.418181818181818,30.0,26.40909090909091,20.863636363636363,1,0.09090909090909091,canicule-aout-2023,aou23
2321002,FONTAINE-LES-VV,49.837333,3.877833,186,11,1,20.2,16.645454545454548,29.6,25.872727272727275,21.045454545454547,1,0.09090909090909091,canicule-aout-2023,aou23
2346001,GIZY,49.599833,3.781,75,11,1,21.0,15.445454545454544,31.6,27.527272727272727,21.136363636363637,1,0.09090909090909091,canicule-aout-2023,aou23
2381001,HIRSON,49.922,4.077167,165,11,1,20.7,16.145454545454548,30.8,26.454545454545453,20.8,1,0.09090909090909091,canicule-aout-2023,aou23
2471001,MARTIGNY-COURPI,49.485667,3.693167,95,11,1,20.8,15.954545454545457,30.7,27.06363636363637,21.009090909090908,1,0.09090909090909091,canicule-aout-2023,aou23
2585001,PARCY-ET-TIGNY,49.280167,3.331,148,11,1,20.2,16.181818181818183,31.8,27.690909090909088,21.5,1,0.09090909090909091,canicule-aout-2023,aou23
2705001,NIZY-LE-COMTE,49.566,4.0365,90,11,1,21.3,16.99090909090909,32.0,27.545454545454547,21.818181818181817,1,0.09090909090909091,canicule-aout-2023,aou23
2738001,TERGNIER,49.663833,3.320667,59,11,1,21.7,15.8,31.8,28.563636363636363,21.763636363636365,1,0.09090909090909091,canicule-aout-2023,aou23
3036002,BOURBON_SAPC,46.58,3.0495,270,11,5,22.5,19.654545454545456,37.8,32.62727272727273,25.772727272727277,5,0.45454545454545453,canicule-aout-2023,aou23
3059001,CHAREIL-CINTRAT_SAPC,46.275833,3.225667,286,11,2,20.9,18.62727272727273,40.5,33.32727272727272,25.53636363636364,2,0.18181818181818182,canicule-aout-2023,aou23
3060001,VICHY-CHARMEIL,46.166667,3.398667,249,11,1,20.3,18.345454545454547,40.2,32.90909090909091,24.981818181818184,1,0.09090909090909091,canicule-aout-2023,aou23
3061001,CHARMES_SAPC,46.0635,3.233667,330,11,5,22.7,19.7,39.5,33.26363636363636,25.66363636363637,5,0.45454545454545453,canicule-aout-2023,aou23
3074001,CHEVAGNES,46.630667,3.549167,228,11,2,20.6,18.49090909090909,38.2,33.127272727272725,25.36363636363636,2,0.18181818181818182,canicule-aout-2023,aou23
3100001,DIOU,46.541667,3.706667,220,11,4,21.9,19.25454545454545,38.5,32.8909090909091,25.4,4,0.36363636363636365,canicule-aout-2023,aou23
3106002,DURDAT-LAREQUILLE,46.251667,2.695667,500,11,3,22.1,18.545454545454547,37.3,30.954545454545453,24.1,3,0.2727272727272727,canicule-aout-2023,aou23
3108001,ECHASSIERES_SAPC,46.191167,2.957667,650,11,2,21.6,17.881818181818183,36.3,30.33636363636364,23.972727272727276,2,0.18181818181818182,canicule-aout-2023,aou23
3114001,FERTE-HAUTERIVE,46.376833,3.331,226,11,0,19.8,18.454545454545453,39.7,33.17272727272727,25.16363636363636,0,0.0,canicule-aout-2023,aou23
3125001,LA GUILLERMIE,45.984667,3.639833,722,11,5,22.8,19.25454545454545,37.8,31.05454545454546,24.863636363636363,5,0.45454545454545453,canicule-aout-2023,aou23
3130002,ISLE-ET-BARDAIS,46.663333,2.730167,262,11,2,20.8,18.63636363636364,38.2,33.43636363636364,24.8,2,0.18181818181818182,canicule-aout-2023,aou23
3155003,LURCY-LEVIS SA,46.718333,2.947667,225,11,2,21.4,18.48181818181818,38.0,33.14545454545454,25.71818181818181,2,0.18181818181818182,canicule-aout-2023,aou23
3162001,MARIGNY,46.581667,3.195833,249,11,2,21.9,18.672727272727272,38.3,33.13636363636363,25.481818181818184,2,0.18181818181818182,canicule-aout-2023,aou23
3180001,MONTBEUGNY,46.536333,3.423167,275,11,4,22.2,19.3,38.4,32.772727272727266,25.50909090909091,4,0.36363636363636365,canicule-aout-2023,aou23
3185007,MONTLUCON,46.355167,2.574667,229,11,2,21.2,17.99090909090909,39.0,33.018181818181816,25.363636363636363,2,0.18181818181818182,canicule-aout-2023,aou23
3204001,PARAY-SOUS-BRIAILLES,46.2835,3.337833,250,11,0,19.9,18.172727272727272,39.4,33.46363636363637,25.38181818181818,0,0.0,canicule-aout-2023,aou23
3226001,SAINT DIDIER_SAPC,46.365333,3.850167,293,11,3,20.9,18.663636363636364,40.0,33.83636363636364,25.436363636363637,3,0.2727272727272727,canicule-aout-2023,aou23
3240001,ST-LEON,46.4025,3.685833,378,11,6,24.6,20.30909090909091,38.3,32.30909090909091,25.872727272727275,6,0.5454545454545454,canicule-aout-2023,aou23
3248001,ST-NICOLAS,46.0515,3.805167,1022,11,4,22.1,18.29090909090909,34.0,28.3,22.68181818181818,4,0.36363636363636365,canicule-aout-2023,aou23
3285001,TORTEZAIS_SAPC,46.451333,2.857,256,11,1,20.1,18.127272727272725,39.3,33.58181818181818,25.172727272727272,1,0.09090909090909091,canicule-aout-2023,aou23
3310001,VICHY-VILLE,46.117667,3.439,255,11,3,21.4,19.05454545454545,40.4,33.445454545454545,25.681818181818183,3,0.2727272727272727,canicule-aout-2023,aou23
3321001,YZEURE,46.579167,3.352833,242,11,2,22.0,18.918181818181814,38.8,33.54545454545455,25.727272727272727,2,0.18181818181818182,canicule-aout-2023,aou23
4006005,ALLOS_SAPC,44.2425,6.625333,1400,11,0,14.5,12.38181818181818,32.5,29.84545454545454,20.336363636363632,0,0.0,canicule-aout-2023,aou23
4019001,BARCELONNETTE,44.391167,6.670167,1155,11,0,12.7,10.57272727272727,35.7,32.81818181818181,21.51818181818182,0,0.0,canicule-aout-2023,aou23
4022001,BARREME,43.957167,6.372333,743,11,0,13.9,11.30909090909091,38.0,35.88181818181818,23.12727272727273,0,0.0,canicule-aout-2023,aou23
4023001,BAYONS,44.342667,6.178667,886,11,0,18.0,13.318181818181818,36.1,33.2,23.49090909090909,0,0.0,canicule-aout-2023,aou23
4039001,CASTELLANE,43.849167,6.508,729,11,0,14.7,12.490909090909092,37.1,34.96363636363637,23.545454545454547,0,0.0,canicule-aout-2023,aou23
4041001,LE CASTELLET,43.938333,5.9795,473,11,0,19.8,16.181818181818183,40.5,37.87272727272727,26.8,0,0.0,canicule-aout-2023,aou23
4049001,ST AUBAN,44.062167,5.989667,458,11,2,21.9,17.845454545454547,39.3,36.95454545454545,27.12727272727273,2,0.18181818181818182,canicule-aout-2023,aou23
4068001,DAUPHIN,43.909833,5.767167,427,11,0,17.9,14.909090909090908,40.0,36.7,25.90909090909091,0,0.0,canicule-aout-2023,aou23
4070009,DIGNE LES BAINS,44.07,6.186667,554,11,0,18.9,16.30909090909091,38.6,36.53636363636363,26.30909090909091,0,0.0,canicule-aout-2023,aou23
4096002,JAUSIERS-ST ANNE,44.413667,6.725167,1240,11,0,15.3,13.181818181818182,37.6,33.97272727272728,22.71818181818182,0,0.0,canicule-aout-2023,aou23
4096401,RESTEFOND-NIVOSE,44.34,6.8,2550,11,0,13.6,11.1,21.5,19.1,14.709090909090907,0,0.0,canicule-aout-2023,aou23
4115001,MEAILLES_SAPC,44.031167,6.6295,1090,11,0,18.8,16.927272727272722,35.7,33.481818181818184,24.69090909090909,0,0.0,canicule-aout-2023,aou23
4126001,MONTCLAR_SAPC,44.391833,6.333333,1197,11,0,16.0,14.336363636363636,36.0,32.91818181818183,22.881818181818183,0,0.0,canicule-aout-2023,aou23
4134002,LA MOTTE DU CAIRE,44.326667,6.0305,665,11,0,15.8,13.154545454545454,38.6,35.82727272727273,24.30909090909091,0,0.0,canicule-aout-2023,aou23
4136001,LA MURE-ARGENS,43.977,6.520167,920,11,0,14.7,12.20909090909091,35.8,33.545454545454554,22.62727272727273,0,0.0,canicule-aout-2023,aou23
4184001,ST JURS,43.900833,6.2005,867,11,6,23.1,20.75454545454545,36.5,33.97272727272727,26.89090909090909,6,0.5454545454545454,canicule-aout-2023,aou23
4205001,SEYNE,44.3515,6.3645,1210,11,0,15.0,13.236363636363636,34.5,31.75454545454545,,0,0.0,canicule-aout-2023,aou23
4209005,SISTERON,44.2245,5.916,500,11,0,17.9,15.47272727272727,40.7,37.44545454545455,26.481818181818184,0,0.0,canicule-aout-2023,aou23
4219001,THORAME HAUTE,44.091667,6.557333,1155,11,0,16.5,14.672727272727274,33.5,31.318181818181817,,0,0.0,canicule-aout-2023,aou23
4222001,TURRIERS,44.399,6.1695,1020,11,0,19.5,17.454545454545453,40.0,37.04545454545455,,0,0.0,canicule-aout-2023,aou23
4230001,VALENSOLE,43.8395,6.000833,600,11,5,22.1,19.33636363636364,38.3,35.845454545454544,27.654545454545453,5,0.45454545454545453,canicule-aout-2023,aou23
5001001,ABRIES,44.796667,6.928333,1560,11,0,11.4,10.072727272727274,31.4,29.481818181818184,,0,0.0,canicule-aout-2023,aou23
5007001,ARVIEUX LA CHALP,44.781167,6.736667,1690,11,0,12.5,10.927272727272726,33.4,29.93636363636364,,0,0.0,canicule-aout-2023,aou23
5007003,ARVIEUX,44.796,6.728,1825,11,0,15.1,13.536363636363632,30.6,27.85454545454545,20.20909090909091,0,0.0,canicule-aout-2023,aou23
5026001,CEILLAC,44.671167,6.776167,1665,11,0,15.3,13.227272727272725,33.0,29.318181818181817,,0,0.0,canicule-aout-2023,aou23
5026400,CEILLAC_NIVO,44.671167,6.776167,1665,11,0,15.3,13.227272727272725,33.0,29.318181818181817,,0,0.0,canicule-aout-2023,aou23
5032002,CHAMPOLEON,44.720167,6.258833,1275,11,0,14.6,13.036363636363635,36.6,34.30909090909092,,0,0.0,canicule-aout-2023,aou23
5038001,CHATEAU-VILLE-VIEILLE,44.759333,6.809,1355,9,0,13.2,11.777777777777777,34.6,32.044444444444444,21.366666666666667,0,0.0,canicule-aout-2023,aou23
5044400,PARPAILLON-NIVOSE,44.495333,6.636333,2545,11,0,14.1,11.963636363636365,21.3,18.33636363636364,14.818181818181818,0,0.0,canicule-aout-2023,aou23
5046001,EMBRUN,44.571167,6.508667,873,11,4,21.5,18.63636363636364,37.1,34.74545454545455,26.39090909090909,4,0.36363636363636365,canicule-aout-2023,aou23
5055001,LA FAURIE,44.566667,5.750167,825,11,0,15.8,11.78181818181818,37.9,35.127272727272725,23.318181818181817,0,0.0,canicule-aout-2023,aou23
5061009,GAP,44.577667,6.079833,885,11,3,21.6,18.818181818181817,38.2,35.300000000000004,26.42727272727273,3,0.2727272727272727,canicule-aout-2023,aou23
5063001,LA GRAVE,45.054167,6.285833,1790,11,0,16.6,14.418181818181818,30.7,28.200000000000003,,0,0.0,canicule-aout-2023,aou23
5063402,LA MEIJE-NIVOSE,45.012333,6.265167,3093,11,0,11.3,8.827272727272726,17.1,14.563636363636364,11.127272727272729,0,0.0,canicule-aout-2023,aou23
5064001,CHAPELLE-EN-VALGAUDEMAR,44.81,6.195333,1270,11,0,13.8,12.48181818181818,34.3,32.17272727272728,,0,0.0,canicule-aout-2023,aou23
5064403,LES PORTES EN VALGAUDEMAR_NIVO,44.81,6.195333,1270,11,0,13.8,12.48181818181818,34.3,32.17272727272728,,0,0.0,canicule-aout-2023,aou23
5070003,LARAGNE MONTEGLIN,44.319167,5.7945,565,11,0,17.9,15.390909090909092,40.1,37.4,25.89090909090909,0,0.0,canicule-aout-2023,aou23
5077402,COL AGNEL-NIVOSE,44.688667,6.976167,2627,11,0,13.6,11.136363636363637,20.9,18.37272727272727,14.227272727272725,0,0.0,canicule-aout-2023,aou23
5079001,LE MONETIER LES BAINS,44.9715,6.514167,1459,11,0,12.3,10.845454545454544,33.8,31.63636363636364,,0,0.0,canicule-aout-2023,aou23
5079402,GALIBIER-NIVOSE,45.056833,6.377167,2559,11,0,14.1,11.445454545454544,21.5,19.37272727272727,15.009090909090911,0,0.0,canicule-aout-2023,aou23
5093001,NEVACHE-EDF-03,45.0185,6.622333,1603,11,0,11.4,10.081818181818184,31.5,29.481818181818184,,0,0.0,canicule-aout-2023,aou23
5096404,ORCIERES-NIVOSE,44.719,6.333667,2280,11,0,15.1,12.5,23.5,20.9,16.60909090909091,0,0.0,canicule-aout-2023,aou23
5101001,PELVOUX,44.866833,6.486667,1270,11,0,15.3,13.772727272727272,36.8,32.99090909090909,,0,0.0,canicule-aout-2023,aou23
5101400,PELVOUX ST ANTOINE_NIVO,44.870833,6.487167,1270,11,0,15.3,13.772727272727272,36.8,32.99090909090909,,0,0.0,canicule-aout-2023,aou23
5120002,RISTOLAS,44.765667,6.9845,1670,11,0,9.4,7.9,31.6,28.90909090909091,18.018181818181816,0,0.0,canicule-aout-2023,aou23
5126001,ROSANS,44.3875,5.462167,625,11,0,17.4,14.563636363636364,41.1,38.263636363636365,26.018181818181816,0,0.0,canicule-aout-2023,aou23
5136002,ST CREPIN,44.7045,6.6,906,11,0,15.7,13.490909090909089,38.3,34.86363636363637,24.345454545454547,0,0.0,canicule-aout-2023,aou23
5139002,ST ETIENNE-EN-DEVOLUY,44.6945,5.9405,1300,11,0,15.5,12.909090909090908,34.3,31.69090909090909,,0,0.0,canicule-aout-2023,aou23
5139006,AGNIERES-EN-DEVOLUY,44.696167,5.880833,1244,11,0,12.7,10.636363636363637,33.9,31.23636363636364,20.663636363636364,0,0.0,canicule-aout-2023,aou23
5142001,ST FIRMIN,44.7825,6.035,935,11,0,17.0,14.9,38.2,35.97272727272727,,0,0.0,canicule-aout-2023,aou23
5145002,ST JEAN-ST-NICOLAS,44.670833,6.209833,1210,11,0,18.8,16.827272727272728,34.0,31.318181818181817,23.772727272727277,0,0.0,canicule-aout-2023,aou23
5157001,ST VERAN,44.6985,6.870167,1992,11,0,14.8,13.227272727272728,30.0,27.50909090909091,,0,0.0,canicule-aout-2023,aou23
5158001,LE SAIX,44.475833,5.8155,801,11,0,15.8,12.499999999999998,39.3,35.727272727272734,23.88181818181818,0,0.0,canicule-aout-2023,aou23
5170001,TALLARD,44.452167,6.033333,593,11,0,18.2,15.872727272727271,39.4,36.89090909090908,26.39090909090909,0,0.0,canicule-aout-2023,aou23
5179001,VEYNES,44.536333,5.840667,823,11,0,18.9,15.42727272727273,39.7,36.39090909090908,25.427272727272733,0,0.0,canicule-aout-2023,aou23
5181002,VILLAR D'ARENE,45.030833,6.361667,1665,11,0,17.9,10.345454545454546,32.6,28.96363636363636,19.236363636363635,0,0.0,canicule-aout-2023,aou23
5182001,VILLAR LOUBIERE,44.826833,6.146,1072,11,0,17.8,15.463636363636365,35.3,33.75454545454546,,0,0.0,canicule-aout-2023,aou23
5183001,VILLAR ST PANCRACE,44.880333,6.640333,1310,11,0,16.4,14.454545454545451,36.2,33.37272727272727,23.209090909090907,0,0.0,canicule-aout-2023,aou23
6004002,ANTIBES-GAROUPE,43.564667,7.133,75,11,11,27.3,24.081818181818186,36.7,34.45454545454546,28.6,11,1.0,canicule-aout-2023,aou23
6004004,ANTIBES-GOLF,43.579667,7.091167,13,11,8,24.7,21.4,37.5,34.25454545454546,27.845454545454547,8,0.7272727272727273,canicule-aout-2023,aou23
6004009,ANTIBES_SAPC,43.599167,7.111167,32,11,7,23.8,20.863636363636363,35.6,33.599999999999994,27.44545454545455,7,0.6363636363636364,canicule-aout-2023,aou23
6005001,ASCROS,43.922,7.013667,1173,11,6,23.5,20.83636363636364,32.4,31.063636363636363,25.09090909090909,6,0.5454545454545454,canicule-aout-2023,aou23
6016001,BEUIL-OBS,44.089833,6.988,1464,11,0,17.5,15.4,33.1,31.05454545454545,22.027272727272727,0,0.0,canicule-aout-2023,aou23
6029001,CANNES,43.5565,6.9505,2,11,8,23.6,21.445454545454545,35.3,33.09090909090909,27.33636363636364,8,0.7272727272727273,canicule-aout-2023,aou23
6033002,CARROS_SAPC,43.786667,7.209167,78,11,10,27.2,23.91818181818181,38.7,36.50909090909091,29.663636363636364,10,0.9090909090909091,canicule-aout-2023,aou23
6037002,CAUSSOLS,43.752333,6.923167,1268,11,6,22.2,19.763636363636365,30.2,28.42727272727273,24.05454545454546,6,0.5454545454545454,canicule-aout-2023,aou23
6038001,CHATEAUNEUF GRASSE,43.678333,6.996167,379,11,10,27.3,23.75454545454545,36.5,34.23636363636364,28.572727272727267,10,0.9090909090909091,canicule-aout-2023,aou23
6050002,COURSEGOULES_SAPC,43.792,7.0485,985,11,6,22.3,20.090909090909093,33.3,31.127272727272725,25.35454545454546,6,0.5454545454545454,canicule-aout-2023,aou23
6059003,EZE,43.738833,7.365833,704,11,11,28.1,24.23636363636364,33.3,31.24545454545455,27.545454545454547,11,1.0,canicule-aout-2023,aou23
6071001,GUILLAUMES-OBS,44.090667,6.852333,788,11,0,17.8,15.572727272727274,38.4,36.2,24.47272727272728,0,0.0,canicule-aout-2023,aou23
6073005,ISOLA 2000,44.1895,7.149,1912,11,0,12.2,10.663636363636364,27.8,25.545454545454547,17.44545454545454,0,0.0,canicule-aout-2023,aou23
6074005,LANTOSQUE_SAPC,43.972,7.307,550,11,3,20.5,18.745454545454542,39.2,37.71818181818182,26.8,3,0.2727272727272727,canicule-aout-2023,aou23
6075007,LEVENS,43.846333,7.21,691,11,10,23.6,21.78181818181818,34.0,31.963636363636365,26.545454545454547,10,0.9090909090909091,canicule-aout-2023,aou23
6077006,PEIRA CAVA,43.929167,7.363333,1443,11,5,21.2,18.76363636363636,31.8,28.972727272727276,23.145454545454545,5,0.45454545454545453,canicule-aout-2023,aou23
6079002,MANDELIEU LA NAPOULE_SAPC,43.523667,6.898667,104,11,10,24.7,22.14545454545454,37.2,34.95454545454545,28.21818181818181,10,0.9090909090909091,canicule-aout-2023,aou23
6081001,LE MAS,43.813667,6.809333,1525,11,3,20.3,18.64545454545454,31.7,29.8,23.39090909090909,3,0.2727272727272727,canicule-aout-2023,aou23
6083005,MENTON,43.785833,7.488667,216,11,11,30.4,25.61818181818182,36.7,34.06363636363637,29.245454545454542,11,1.0,canicule-aout-2023,aou23
6086001,MOULINET,43.942,7.414667,817,11,5,22.0,19.618181818181817,34.4,32.64545454545454,25.20909090909091,5,0.45454545454545453,canicule-aout-2023,aou23
6088001,NICE,43.648833,7.209,2,11,11,28.6,25.47272727272728,32.9,31.11818181818182,28.209090909090904,11,1.0,canicule-aout-2023,aou23
6088007,NICE-RIMIEZ,43.738667,7.279167,238,11,11,26.6,23.63636363636364,35.7,32.39090909090908,27.99090909090909,11,1.0,canicule-aout-2023,aou23
6090002,PEGOMAS,43.602667,6.936667,109,11,10,25.3,22.618181818181817,36.7,34.527272727272724,28.518181818181823,10,0.9090909090909091,canicule-aout-2023,aou23
6091003,PEILLE,43.775167,7.428333,1106,11,7,24.0,21.20909090909091,32.9,30.06363636363636,25.2,7,0.6363636363636364,canicule-aout-2023,aou23
6094002,PEONE,44.099667,6.930833,1784,11,0,19.3,16.854545454545455,31.0,28.527272727272724,21.42727272727273,0,0.0,canicule-aout-2023,aou23
6099004,PUGET THENIERS_SAPC,43.956833,6.892333,449,11,5,21.2,19.345454545454544,39.7,38.2,28.018181818181816,5,0.45454545454545453,canicule-aout-2023,aou23
6102001,RIMPLAS_SAPC,44.067167,7.1335,1130,11,7,23.3,20.881818181818183,35.5,33.43636363636363,25.67272727272728,7,0.6363636363636364,canicule-aout-2023,aou23
6103002,BERTHEMONT-LES-BAINS_SAPC,44.044333,7.300833,938,11,10,24.1,21.87272727272727,36.6,34.654545454545456,26.73636363636364,10,0.9090909090909091,canicule-aout-2023,aou23
6118002,ST CEZAIRE SUR SIAGNE,43.678667,6.809,694,11,7,24.0,21.527272727272727,35.6,33.72727272727273,27.518181818181823,7,0.6363636363636364,canicule-aout-2023,aou23
6120004,ST ETIENNE DE TINEE_SAPC,44.257667,6.921167,1150,11,0,18.5,16.63636363636364,35.4,33.22727272727273,23.481818181818184,0,0.0,canicule-aout-2023,aou23
6125001,ST MARTIN D'ENTRAUNES_SAPC,44.154667,6.747,1642,11,0,18.7,16.99090909090909,32.0,29.963636363636365,22.463636363636365,0,0.0,canicule-aout-2023,aou23
6136005,SOSPEL,43.862833,7.433667,843,11,11,26.2,23.84545454545454,34.5,31.43636363636364,27.072727272727278,11,1.0,canicule-aout-2023,aou23
6152002,VALBONNE-SOPHIA,43.623167,7.0285,238,11,11,29.1,25.41818181818182,38.0,35.13636363636363,29.85454545454545,11,1.0,canicule-aout-2023,aou23
6153400,MILLEFONTS-NIVOSE,44.118333,7.192,2430,11,0,15.5,12.98181818181818,22.0,19.872727272727275,15.854545454545455,0,0.0,canicule-aout-2023,aou23
6163001,TENDE-OBS,44.086667,7.595,792,11,0,17.3,15.6,35.2,32.918181818181814,23.40909090909091,0,0.0,canicule-aout-2023,aou23
6163007,TENDE_SAPC,44.043167,7.586,636,11,2,20.0,18.418181818181814,35.3,33.654545454545456,25.345454545454547,2,0.18181818181818182,canicule-aout-2023,aou23
7005001,ALBA LA ROMAINE,44.539833,4.5825,223,11,4,23.0,18.436363636363637,40.6,37.49999999999999,27.8,4,0.36363636363636365,canicule-aout-2023,aou23
7010001,ANNONAY,45.246167,4.6705,336,11,2,20.8,17.781818181818185,39.7,37.154545454545456,27.081818181818186,2,0.18181818181818182,canicule-aout-2023,aou23
7011002,ANTRAIGUES,44.719167,4.352167,428,11,1,20.6,16.263636363636365,40.1,36.49090909090909,25.10909090909091,1,0.09090909090909091,canicule-aout-2023,aou23
7019005,AUBENAS SA,44.601667,4.409833,176,11,4,24.4,18.41818181818182,42.1,38.154545454545456,28.30909090909091,4,0.36363636363636365,canicule-aout-2023,aou23
7025001,BARNAS RAD,44.666,4.159833,480,11,3,21.9,17.763636363636365,39.5,35.70909090909091,25.790909090909096,3,0.2727272727272727,canicule-aout-2023,aou23
7032002,BERZEME RAD,44.628333,4.566333,650,11,7,27.0,21.827272727272728,36.7,33.590909090909086,26.95454545454546,7,0.6363636363636364,canicule-aout-2023,aou23
7033001,BESSAS,44.34,4.298667,251,11,7,26.5,21.63636363636364,41.3,37.35454545454545,29.172727272727272,7,0.6363636363636364,canicule-aout-2023,aou23
7064001,CHEYLARD SA,44.914833,4.4375,418,11,0,19.9,16.499999999999996,39.2,35.872727272727275,26.072727272727278,0,0.0,canicule-aout-2023,aou23
7066001,CHOMERAC SA_RCE,44.6995,4.648333,216,11,5,22.9,19.30909090909091,41.3,37.74545454545455,28.41818181818182,5,0.45454545454545453,canicule-aout-2023,aou23
7068001,COLOMBIER JEUNE RAD,45.0155,4.671167,566,11,9,24.0,21.536363636363635,37.4,34.95454545454545,27.86363636363636,9,0.8181818181818182,canicule-aout-2023,aou23
7075001,CROS GEORAND,44.780167,4.099667,1021,11,0,14.9,12.690909090909091,35.5,31.93636363636364,21.64545454545454,0,0.0,canicule-aout-2023,aou23
7096001,GLUIRAS RAD,44.839333,4.524,760,11,8,25.2,21.90909090909091,36.5,32.85454545454545,26.92727272727273,8,0.7272727272727273,canicule-aout-2023,aou23
7099001,GRAS,44.429,4.5655,341,11,3,22.1,18.15454545454546,40.6,36.81818181818182,27.4,3,0.2727272727272727,canicule-aout-2023,aou23
7101001,GROSPIERRES,44.411333,4.300833,127,11,2,21.2,17.7,43.6,39.46363636363637,28.281818181818185,2,0.18181818181818182,canicule-aout-2023,aou23
7105001,ISSANLAS,44.773167,3.981667,1215,11,0,19.4,16.38181818181818,33.5,29.990909090909096,22.827272727272724,0,0.0,canicule-aout-2023,aou23
7105003,ISSANLAS_SAPC,44.7555,3.975333,1264,11,0,19.4,17.081818181818182,33.9,29.66363636363636,22.78181818181818,0,0.0,canicule-aout-2023,aou23
7117002,LABLACHERE,44.480833,4.208333,295,11,6,24.5,20.181818181818183,41.0,37.73636363636364,28.44545454545455,6,0.5454545454545454,canicule-aout-2023,aou23
7128001,LALOUVESC,45.117833,4.535,1090,11,3,22.8,18.16363636363636,33.9,30.981818181818184,24.29090909090909,3,0.2727272727272727,canicule-aout-2023,aou23
7131001,LANAS SYN,44.537167,4.368167,265,11,4,24.6,19.445454545454545,41.8,37.79090909090909,28.527272727272727,4,0.36363636363636365,canicule-aout-2023,aou23
7144001,LOUBARESSE,44.599833,4.049333,1200,11,2,21.3,18.218181818181822,35.7,30.490909090909096,23.545454545454547,2,0.18181818181818182,canicule-aout-2023,aou23
7153001,MAYRES,44.667167,4.113,579,11,4,23.0,18.109090909090902,41.0,36.50909090909091,26.472727272727276,4,0.36363636363636365,canicule-aout-2023,aou23
7154005,MAZAN ABBAYE RAD,44.733833,4.083833,1240,11,2,20.3,17.672727272727272,33.7,29.309090909090912,23.01818181818182,2,0.18181818181818182,canicule-aout-2023,aou23
7159001,MIRABEL SA,44.5815,4.497333,275,11,4,23.9,18.77272727272728,40.7,37.10909090909091,28.08181818181818,4,0.36363636363636365,canicule-aout-2023,aou23
7161001,MONTPEZAT SA,44.715667,4.207,602,11,5,24.0,20.590909090909093,39.0,34.39090909090909,26.83636363636364,5,0.45454545454545453,canicule-aout-2023,aou23
7161002,MONTPEZAT,44.703333,4.229667,491,11,3,24.9,18.43636363636364,39.0,34.93636363636364,,3,0.2727272727272727,canicule-aout-2023,aou23
7168001,ORGNAC AVEN,44.288333,4.421667,230,11,6,23.9,20.25454545454545,41.6,37.88181818181818,28.8,6,0.5454545454545454,canicule-aout-2023,aou23
7172002,PEAUGRES RAD,45.286167,4.705833,480,11,9,23.9,21.13636363636364,38.1,35.42727272727273,28.26363636363636,9,0.8181818181818182,canicule-aout-2023,aou23
7186001,PRIVAS,44.718833,4.596333,282,11,5,23.9,19.56363636363637,40.4,37.01818181818181,,5,0.45454545454545453,canicule-aout-2023,aou23
7187001,CROIX MILLET,44.606333,4.241333,779,11,7,26.7,22.281818181818185,37.0,32.18181818181818,26.74545454545455,7,0.6363636363636364,canicule-aout-2023,aou23
7202002,SABLIERES OARA,44.533,4.0725,540,11,7,25.3,21.57272727272728,41.3,36.71818181818182,27.92727272727273,7,0.6363636363636364,canicule-aout-2023,aou23
7204008,ST-AGREVE RAD,44.997833,4.368,1014,11,1,20.7,17.818181818181817,34.5,31.736363636363635,24.454545454545453,1,0.09090909090909091,canicule-aout-2023,aou23
7232001,ST-ETIENNE LUGDARES,44.651333,3.9485,1022,11,0,16.6,12.5,35.3,31.327272727272728,21.87272727272727,0,0.0,canicule-aout-2023,aou23
7240001,ST-GEORGES BAIN,44.860333,4.8325,112,11,7,24.0,20.79090909090909,41.6,38.66363636363636,29.327272727272724,7,0.6363636363636364,canicule-aout-2023,aou23
7261001,ST-LAURENT PAPE,44.817833,4.746833,112,11,2,22.9,18.281818181818185,42.3,39.30909090909092,28.49090909090909,2,0.18181818181818182,canicule-aout-2023,aou23
7265001,ST-MARCEL ANNONAY,45.296,4.642,494,11,1,20.6,17.58181818181818,40.6,37.18181818181819,26.23636363636364,1,0.09090909090909091,canicule-aout-2023,aou23
7279001,ST-MONTAN,44.441833,4.636333,130,11,6,24.9,20.645454545454545,41.4,38.24545454545454,29.2,6,0.5454545454545454,canicule-aout-2023,aou23
7286002,ST-PIERREVILLE,44.814333,4.485,560,11,2,21.7,17.563636363636363,39.2,35.59090909090909,25.536363636363635,2,0.18181818181818182,canicule-aout-2023,aou23
7315004,LA SOUCHE,44.6285,4.123667,924,11,5,22.4,19.00909090909091,36.1,32.10909090909091,24.727272727272727,5,0.45454545454545453,canicule-aout-2023,aou23
7330004,VALLON SA,44.391833,4.403667,120,11,5,21.8,18.227272727272727,43.0,39.53636363636363,,5,0.45454545454545453,canicule-aout-2023,aou23
7331001,VALS-LES-BAINS,44.6695,4.360667,283,11,4,22.9,19.42727272727273,40.6,36.97272727272727,27.327272727272728,4,0.36363636363636365,canicule-aout-2023,aou23
7334004,LES VANS-SA,44.4155,4.150833,140,11,1,20.2,16.763636363636365,42.5,38.56363636363636,27.545454545454547,1,0.09090909090909091,canicule-aout-2023,aou23
7338001,VERNOUX,44.8995,4.652333,561,11,3,26.0,18.43636363636364,37.1,34.83636363636364,26.718181818181822,3,0.2727272727272727,canicule-aout-2023,aou23
7347001,VOCANCE,45.201167,4.554333,529,11,4,21.1,18.48181818181818,39.2,35.527272727272724,26.29090909090909,4,0.36363636363636365,canicule-aout-2023,aou23
8046001,BANOGNE-RECOUVRANCE,49.571667,4.129167,130,11,1,21.8,17.727272727272727,31.4,27.772727272727277,22.472727272727276,1,0.09090909090909091,canicule-aout-2023,aou23
8089003,BUZANCY_SAPC,49.427333,4.9645,199,11,1,21.6,17.099999999999998,30.8,27.654545454545453,21.8,1,0.09090909090909091,canicule-aout-2023,aou23
8105005,CHARLEVILLE-MEZ,49.782833,4.643167,145,11,1,20.1,15.509090909090908,31.3,27.35454545454546,20.954545454545453,1,0.09090909090909091,canicule-aout-2023,aou23
8116001,LE CHESNE,49.510333,4.766167,168,11,1,20.6,16.554545454545455,31.8,28.009090909090904,21.581818181818186,1,0.09090909090909091,canicule-aout-2023,aou23
8145001,DOUZY,49.658,5.039833,153,11,1,21.0,15.563636363636364,31.5,27.681818181818183,21.072727272727278,1,0.09090909090909091,canicule-aout-2023,aou23
8207001,HAM-SUR-MEUSE,50.116,4.7795,109,11,1,21.3,17.28181818181818,32.9,27.66363636363636,21.38181818181818,1,0.09090909090909091,canicule-aout-2023,aou23
8239001,JUNIVILLE,49.397333,4.371667,90,11,1,22.1,16.609090909090913,32.2,28.163636363636364,22.018181818181816,1,0.09090909090909091,canicule-aout-2023,aou23
8244001,LAMETZ_SAPC,49.536667,4.689667,165,11,1,20.4,16.30909090909091,31.2,27.3,21.363636363636363,1,0.09090909090909091,canicule-aout-2023,aou23
8248002,LAUNOIS-SUR-VENCE_SAPC,49.671833,4.534667,218,11,1,21.4,16.490909090909092,30.2,26.690909090909088,21.154545454545456,1,0.09090909090909091,canicule-aout-2023,aou23
8254002,LIART_SAPC,49.7655,4.340333,240,11,1,20.6,16.581818181818182,29.7,26.35454545454546,20.87272727272727,1,0.09090909090909091,canicule-aout-2023,aou23
8255001,LINAY,49.616833,5.216833,177,11,1,20.1,15.463636363636365,32.1,28.64545454545454,20.91818181818182,1,0.09090909090909091,canicule-aout-2023,aou23
8296002,MONTCHEUTIN_SAPC,49.287333,4.809667,142,11,1,21.3,16.936363636363634,32.2,28.272727272727277,22.10909090909091,1,0.09090909090909091,canicule-aout-2023,aou23
8353001,RANCENNES,50.118833,4.813167,162,11,1,21.2,16.545454545454547,31.3,26.818181818181817,20.99090909090909,1,0.09090909090909091,canicule-aout-2023,aou23
8367002,ROCROI,49.918667,4.53,382,11,0,19.9,16.345454545454547,29.4,25.972727272727276,20.381818181818183,0,0.0,canicule-aout-2023,aou23
8401001,SAULCES-CHAMPENOISES,49.423833,4.4925,147,11,1,22.1,17.21818181818182,31.8,28.09090909090909,22.11818181818182,1,0.09090909090909091,canicule-aout-2023,aou23
8419001,SIGNY-L'ABBAYE,49.686,4.418833,180,11,1,20.3,16.41818181818182,30.8,27.527272727272727,21.009090909090908,1,0.09090909090909091,canicule-aout-2023,aou23
8420002,SIGNY-LE-PETIT_SAPC,49.9135,4.288167,309,11,1,20.0,15.963636363636365,29.2,25.627272727272725,20.227272727272727,1,0.09090909090909091,canicule-aout-2023,aou23
9023002,ASCOU LAVAIL,42.725333,1.8885,1090,11,0,15.0,13.263636363636364,35.7,31.263636363636365,21.163636363636364,0,0.0,canicule-aout-2023,aou23
9023800,ASCOU-DOUBLE,42.723833,1.895167,1104,11,0,14.0,12.681818181818182,37.5,33.04545454545455,,0,0.0,canicule-aout-2023,aou23
9024004,ASTON,42.724167,1.691,1781,11,0,17.5,15.272727272727272,28.7,25.13636363636364,20.39090909090909,0,0.0,canicule-aout-2023,aou23
9027001,AUGIREIN,42.930167,0.92,655,11,0,18.9,17.44545454545455,38.2,31.44545454545454,23.645454545454548,0,0.0,canicule-aout-2023,aou23
9047001,BELESTA,42.903833,1.936667,490,11,0,19.5,17.345454545454544,39.0,32.918181818181814,23.527272727272727,0,0.0,canicule-aout-2023,aou23
9094001,CERIZOLS,43.126,1.063,374,11,1,20.2,18.40909090909091,39.9,32.74545454545454,24.97272727272728,1,0.09090909090909091,canicule-aout-2023,aou23
9099001,COS,42.970167,1.5645,519,11,2,20.0,18.781818181818185,38.9,32.21818181818182,24.83636363636364,2,0.18181818181818182,canicule-aout-2023,aou23
9161003,LERAN,42.990333,1.919167,391,11,1,20.5,18.454545454545453,39.9,33.563636363636355,25.454545454545453,1,0.09090909090909091,canicule-aout-2023,aou23
9181003,LE MAS D AZIL,43.0735,1.357667,293,11,3,20.7,19.081818181818186,41.5,34.42727272727273,25.972727272727276,3,0.2727272727272727,canicule-aout-2023,aou23
9199002,MONTAUT,43.192167,1.6435,295,11,8,23.0,21.0,41.1,34.36363636363637,26.954545454545453,8,0.7272727272727273,canicule-aout-2023,aou23
9225005,PAMIERS VILLE,43.118833,1.607,283,11,7,23.1,20.61818181818182,41.8,35.04545454545455,27.16363636363637,7,0.6363636363636364,canicule-aout-2023,aou23
9285400,PORT D'AULA-NIVOSE,42.77,1.114333,2140,11,0,17.1,14.281818181818185,23.9,21.454545454545453,17.827272727272728,0,0.0,canicule-aout-2023,aou23
9289001,ST GIRONS,43.005333,1.106833,414,11,3,21.2,18.76363636363636,39.2,32.309090909090905,25.02727272727273,3,0.2727272727272727,canicule-aout-2023,aou23
9290400,SENTEIN EYLIE HAUT,42.835333,0.934667,1000,11,1,21.8,17.60909090909091,37.1,31.081818181818186,,1,0.09090909090909091,canicule-aout-2023,aou23
9328001,VERDUN,42.791667,1.689833,546,11,1,20.0,17.699999999999996,40.5,33.66363636363636,24.872727272727275,1,0.09090909090909091,canicule-aout-2023,aou23
10002001,AILLEVILLE_SAPC,48.254167,4.685667,195,11,1,21.3,18.181818181818183,32.6,29.83636363636364,23.245454545454542,1,0.09090909090909091,canicule-aout-2023,aou23
10021001,AVANT-LES-RAMERUPT,48.451333,4.283667,118,11,1,21.6,17.827272727272728,33.2,30.05454545454545,23.19090909090909,1,0.09090909090909091,canicule-aout-2023,aou23
10030001,TROYES-BARBEREY,48.324667,4.02,112,11,1,22.4,18.036363636363635,32.2,29.672727272727272,23.4,1,0.09090909090909091,canicule-aout-2023,aou23
10042001,BERULLE,48.179,3.663333,146,11,1,20.5,17.027272727272727,32.8,30.11818181818182,22.709090909090907,1,0.09090909090909091,canicule-aout-2023,aou23
10057001,BOUY-SUR-ORVIN,48.439833,3.504833,102,11,1,20.3,18.00909090909091,32.4,29.327272727272728,23.1,1,0.09090909090909091,canicule-aout-2023,aou23
10070001,CELLES-SUR-OURCE,48.0675,4.411333,275,11,1,23.3,18.92727272727273,33.1,29.409090909090917,23.472727272727276,1,0.09090909090909091,canicule-aout-2023,aou23
10099002,CHESSY-LES-PRES_SAPC,48.0255,3.915,119,11,1,20.1,17.527272727272727,32.3,29.672727272727272,22.98181818181818,1,0.09090909090909091,canicule-aout-2023,aou23
10119001,CUNFIN_SAPC,48.0365,4.6785,315,11,1,21.5,18.263636363636365,33.3,29.436363636363637,23.090909090909093,1,0.09090909090909091,canicule-aout-2023,aou23
10130001,DOSNON,48.609167,4.224667,115,11,1,21.2,17.58181818181818,34.4,30.190909090909088,22.918181818181814,1,0.09090909090909091,canicule-aout-2023,aou23
10166002,GRANDES-CHAPELL,48.468167,4.016833,111,11,1,22.4,18.1,32.6,29.75454545454545,23.20909090909091,1,0.09090909090909091,canicule-aout-2023,aou23
10228002,MATHAUX-ETAPE,48.353167,4.472333,145,11,1,22.4,18.472727272727276,31.8,28.92727272727273,22.963636363636365,1,0.09090909090909091,canicule-aout-2023,aou23
10238001,MESNIL-ST-PERE,48.244833,4.322167,142,11,2,22.5,18.55454545454545,30.4,28.563636363636363,22.963636363636365,2,0.18181818181818182,canicule-aout-2023,aou23
10241001,METZ-ROBERT_SAPC,48.0745,4.101167,140,11,1,20.4,17.145454545454545,32.5,29.30909090909091,22.69090909090909,1,0.09090909090909091,canicule-aout-2023,aou23
10261001,MUSSY-SUR-SEINE,47.983833,4.495833,193,11,1,20.2,17.12727272727273,35.3,31.79090909090909,22.909090909090907,1,0.09090909090909091,canicule-aout-2023,aou23
10323001,ROMILLY,48.503333,3.7495,77,11,1,21.1,17.94545454545455,32.8,29.427272727272733,23.13636363636364,1,0.09090909090909091,canicule-aout-2023,aou23
10350001,ST-MARDS,48.169833,3.789,227,11,1,23.0,18.709090909090907,31.5,29.05454545454546,23.318181818181817,1,0.09090909090909091,canicule-aout-2023,aou23
10372001,SOULAINES,48.399333,4.671333,138,11,1,21.0,17.88181818181818,33.2,29.6,22.772727272727277,1,0.09090909090909091,canicule-aout-2023,aou23
10401001,VENDEUVRE-SUR-B,48.233,4.463,180,11,1,22.0,17.827272727272728,33.2,29.89090909090909,23.11818181818182,1,0.09090909090909091,canicule-aout-2023,aou23
10419001,VILLEMOYENNE,48.1785,4.233833,134,11,1,20.9,17.790909090909093,33.2,30.33636363636364,22.972727272727276,1,0.09090909090909091,canicule-aout-2023,aou23
11004001,ALAIGNE,43.1125,2.098333,293,11,8,24.6,21.58181818181818,40.8,33.98181818181819,27.318181818181817,8,0.7272727272727273,canicule-aout-2023,aou23
11012001,ARGELIERS,43.308167,2.911667,31,11,8,25.7,21.127272727272725,43.1,36.42727272727273,28.20909090909091,8,0.7272727272727273,canicule-aout-2023,aou23
11015001,ARQUES,42.951833,2.374833,350,11,2,22.2,18.700000000000003,40.9,35.64545454545454,26.363636363636363,2,0.18181818181818182,canicule-aout-2023,aou23
11016003,ARQUETTES-EN-VAL,43.100833,2.503333,240,11,9,25.9,21.51818181818182,42.3,35.19090909090909,27.763636363636365,9,0.8181818181818182,canicule-aout-2023,aou23
11028001,BELCAIRE,42.8195,1.968,980,11,0,19.3,16.89090909090909,34.7,29.154545454545453,22.76363636363636,0,0.0,canicule-aout-2023,aou23
11069001,CARCASSONNE,43.215333,2.2955,128,11,7,23.5,21.227272727272723,43.2,35.73636363636364,28.018181818181816,7,0.6363636363636364,canicule-aout-2023,aou23
11076001,CASTELNAUDARY,43.305333,1.949167,160,11,8,23.7,21.26363636363636,42.7,35.763636363636365,27.91818181818181,8,0.7272727272727273,canicule-aout-2023,aou23
11081003,CAUNES-MINERVOIS,43.334333,2.481,371,11,9,26.3,22.19090909090909,41.9,34.845454545454544,27.66363636363636,9,0.8181818181818182,canicule-aout-2023,aou23
11124003,DURBAN-CORBIERES,42.993333,2.819167,120,11,10,26.2,21.70909090909091,43.3,36.36363636363637,28.327272727272724,10,0.9090909090909091,canicule-aout-2023,aou23
11136001,FANJEAUX_SAPC,43.202,2.07,182,11,7,23.0,21.309090909090912,42.1,34.67272727272727,27.681818181818183,7,0.6363636363636364,canicule-aout-2023,aou23
11144001,FITOU,42.894667,2.995833,9,11,11,27.9,23.7,38.2,32.04545454545455,27.472727272727276,11,1.0,canicule-aout-2023,aou23
11159002,RIBOUISSE,43.182833,1.895833,302,11,6,23.2,20.154545454545453,42.0,34.98181818181818,26.454545454545453,6,0.5454545454545454,canicule-aout-2023,aou23
11168001,GRANES,42.909167,2.2505,420,11,7,22.9,20.527272727272727,40.6,34.372727272727275,26.91818181818182,7,0.6363636363636364,canicule-aout-2023,aou23
11181002,LABECEDE LAURAGAIS_SAPC,43.3895,2.022167,408,11,6,28.3,20.845454545454547,40.8,33.86363636363637,26.77272727272728,6,0.5454545454545454,canicule-aout-2023,aou23
11185001,LAGRASSE,43.0915,2.621833,130,11,9,26.3,21.881818181818183,43.7,36.018181818181816,28.35454545454545,9,0.8181818181818182,canicule-aout-2023,aou23
11202001,LEUCATE,42.917333,3.059667,42,11,11,26.9,23.327272727272728,36.3,29.409090909090903,25.818181818181817,11,1.0,canicule-aout-2023,aou23
11203004,LEZIGNAN-CORBIERES,43.173,2.728833,60,11,9,27.1,22.27272727272727,42.9,35.518181818181816,28.409090909090917,9,0.8181818181818182,canicule-aout-2023,aou23
11206003,LIMOUX,43.046,2.201167,230,11,6,22.8,20.37272727272727,42.4,35.72727272727273,27.45454545454546,6,0.5454545454545454,canicule-aout-2023,aou23
11221004,LES MARTYS,43.4085,2.292333,760,11,0,19.4,16.681818181818183,38.1,31.00909090909091,23.563636363636363,0,0.0,canicule-aout-2023,aou23
11253001,MONTOLIEU,43.312667,2.2405,280,11,8,23.6,21.41818181818182,43.3,35.445454545454545,27.645454545454548,8,0.7272727272727273,canicule-aout-2023,aou23
11260002,MOUTHOUMET,42.9595,2.529,538,11,7,23.6,20.545454545454543,39.1,33.07272727272727,26.172727272727272,7,0.6363636363636364,canicule-aout-2023,aou23
11262005,NARBONNE,43.150333,2.955833,110,11,9,26.3,22.73636363636364,42.1,34.72727272727273,27.71818181818181,9,0.8181818181818182,canicule-aout-2023,aou23
11266001,PORT-LA-NOUVELLE,43.0145,3.0525,0,11,11,27.1,23.50909090909091,38.3,31.73636363636364,27.08181818181818,11,1.0,canicule-aout-2023,aou23
11412001,VILLARDEBELLE_SAPC,43.014833,2.4005,593,11,3,24.2,18.945454545454545,38.4,32.209090909090904,24.781818181818185,3,0.2727272727272727,canicule-aout-2023,aou23
12005001,ALPUECH,44.756,2.868167,1107,11,1,21.5,16.80909090909091,33.8,29.727272727272727,23.018181818181816,1,0.09090909090909091,canicule-aout-2023,aou23
12011001,ARVIEU,44.168167,2.620167,733,11,7,27.0,21.21818181818182,37.1,32.11818181818182,26.127272727272725,7,0.6363636363636364,canicule-aout-2023,aou23
12014001,AURELLE-VERLAC_SAPC,44.533667,3.012833,1076,11,5,24.2,20.2,33.4,29.3,24.163636363636364,5,0.45454545454545453,canicule-aout-2023,aou23
12039001,BRUSQUE_SAPC,43.7495,2.938667,858,11,6,26.9,21.709090909090907,39.0,32.53636363636363,25.95454545454546,6,0.5454545454545454,canicule-aout-2023,aou23
12050001,CANET-DE-SALARS_SAPC,44.2335,2.737167,860,11,4,24.4,18.972727272727276,37.6,32.05454545454546,25.04545454545455,4,0.36363636363636365,canicule-aout-2023,aou23
12063003,MILLAU-LARZAC_SAPC,43.987,3.181833,794,11,2,21.4,17.636363636363637,37.3,32.1,24.7,2,0.18181818181818182,canicule-aout-2023,aou23
12068001,COLOMBIES,44.357833,2.317167,647,11,5,26.9,20.845454545454547,38.7,33.945454545454545,26.863636363636363,5,0.45454545454545453,canicule-aout-2023,aou23
12077002,CORNUS,43.922333,3.192167,718,11,0,17.8,13.863636363636363,38.6,33.054545454545455,23.40909090909091,0,0.0,canicule-aout-2023,aou23
12092001,DURENQUE_SAPC,44.111833,2.6445,812,11,6,24.7,20.018181818181816,37.6,31.809090909090912,25.163636363636364,6,0.5454545454545454,canicule-aout-2023,aou23
12094002,ENTRAYGUES SUR,44.6375,2.566167,292,11,0,19.0,16.963636363636365,41.0,36.5,26.163636363636364,0,0.0,canicule-aout-2023,aou23
12096001,ESPALION,44.515667,2.770167,360,11,0,17.3,15.290909090909093,42.1,37.42727272727273,25.5,0,0.0,canicule-aout-2023,aou23
12145001,MILLAU,44.1185,3.0195,712,11,5,24.3,20.327272727272728,39.1,33.872727272727275,26.55454545454546,5,0.45454545454545453,canicule-aout-2023,aou23
12150001,MONTEILS,44.265667,1.991667,268,11,1,21.6,17.845454545454547,41.8,36.75454545454545,27.227272727272727,1,0.09090909090909091,canicule-aout-2023,aou23
12154003,MONTLAUR,43.891667,2.836333,374,11,2,21.8,17.636363636363637,41.2,35.92727272727273,26.972727272727276,2,0.18181818181818182,canicule-aout-2023,aou23
12179001,PEUX-ET-COUFFOULEUX_SAPC,43.761833,2.867167,830,11,7,24.7,20.172727272727272,38.9,32.7,25.60909090909091,7,0.6363636363636364,canicule-aout-2023,aou23
12189001,PRADINAS_SAPC,44.242167,2.255833,564,11,6,26.2,20.59090909090909,39.9,34.86363636363637,27.3,6,0.5454545454545454,canicule-aout-2023,aou23
12216001,ST-COME-D'OLT,44.514667,2.827833,380,11,0,17.8,15.490909090909094,41.1,37.26363636363636,25.88181818181818,0,0.0,canicule-aout-2023,aou23
12224001,ST-GENIEZ-D'OLT,44.463667,2.967667,420,11,0,17.1,15.28181818181818,40.1,36.01818181818182,24.8,0,0.0,canicule-aout-2023,aou23
12253001,SALLES CURAN,44.151833,2.866167,959,11,4,24.1,19.209090909090907,36.0,31.081818181818186,24.40909090909091,4,0.36363636363636365,canicule-aout-2023,aou23
12254001,RODEZ-AVEYRON,44.410333,2.4825,578,11,1,22.7,18.036363636363635,38.9,34.19090909090908,26.272727272727277,1,0.09090909090909091,canicule-aout-2023,aou23
12266002,SEGUR,44.2895,2.820333,879,11,5,23.9,19.50909090909091,36.5,31.2,24.91818181818181,5,0.45454545454545453,canicule-aout-2023,aou23
12298001,VILLECOMTAL,44.530667,2.572,318,11,0,18.9,16.263636363636362,41.3,36.61818181818182,25.43636363636364,0,0.0,canicule-aout-2023,aou23
12300004,VILLEFRANCHE-DE-ROUERGUE,44.371833,2.023667,330,11,3,21.3,18.918181818181814,42.2,36.97272727272727,27.736363636363635,3,0.2727272727272727,canicule-aout-2023,aou23
13001009,AIX EN PROVENCE,43.5295,5.4245,173,11,4,22.0,19.745454545454542,40.1,37.50909090909091,28.58181818181818,4,0.36363636363636365,canicule-aout-2023,aou23
13004003,ARLES,43.51,4.693833,1,11,5,20.8,19.145454545454545,36.6,33.25454545454545,25.91818181818182,5,0.45454545454545453,canicule-aout-2023,aou23
13005003,AUBAGNE,43.307333,5.601167,130,11,1,20.2,17.481818181818184,39.6,37.21818181818182,27.509090909090904,1,0.09090909090909091,canicule-aout-2023,aou23
13022003,CASSIS,43.222167,5.503167,212,11,6,24.9,20.91818181818182,36.3,33.345454545454544,27.154545454545453,6,0.5454545454545454,canicule-aout-2023,aou23
13028001,BEC DE L AIGLE,43.174667,5.574167,316,11,11,28.9,25.61818181818182,35.6,32.87272727272727,28.909090909090917,11,1.0,canicule-aout-2023,aou23
13030001,CUGES-LES-PINS,43.274,5.700167,184,11,0,18.9,16.36363636363636,40.5,38.23636363636364,27.43636363636364,0,0.0,canicule-aout-2023,aou23
13031002,LA DESTROUSSE_SAPC,43.386667,5.601,201,11,0,19.6,17.200000000000003,40.1,37.67272727272727,27.572727272727278,0,0.0,canicule-aout-2023,aou23
13036003,EYRAGUES,43.847167,4.834833,17,11,3,20.9,18.42727272727273,41.4,37.31818181818182,27.50909090909091,3,0.2727272727272727,canicule-aout-2023,aou23
13047001,ISTRES,43.522667,4.9275,23,11,10,24.0,22.009090909090908,38.3,35.53636363636364,28.472727272727276,10,0.9090909090909091,canicule-aout-2023,aou23
13054001,MARIGNANE,43.437,5.2115,6,11,10,23.7,21.772727272727277,37.7,35.57272727272727,28.509090909090904,10,0.9090909090909091,canicule-aout-2023,aou23
13055001,MARSEILLE-OBS,43.305667,5.394333,75,11,11,27.1,24.42727272727273,35.7,33.763636363636365,28.7,11,1.0,canicule-aout-2023,aou23
13055029,MARSEILLE,43.310667,5.479167,192,11,7,23.3,20.74545454545455,40.2,36.490909090909085,28.59090909090909,7,0.6363636363636364,canicule-aout-2023,aou23
13062002,MIMET,43.4185,5.499667,416,11,6,22.6,20.200000000000003,37.8,35.163636363636364,27.363636363636363,6,0.5454545454545454,canicule-aout-2023,aou23
13074003,PEYROLLES EN PROVENCE,43.656667,5.607,217,11,1,20.6,17.572727272727274,41.5,38.50000000000001,27.54545454545455,1,0.09090909090909091,canicule-aout-2023,aou23
13091002,ST CANNAT,43.6045,5.317667,249,11,4,20.6,18.518181818181816,39.4,36.65454545454545,27.49090909090909,4,0.36363636363636365,canicule-aout-2023,aou23
13092001,ST CHAMAS,43.5495,5.0395,10,11,3,20.2,18.481818181818184,40.6,37.78181818181818,27.44545454545455,3,0.2727272727272727,canicule-aout-2023,aou23
13103001,SALON DE PROVENCE,43.612833,5.108,58,11,1,21.2,18.154545454545453,39.0,36.27272727272727,27.33636363636364,1,0.09090909090909091,canicule-aout-2023,aou23
13110003,TRETS,43.445333,5.698667,264,11,1,20.2,17.654545454545453,41.4,38.87272727272728,27.727272727272727,1,0.09090909090909091,canicule-aout-2023,aou23
13111002,VAUVENARGUES,43.551,5.68,565,11,4,20.3,18.427272727272733,38.3,35.63636363636363,26.563636363636363,4,0.36363636363636365,canicule-aout-2023,aou23
14047002,BAYEUX,49.274833,-0.712333,60,11,0,19.2,15.636363636363631,29.2,24.05454545454545,19.290909090909093,0,0.0,canicule-aout-2023,aou23
14066001,BERNIERES,49.334,-0.430667,2,11,0,19.4,15.7,29.8,22.645454545454548,19.28181818181818,0,0.0,canicule-aout-2023,aou23
14096001,BREMOY,48.991167,-0.780833,240,11,0,19.4,15.30909090909091,28.3,24.6,19.36363636363636,0,0.0,canicule-aout-2023,aou23
14137001,CAEN-CARPIQUET,49.18,-0.456167,67,11,0,18.8,15.318181818181818,29.3,24.672727272727272,19.509090909090908,0,0.0,canicule-aout-2023,aou23
14216001,DAMBLAINVILLE,48.928,-0.148667,155,11,0,18.5,15.690909090909088,29.7,26.0,20.018181818181816,0,0.0,canicule-aout-2023,aou23
14229001,DOZULE,49.231667,-0.0475,29,11,0,19.2,16.227272727272727,30.5,25.736363636363635,20.43636363636364,0,0.0,canicule-aout-2023,aou23
14239001,ENGLESQUEVILLE,49.3875,-0.956667,38,11,0,18.7,14.854545454545455,28.3,22.581818181818186,18.418181818181814,0,0.0,canicule-aout-2023,aou23
14296001,LEGAST_SAPC,48.794667,-1.037167,336,11,0,18.9,15.172727272727274,27.4,23.89090909090909,18.945454545454545,0,0.0,canicule-aout-2023,aou23
14357002,LASSY_SAPC,48.9265,-0.6925,223,11,0,18.9,15.163636363636364,28.1,24.91818181818182,19.363636363636363,0,0.0,canicule-aout-2023,aou23
14366002,LISIEUX_SAPC,49.165,0.227,62,11,0,18.4,15.536363636363635,30.2,26.863636363636363,20.354545454545452,0,0.0,canicule-aout-2023,aou23
14372001,LIVRY,49.099167,-0.7665,194,11,0,18.7,15.61818181818182,27.7,23.94545454545455,19.018181818181816,0,0.0,canicule-aout-2023,aou23
14446001,MONTIGNY,49.045833,-0.530167,151,11,0,19.0,14.636363636363631,29.5,25.472727272727276,19.136363636363637,0,0.0,canicule-aout-2023,aou23
14501002,PIERREFITTE CIN_SAPC,48.894,-0.3875,187,11,0,19.1,14.863636363636363,29.1,25.881818181818183,19.71818181818182,0,0.0,canicule-aout-2023,aou23
14578001,ST GATIEN DES B,49.3645,0.167,139,11,0,18.4,15.272727272727272,28.2,24.018181818181816,19.19090909090909,0,0.0,canicule-aout-2023,aou23
14624001,L OUDON LIEURY_SAPC,48.9895,-0.009167,52,11,0,18.9,14.88181818181818,29.9,26.39090909090909,20.12727272727273,0,0.0,canicule-aout-2023,aou23
14634001,SAINT MICHEL DE,49.006833,0.1295,140,11,0,19.0,15.645454545454548,29.3,26.25454545454545,20.081818181818186,0,0.0,canicule-aout-2023,aou23
14659001,ST SYLVAIN_SAPC,49.06,-0.234333,62,11,0,19.4,15.38181818181818,29.9,25.89090909090909,20.063636363636363,0,0.0,canicule-aout-2023,aou23
14762004,VIRE HIPPODROME,48.850833,-0.899,100,11,0,19.3,14.409090909090908,29.1,25.83636363636364,19.790909090909093,0,0.0,canicule-aout-2023,aou23
15001003,ALLANCHE,45.232,2.937667,1010,11,0,14.9,12.990909090909092,35.5,31.990909090909096,21.763636363636365,0,0.0,canicule-aout-2023,aou23
15014001,AURILLAC - VILL,44.935833,2.438333,707,11,3,23.8,19.23636363636364,38.0,32.86363636363637,25.83636363636364,3,0.2727272727272727,canicule-aout-2023,aou23
15014004,AURILLAC,44.8915,2.419167,632,11,1,20.5,16.981818181818184,37.3,32.39090909090909,24.60909090909091,1,0.09090909090909091,canicule-aout-2023,aou23
15025001,PRAT DE BOUC,45.0525,2.792,1405,11,0,19.2,15.909090909090908,29.6,26.1,20.89090909090909,0,0.0,canicule-aout-2023,aou23
15050001,LE CLAUX,45.1725,2.7105,1033,11,0,18.1,15.4,33.7,29.95454545454545,22.39090909090909,0,0.0,canicule-aout-2023,aou23
15053001,COLTINES,45.074667,2.990667,979,11,0,16.5,12.590909090909092,35.8,32.38181818181818,22.38181818181818,0,0.0,canicule-aout-2023,aou23
15060002,DEUX-VERGES,44.8015,3.012667,1080,11,0,19.3,16.581818181818182,34.3,30.35454545454545,23.172727272727272,0,0.0,canicule-aout-2023,aou23
15068001,FAVEROLLES,44.943667,3.1495,903,11,0,17.9,15.20909090909091,36.7,32.86363636363637,23.59090909090909,0,0.0,canicule-aout-2023,aou23
15085001,LABROUSSE,44.855333,2.540667,800,11,3,22.4,18.763636363636365,38.0,33.24545454545454,24.94545454545454,3,0.2727272727272727,canicule-aout-2023,aou23
15101004,LE LIORAN_SAPC,45.080833,2.747667,1236,11,0,16.9,14.436363636363636,31.9,28.10909090909091,20.68181818181818,0,0.0,canicule-aout-2023,aou23
15114002,MARCENAT,45.302667,2.833,1075,11,0,19.9,15.78181818181818,33.4,29.84545454545454,22.55454545454545,0,0.0,canicule-aout-2023,aou23
15118002,MARMANHAC,45.002833,2.4745,644,11,0,17.7,15.654545454545454,37.8,32.400000000000006,23.91818181818182,0,0.0,canicule-aout-2023,aou23
15119001,MASSIAC,45.263333,3.197833,533,11,1,20.1,16.59090909090909,40.2,36.7,25.92727272727273,1,0.09090909090909091,canicule-aout-2023,aou23
15120005,MAURIAC,45.222167,2.293167,674,11,1,20.1,17.736363636363635,36.4,31.154545454545453,24.44545454545454,1,0.09090909090909091,canicule-aout-2023,aou23
15122002,MAURS,44.734167,2.166,480,11,6,23.7,20.49090909090909,39.3,34.25454545454546,27.07272727272728,6,0.5454545454545454,canicule-aout-2023,aou23
15138001,MURAT,45.1095,2.862167,904,11,0,17.3,14.545454545454549,36.1,32.2,22.90909090909091,0,0.0,canicule-aout-2023,aou23
15162003,RIOM-MONTAGNES,45.280167,2.664667,837,11,0,18.8,16.427272727272726,35.8,31.127272727272725,23.572727272727278,0,0.0,canicule-aout-2023,aou23
15187006,ST FLOUR,45.024333,3.067333,909,11,0,17.6,15.454545454545457,36.6,33.02727272727273,23.71818181818181,0,0.0,canicule-aout-2023,aou23
15191001,ST ILLIDE,45.064,2.303833,635,11,1,21.2,17.818181818181817,37.2,32.07272727272727,24.87272727272727,1,0.09090909090909091,canicule-aout-2023,aou23
15196001,ST MAMET,44.858833,2.310667,740,11,6,23.9,20.118181818181817,37.4,32.345454545454544,25.7,6,0.5454545454545454,canicule-aout-2023,aou23
15207002,ST- PONCY_SAPC,45.178333,3.174167,805,11,0,19.4,14.78181818181818,38.1,34.58181818181818,23.96363636363636,0,0.0,canicule-aout-2023,aou23
15226001,SENEZERGUES,44.704,2.428167,530,11,3,22.7,19.55454545454545,39.6,35.06363636363637,26.44545454545454,3,0.2727272727272727,canicule-aout-2023,aou23
15235002,LES TERNES,44.992833,3.001833,1007,11,0,16.0,13.29090909090909,35.6,31.545454545454547,22.318181818181817,0,0.0,canicule-aout-2023,aou23
16028001,BARBEZIEUX,45.464333,-0.170167,81,11,5,24.6,19.48181818181818,40.6,35.263636363636365,26.6,5,0.45454545454545453,canicule-aout-2023,aou23
16078001,ANGOULEME - BRIE - CHAMPNIERS,45.728,0.220667,124,11,7,25.4,20.23636363636364,39.0,33.445454545454545,26.71818181818181,7,0.6363636363636364,canicule-aout-2023,aou23
16089001,COGNAC,45.665,-0.315833,30,11,7,25.0,20.21818181818182,39.0,33.74545454545455,26.59090909090909,7,0.6363636363636364,canicule-aout-2023,aou23
16113001,LA COURONNE,45.627833,0.099833,58,11,6,23.0,19.25454545454545,39.5,34.345454545454544,26.44545454545454,6,0.5454545454545454,canicule-aout-2023,aou23
16193001,LOUZAC ST ANDRE,45.735833,-0.381833,51,11,5,24.3,19.8,38.3,33.33636363636364,25.96363636363636,5,0.45454545454545453,canicule-aout-2023,aou23
16225001,MONTEMBOEUF,45.787167,0.543,247,11,6,24.4,20.354545454545452,37.7,32.00909090909091,25.79090909090909,6,0.5454545454545454,canicule-aout-2023,aou23
16256001,PASSIRAC,45.334,-0.078667,114,11,4,22.9,19.045454545454547,39.4,33.28181818181818,25.572727272727278,4,0.36363636363636365,canicule-aout-2023,aou23
16279001,RIOUX MARTIN,45.262,0.003333,81,11,7,22.4,19.56363636363637,39.1,33.47272727272727,26.172727272727272,7,0.6363636363636364,canicule-aout-2023,aou23
16363001,SAULGOND_SAPC,45.956333,0.781667,228,11,3,23.1,19.163636363636364,37.5,31.881818181818183,25.181818181818183,3,0.2727272727272727,canicule-aout-2023,aou23
16366001,SEGONZAC_SAPC,45.6145,-0.2235,62,11,6,26.2,20.081818181818186,38.4,33.39090909090909,26.20909090909091,6,0.5454545454545454,canicule-aout-2023,aou23
16390001,TUSSON,45.949,0.062167,88,11,4,22.5,18.527272727272727,38.7,33.82727272727272,26.00909090909091,4,0.36363636363636365,canicule-aout-2023,aou23
16403001,LE VIEUX CERIER_SAPC,45.9675,0.442,162,11,2,22.5,18.736363636363635,38.4,32.772727272727266,25.43636363636364,2,0.18181818181818182,canicule-aout-2023,aou23
17093002,CHATEAU D'OLERON,45.862167,-1.204333,3,11,7,23.5,20.40909090909091,35.7,29.272727272727263,24.03636363636364,7,0.6363636363636364,canicule-aout-2023,aou23
17111001,CLION,45.476833,-0.510333,35,11,2,22.9,18.51818181818182,38.9,33.71818181818182,25.272727272727277,2,0.18181818181818182,canicule-aout-2023,aou23
17218001,MARANS,46.316333,-1.012167,2,11,3,22.7,18.545454545454547,36.3,30.818181818181817,24.181818181818183,3,0.2727272727272727,canicule-aout-2023,aou23
17224001,MATHA,45.858667,-0.319667,38,11,5,23.3,19.11818181818182,39.0,33.227272727272734,25.772727272727277,5,0.45454545454545453,canicule-aout-2023,aou23
17243002,MONTLIEU_SAPC,45.220167,-0.291833,89,11,2,25.0,19.19090909090909,39.1,33.345454545454544,25.663636363636364,2,0.18181818181818182,canicule-aout-2023,aou23
17248001,MORTAGNE-SUR-GIRONDE_SAPC,45.477667,-0.789833,37,11,7,26.4,20.69090909090909,40.1,32.56363636363636,25.43636363636364,7,0.6363636363636364,canicule-aout-2023,aou23
17268002,NUAILLE SUR BOUTONNE,46.019833,-0.406667,36,11,3,22.8,18.454545454545453,39.1,32.93636363636364,25.41818181818182,3,0.2727272727272727,canicule-aout-2023,aou23
17300009,LA ROCHELLE-ILE DE RE,46.178,-1.193167,20,11,5,23.1,19.89090909090909,36.9,28.83636363636364,23.690909090909088,5,0.45454545454545453,canicule-aout-2023,aou23
17306004,ROYAN-MEDIS,45.633,-0.974667,12,11,5,24.0,19.62727272727273,37.9,31.245454545454542,24.618181818181814,5,0.45454545454545453,canicule-aout-2023,aou23
17308001,ST AGNANT,45.888,-0.984667,18,11,4,24.2,19.58181818181818,37.2,30.563636363636363,24.327272727272728,4,0.36363636363636365,canicule-aout-2023,aou23
17318001,SAINT-CLEMENT DES BALEINES,46.243,-1.561667,10,11,5,22.1,20.08181818181818,35.9,27.13636363636363,22.8,5,0.45454545454545453,canicule-aout-2023,aou23
17323001,CHASSIRON,46.046833,-1.411667,11,11,8,23.4,20.700000000000003,33.3,25.73636363636364,22.709090909090907,8,0.7272727272727273,canicule-aout-2023,aou23
17339002,ST GERMAIN DE LUSIGNAN,45.458333,-0.409667,71,11,5,25.4,19.51818181818182,38.5,33.145454545454555,25.63636363636363,5,0.45454545454545453,canicule-aout-2023,aou23
17353001,ST-LAURENT PREE-INRAE,45.988333,-1.027,3,11,4,22.1,18.863636363636363,37.9,29.59090909090909,23.7,4,0.36363636363636365,canicule-aout-2023,aou23
17415003,SAINTES,45.761167,-0.652,38,11,4,23.5,19.027272727272727,38.9,33.03636363636363,25.081818181818186,4,0.36363636363636365,canicule-aout-2023,aou23
17477001,VILLIERS_SAPC,45.9875,-0.152,106,11,5,22.9,18.94545454545455,38.4,32.90909090909091,25.75454545454545,5,0.45454545454545453,canicule-aout-2023,aou23
18003003,LES AIX-D'ANG.,47.209667,2.552333,195,11,6,22.9,20.41818181818182,36.1,31.50909090909091,25.372727272727275,6,0.5454545454545454,canicule-aout-2023,aou23
18015003,AUBIGNY-SUR-NERE,47.4995,2.427333,176,11,1,20.0,18.30909090909091,34.2,30.30909090909091,23.609090909090916,1,0.09090909090909091,canicule-aout-2023,aou23
18033001,BOURGES,47.059167,2.359833,161,11,6,22.5,20.4,36.1,31.9,25.7,6,0.5454545454545454,canicule-aout-2023,aou23
18036001,BRINAY,47.166667,2.081,131,11,3,21.8,19.4,36.4,31.84545454545454,25.0,3,0.2727272727272727,canicule-aout-2023,aou23
18037001,BRINON,47.5645,2.262333,133,11,0,19.0,17.40909090909091,34.8,31.10909090909091,23.072727272727267,0,0.0,canicule-aout-2023,aou23
18047001,CHAPELLE-D'ANG_SAPC,47.373833,2.426667,190,11,1,21.4,17.772727272727273,35.1,30.90909090909091,23.43636363636364,1,0.09090909090909091,canicule-aout-2023,aou23
18057003,CHATEAUMEILLANT,46.564,2.2175,243,11,1,21.4,17.463636363636365,39.4,33.71818181818181,24.99090909090909,1,0.09090909090909091,canicule-aout-2023,aou23
18087001,DUN,46.878333,2.566167,160,11,3,21.8,19.09090909090909,37.7,33.4,25.681818181818187,3,0.2727272727272727,canicule-aout-2023,aou23
18089001,EPINEUIL,46.563333,2.519833,228,11,3,21.6,19.06363636363637,38.3,33.28181818181818,25.563636363636363,3,0.2727272727272727,canicule-aout-2023,aou23
18092001,AVORD,47.052167,2.642167,175,11,7,22.6,20.48181818181818,36.5,32.36363636363637,25.83636363636364,7,0.6363636363636364,canicule-aout-2023,aou23
18109002,HENRICHEMONT,47.285833,2.579167,377,11,6,21.7,19.627272727272725,33.4,29.4,23.645454545454548,6,0.5454545454545454,canicule-aout-2023,aou23
18125004,LERE,47.457833,2.893167,139,11,1,21.3,18.11818181818182,36.3,31.309090909090912,24.08181818181818,1,0.09090909090909091,canicule-aout-2023,aou23
18172003,ORVAL RAD,46.731,2.467333,165,11,5,22.5,19.581818181818186,38.0,33.263636363636365,25.93636363636364,5,0.45454545454545453,canicule-aout-2023,aou23
18175003,OUROUER,46.925333,2.803333,221,11,7,23.4,20.17272727272728,36.8,32.43636363636364,25.85454545454546,7,0.6363636363636364,canicule-aout-2023,aou23
18187004,PREVERANGES,46.425333,2.2365,462,11,5,22.3,19.181818181818183,35.5,30.49090909090909,24.472727272727276,5,0.45454545454545453,canicule-aout-2023,aou23
18207003,ST-FLORENT/CHER,46.989333,2.248667,146,11,3,21.9,19.33636363636364,38.6,33.72727272727273,25.709090909090904,3,0.2727272727272727,canicule-aout-2023,aou23
18223003,ST-MARTIN-D'A.,47.200667,2.416833,172,11,5,21.4,19.681818181818183,36.1,31.645454545454548,24.727272727272727,5,0.45454545454545453,canicule-aout-2023,aou23
18231001,ST-PIERRE,46.729,2.631667,174,11,0,19.6,18.536363636363635,37.9,33.099999999999994,25.072727272727278,0,0.0,canicule-aout-2023,aou23
18242001,SANCOINS,46.831333,2.9265,203,11,6,23.1,20.10909090909091,37.8,33.96363636363636,26.3,6,0.5454545454545454,canicule-aout-2023,aou23
18279001,VIERZON - VEVES,47.219167,2.0135,98,11,1,20.6,18.227272727272727,36.0,31.672727272727272,24.24545454545455,1,0.09090909090909091,canicule-aout-2023,aou23
19010001,ARGENTAT,45.101333,1.9375,190,11,0,19.9,17.872727272727275,40.8,34.82727272727273,25.227272727272727,0,0.0,canicule-aout-2023,aou23
19016001,BAR,45.3445,1.823833,269,11,1,20.1,17.40909090909091,34.0,30.08181818181818,22.318181818181817,1,0.09090909090909091,canicule-aout-2023,aou23
19031008,BRIVE,45.146667,1.473333,115,11,5,21.6,19.71818181818182,39.9,33.82727272727273,26.41818181818181,5,0.45454545454545453,canicule-aout-2023,aou23
19033001,BUGEAT,45.602667,1.930333,694,11,0,16.3,14.82727272727273,34.6,30.063636363636363,22.10909090909091,0,0.0,canicule-aout-2023,aou23
19034001,CAMPS,44.983667,1.988333,519,11,0,19.3,17.218181818181822,37.6,31.981818181818184,24.00909090909091,0,0.0,canicule-aout-2023,aou23
19073006,EGLETONS,45.398833,2.059167,610,11,0,19.0,16.990909090909092,35.8,31.072727272727278,23.85454545454545,0,0.0,canicule-aout-2023,aou23
19121002,LUBERSAC,45.410333,1.411167,390,11,2,21.4,18.33636363636364,36.3,31.427272727272733,23.96363636363636,2,0.18181818181818182,canicule-aout-2023,aou23
19125001,MARCILLAC,45.2835,2.039833,598,11,2,21.2,17.845454545454544,36.2,31.154545454545453,24.14545454545454,2,0.18181818181818182,canicule-aout-2023,aou23
19136002,MEYMAC,45.534333,2.154333,670,11,0,17.5,15.763636363636362,35.9,31.554545454545448,22.85454545454545,0,0.0,canicule-aout-2023,aou23
19139001,MILLEVACHES,45.642667,2.0955,915,11,2,22.3,17.599999999999998,33.4,28.99090909090909,22.91818181818182,2,0.18181818181818182,canicule-aout-2023,aou23
19147001,BRIVE-SOUILLAC,45.036333,1.491667,295,11,5,22.2,19.418181818181814,39.9,33.3,26.01818181818181,5,0.45454545454545453,canicule-aout-2023,aou23
19164001,PEYRELEVADE,45.701,2.058667,827,11,0,18.5,16.40909090909091,34.0,29.1,22.59090909090909,0,0.0,canicule-aout-2023,aou23
19201001,USSEL-THALAMY,45.537333,2.42,740,11,0,18.5,15.709090909090907,34.8,30.427272727272733,22.818181818181817,0,0.0,canicule-aout-2023,aou23
19237001,ST-PRIVAT,45.139,2.096,585,11,0,18.2,16.109090909090906,37.2,31.91818181818181,23.327272727272728,0,0.0,canicule-aout-2023,aou23
19264001,SOURSAC,45.249,2.212833,528,11,0,19.6,17.39090909090909,37.3,32.7,24.37272727272727,0,0.0,canicule-aout-2023,aou23
19272001,TULLE,45.2425,1.740333,235,11,2,20.5,18.35454545454546,38.7,33.52727272727273,24.93636363636364,2,0.18181818181818182,canicule-aout-2023,aou23
19275001,USSEL-LAMARTINE,45.558833,2.321333,654,11,0,17.4,15.936363636363636,36.4,31.92727272727273,23.21818181818181,0,0.0,canicule-aout-2023,aou23
19276006,UZERCHE,45.396333,1.568167,422,11,6,22.9,20.036363636363635,36.2,31.25454545454545,25.35454545454545,6,0.5454545454545454,canicule-aout-2023,aou23
19288004,VOUTEZAC,45.279833,1.416,124,11,1,20.1,18.21818181818181,38.9,33.654545454545456,25.036363636363635,1,0.09090909090909091,canicule-aout-2023,aou23
20004002,AJACCIO,41.918,8.792667,5,11,4,20.6,19.40909090909091,32.2,31.145454545454548,25.845454545454547,4,0.36363636363636365,canicule-aout-2023,aou23
20004003,AJACCIO-PARATA,41.908333,8.618167,124,11,11,25.6,23.645454545454548,34.5,31.309090909090912,27.281818181818185,11,1.0,canicule-aout-2023,aou23
20004014,AJACCIO-MILELLI_SAPC,41.9385,8.720833,86,11,8,21.6,20.963636363636365,37.1,36.08181818181818,27.55454545454546,8,0.7272727272727273,canicule-aout-2023,aou23
20007402,SPONDE-NIVOSE,42.324333,8.881667,1971,11,0,18.0,16.28181818181818,23.9,22.37272727272727,18.98181818181818,0,0.0,canicule-aout-2023,aou23
20023005,ASCO_SAPC,42.403833,8.922667,1400,11,0,18.2,16.472727272727273,30.9,29.60909090909091,22.363636363636363,0,0.0,canicule-aout-2023,aou23
20029003,BARBAGGIO_SAPC,42.679833,9.389333,572,11,11,25.3,22.55454545454546,33.6,31.13636363636364,26.67272727272728,11,1.0,canicule-aout-2023,aou23
20033015,BASTIA_SAPC,42.704333,9.444833,26,11,11,26.4,23.518181818181816,36.6,33.96363636363636,28.454545454545453,11,1.0,canicule-aout-2023,aou23
20040001,BOCOGNANO-GARE,42.080167,9.0525,660,11,11,23.8,22.05454545454545,37.7,36.39090909090909,27.91818181818182,11,1.0,canicule-aout-2023,aou23
20040004,BOCOGNANO,42.104167,9.103333,1019,11,9,22.6,21.05454545454545,33.4,31.76363636363636,25.4,9,0.8181818181818182,canicule-aout-2023,aou23
20041001,CAP PERTUSATO,41.374833,9.178333,107,11,11,24.4,23.145454545454548,36.1,32.20909090909092,26.990909090909096,11,1.0,canicule-aout-2023,aou23
20046002,CAGNANO,42.886667,9.4395,278,11,11,29.7,25.44545454545454,35.3,32.59090909090909,28.86363636363636,11,1.0,canicule-aout-2023,aou23
20047006,CALACUCCIA,42.3315,9.0215,811,11,0,17.6,16.66363636363636,35.6,34.14545454545455,25.14545454545454,0,0.0,canicule-aout-2023,aou23
20050001,CALVI,42.5295,8.7915,57,11,6,22.7,21.0,37.6,34.67272727272727,27.672727272727272,6,0.5454545454545454,canicule-aout-2023,aou23
20054002,CAMPILE_SAPC,42.494667,9.353,499,11,10,23.6,21.954545454545453,35.6,32.36363636363637,26.736363636363635,10,0.9090909090909091,canicule-aout-2023,aou23
20083001,CASTIRLA,42.380167,9.134167,376,11,5,22.9,19.66363636363636,40.2,37.9,28.10909090909091,5,0.45454545454545453,canicule-aout-2023,aou23
20092001,CONCA,41.717,9.3485,253,11,11,25.9,23.63636363636364,39.1,35.35454545454545,28.99090909090909,11,1.0,canicule-aout-2023,aou23
20093002,ILE ROUSSE,42.633333,8.9225,140,11,11,26.3,24.75454545454545,35.0,32.08181818181818,27.88181818181818,11,1.0,canicule-aout-2023,aou23
20096008,CORTE,42.2885,9.193167,350,11,0,18.5,15.21818181818182,38.9,36.44545454545455,25.92727272727273,0,0.0,canicule-aout-2023,aou23
20096009,RESTONICA_SAPC,42.229667,9.031333,1372,11,0,19.0,17.836363636363636,29.9,28.772727272727277,22.381818181818183,0,0.0,canicule-aout-2023,aou23
20107001,CAP CORSE,43.003833,9.3595,72,11,11,27.3,24.681818181818187,36.7,33.418181818181814,28.64545454545454,11,1.0,canicule-aout-2023,aou23
20108002,EVISA-ONF,42.263333,8.838667,1030,11,0,18.0,16.19090909090909,33.0,30.763636363636365,22.881818181818183,0,0.0,canicule-aout-2023,aou23
20114002,FIGARI,41.505167,9.103667,20,11,2,23.0,17.50909090909091,38.9,36.12727272727273,27.009090909090904,2,0.18181818181818182,canicule-aout-2023,aou23
20126001,GIUNCAGGIO_SAPC,42.2165,9.369333,685,11,11,25.5,23.6,36.9,34.3,27.85454545454545,11,1.0,canicule-aout-2023,aou23
20135002,ISOLACCIO DI FIUMORBO,41.992333,9.305,198,11,0,19.6,18.272727272727277,37.1,34.0,25.79090909090909,0,0.0,canicule-aout-2023,aou23
20142001,LEVIE,41.7035,9.125833,571,11,0,17.5,16.145454545454548,35.3,33.663636363636364,24.472727272727276,0,0.0,canicule-aout-2023,aou23
20148001,BASTIA,42.540667,9.485167,10,11,10,24.0,21.327272727272728,35.7,33.190909090909095,27.481818181818184,10,0.9090909090909091,canicule-aout-2023,aou23
20154001,MARIGNANA,42.188833,8.655333,515,11,11,26.4,24.872727272727275,34.7,32.190909090909095,28.09090909090909,11,1.0,canicule-aout-2023,aou23
20160001,MOCA-CROCE,41.761667,9.0165,951,11,10,21.9,20.936363636363637,32.3,30.727272727272727,25.781818181818185,10,0.9090909090909091,canicule-aout-2023,aou23
20169007,PONTE-LECCIA,42.472667,9.199833,240,11,0,17.8,16.83636363636364,39.1,37.0,27.2,0,0.0,canicule-aout-2023,aou23
20185003,OLETTA,42.632333,9.3205,75,11,4,21.9,19.33636363636364,38.6,35.54545454545455,27.41818181818182,4,0.36363636363636365,canicule-aout-2023,aou23
20190002,OLMI-CAPPELLA,42.5295,9.0165,844,11,8,22.0,20.7,35.7,33.23636363636364,26.13636363636364,8,0.7272727272727273,canicule-aout-2023,aou23
20209003,PERI_SAPC,42.003167,8.905667,433,11,11,26.0,24.781818181818185,36.5,34.74545454545454,29.172727272727265,11,1.0,canicule-aout-2023,aou23
20211001,PETRETO BICCHISANO,41.785167,8.979167,450,11,11,25.1,24.018181818181816,36.3,34.38181818181818,28.790909090909096,11,1.0,canicule-aout-2023,aou23
20223001,PIETRALBA,42.541,9.172,510,11,11,23.1,21.85454545454545,35.5,33.53636363636363,27.318181818181817,11,1.0,canicule-aout-2023,aou23
20232002,PILA-CANALE,41.8145,8.903667,407,11,11,24.9,24.15454545454546,38.2,36.018181818181816,29.472727272727276,11,1.0,canicule-aout-2023,aou23
20247001,LA CHIAPPA,41.594833,9.363167,57,11,11,26.7,23.61818181818182,34.8,31.727272727272734,27.563636363636363,11,1.0,canicule-aout-2023,aou23
20249003,PROPRIANO,41.678167,8.915,34,11,2,20.9,19.40909090909091,36.4,32.66363636363636,25.92727272727273,2,0.18181818181818182,canicule-aout-2023,aou23
20254006,QUENZA,41.777667,9.142833,932,11,1,20.1,18.21818181818182,36.1,34.92727272727273,25.59090909090909,1,0.09090909090909091,canicule-aout-2023,aou23
20258001,RENNO,42.190167,8.807167,755,11,0,19.1,15.572727272727274,33.6,32.18181818181819,23.92727272727273,0,0.0,canicule-aout-2023,aou23
20264002,RUSIO_SAPC,42.364167,9.2645,860,11,11,23.8,21.972727272727276,34.3,32.409090909090914,26.7,11,1.0,canicule-aout-2023,aou23
20268001,SAMPOLO,41.943,9.123,837,11,11,23.2,22.22727272727273,35.1,33.38181818181818,26.83636363636364,11,1.0,canicule-aout-2023,aou23
20270001,SARI D'ORCINO,42.0785,8.802333,407,11,11,25.1,23.818181818181817,35.7,33.39090909090909,28.227272727272727,11,1.0,canicule-aout-2023,aou23
20272001,SARTENE-CIMETIERE,41.620167,8.962167,272,11,11,25.7,24.654545454545453,38.1,36.44545454545455,29.590909090909097,11,1.0,canicule-aout-2023,aou23
20272004,SARTENE,41.652333,8.979333,62,11,0,19.9,18.26363636363636,38.1,35.018181818181816,26.8,0,0.0,canicule-aout-2023,aou23
20273001,SCATA,42.429333,9.412167,185,11,0,19.9,18.15454545454546,38.5,35.23636363636364,25.97272727272728,0,0.0,canicule-aout-2023,aou23
20281001,CAP SAGRO,42.798333,9.488667,111,11,11,28.8,25.454545454545453,35.2,31.745454545454542,28.49090909090909,11,1.0,canicule-aout-2023,aou23
20303002,ALISTRO,42.259667,9.5415,65,11,11,26.4,24.227272727272727,37.4,33.690909090909095,28.772727272727277,11,1.0,canicule-aout-2023,aou23
20312001,SANTA MARIA SICHE,41.879167,8.989167,541,11,11,23.7,22.645454545454545,37.3,35.809090909090905,28.818181818181817,11,1.0,canicule-aout-2023,aou23
20314006,SANTO PIETRO DI TENDA,42.635833,9.200667,484,11,6,22.8,20.50909090909091,35.8,33.89090909090909,27.290909090909096,6,0.5454545454545454,canicule-aout-2023,aou23
20326001,TOLLA_SAPC,41.9635,8.959167,698,11,11,23.2,21.536363636363635,35.6,33.83636363636364,27.15454545454545,11,1.0,canicule-aout-2023,aou23
20341400,MANICCIA-NIVOSE,42.208333,9.0485,2379,11,0,15.2,13.890909090909089,20.9,19.05454545454545,16.045454545454547,0,0.0,canicule-aout-2023,aou23
20342001,SOLENZARA,41.921833,9.400833,12,11,11,25.8,23.209090909090914,34.6,32.50000000000001,28.163636363636364,11,1.0,canicule-aout-2023,aou23
20354008,VIVARIO_SAPC,42.152667,9.149167,773,11,0,14.6,13.518181818181818,35.0,33.28181818181818,22.445454545454545,0,0.0,canicule-aout-2023,aou23
20362005,ZONZA,41.747167,9.172,808,11,11,24.6,23.59090909090909,33.9,32.51818181818182,,11,1.0,canicule-aout-2023,aou23
21056001,BEIRE LE CHATEL,47.413833,5.208333,250,11,3,20.9,18.736363636363635,37.8,33.23636363636364,25.018181818181816,3,0.2727272727272727,canicule-aout-2023,aou23
21065001,BESSEY,47.086,4.743167,593,11,5,23.1,19.43636363636364,34.8,30.12727272727273,24.2,5,0.45454545454545453,canicule-aout-2023,aou23
21116002,BURE LES TEMPLIERS_SAPC,47.7195,4.948167,461,11,1,21.4,18.154545454545453,33.4,29.054545454545448,23.07272727272728,1,0.09090909090909091,canicule-aout-2023,aou23
21131001,PAGNY-LE-CHATEAU,47.043167,5.190667,182,11,4,21.2,18.818181818181817,37.6,33.09090909090909,25.154545454545453,4,0.36363636363636365,canicule-aout-2023,aou23
21154001,CHATILLON/SEINE,47.849333,4.581333,262,11,1,21.2,17.70909090909091,36.0,30.6,23.35454545454545,1,0.09090909090909091,canicule-aout-2023,aou23
21231001,DIJON,47.319167,5.014333,240,11,4,21.4,18.99090909090909,38.1,33.509090909090915,25.25454545454545,4,0.36363636363636365,canicule-aout-2023,aou23
21231007,DIJON TOISON,47.358333,5.043333,270,11,4,22.5,19.454545454545453,38.9,33.42727272727273,,4,0.36363636363636365,canicule-aout-2023,aou23
21310001,GROSBOIS-EN-MONTAGNE,47.319333,4.596333,376,11,1,20.2,17.718181818181815,37.0,32.236363636363635,23.85454545454545,1,0.09090909090909091,canicule-aout-2023,aou23
21326001,JOURS LES BAIGNEUX_SAPC,47.636,4.596333,392,11,1,21.1,17.800000000000004,34.8,30.327272727272728,23.35454545454546,1,0.09090909090909091,canicule-aout-2023,aou23
21386001,MARIGNY LE CAHOUET,47.4475,4.4335,335,11,1,22.8,18.61818181818182,36.4,31.154545454545453,24.33636363636364,1,0.09090909090909091,canicule-aout-2023,aou23
21395001,MASSINGY-LES-VITTEAUX_SAPC,47.388667,4.586333,509,11,2,23.3,19.04545454545455,34.1,29.89090909090909,23.654545454545453,2,0.18181818181818182,canicule-aout-2023,aou23
21425001,MONTBARD_SAPC,47.6285,4.3305,209,11,1,20.1,17.918181818181818,36.2,32.054545454545455,23.954545454545453,1,0.09090909090909091,canicule-aout-2023,aou23
21454001,NICEY,47.860333,4.315333,209,11,1,20.3,17.60909090909091,36.2,31.66363636363636,23.61818181818182,1,0.09090909090909091,canicule-aout-2023,aou23
21473001,DIJON-LONGVIC,47.267833,5.088333,219,11,5,22.1,19.80909090909091,37.3,33.08181818181819,25.7,5,0.45454545454545453,canicule-aout-2023,aou23
21501003,POUILLY EN AUX_SAPC,47.251333,4.561,412,11,3,21.8,18.881818181818183,36.6,31.372727272727275,24.42727272727273,3,0.2727272727272727,canicule-aout-2023,aou23
21503001,POUILLY SUR VINGEANNE,47.542667,5.417667,239,11,1,20.0,18.05454545454546,36.9,32.345454545454544,24.44545454545454,1,0.09090909090909091,canicule-aout-2023,aou23
21519001,RECEY SUR OURCE,47.782167,4.864167,326,11,1,20.0,16.990909090909092,35.0,31.281818181818185,23.21818181818181,1,0.09090909090909091,canicule-aout-2023,aou23
21527001,LA ROCHEPOT,46.9525,4.674,417,11,1,20.1,17.700000000000003,35.7,31.43636363636364,23.90909090909091,1,0.09090909090909091,canicule-aout-2023,aou23
21561003,ST-MARTIN-DU-M,47.4005,4.781167,578,11,1,21.3,18.236363636363635,34.1,29.500000000000004,23.145454545454548,1,0.09090909090909091,canicule-aout-2023,aou23
21564001,ST NIC. CITEAUX,47.122167,5.072167,203,11,4,21.5,18.127272727272725,38.0,33.872727272727275,25.227272727272727,4,0.36363636363636365,canicule-aout-2023,aou23
21567001,ARNAY_SAPC,47.124833,4.498667,396,11,0,19.8,17.599999999999998,36.7,31.87272727272727,23.91818181818181,0,0.0,canicule-aout-2023,aou23
21584001,SAULIEU,47.264167,4.215,586,11,3,22.1,18.536363636363635,35.0,29.609090909090902,23.318181818181817,3,0.2727272727272727,canicule-aout-2023,aou23
21603001,SEMUR EN AUXOIS_SAPC,47.482,4.34,314,11,1,21.8,17.89090909090909,36.4,31.09090909090909,24.018181818181816,1,0.09090909090909091,canicule-aout-2023,aou23
21633002,THOREY SOUS CHARNY_SAPC,47.319167,4.4395,421,11,1,21.5,18.5,36.0,30.60909090909091,23.827272727272728,1,0.09090909090909091,canicule-aout-2023,aou23
21638002,TIL-CHATEL_SAPC,47.544833,5.2075,283,11,3,21.2,18.55454545454546,36.0,31.55454545454545,24.4,3,0.2727272727272727,canicule-aout-2023,aou23
22005003,BELLE-ISLE-EN-TERRE,48.55,-3.3875,158,11,0,16.1,13.018181818181818,28.1,24.045454545454547,17.78181818181818,0,0.0,canicule-aout-2023,aou23
22016001,ILE-DE-BREHAT,48.855167,-3.0045,25,11,0,17.8,16.027272727272727,25.8,22.081818181818186,18.56363636363637,0,0.0,canicule-aout-2023,aou23
22032002,CAULNES-EDF,48.298333,-2.142167,75,11,0,17.7,13.58181818181818,30.9,27.272727272727263,19.55454545454545,0,0.0,canicule-aout-2023,aou23
22033001,CAUREL-EDF,48.207667,-3.051333,150,11,0,17.9,14.38181818181818,28.0,25.26363636363636,19.0,0,0.0,canicule-aout-2023,aou23
22046003,COLLINEE-EDF,48.294833,-2.499333,201,11,0,17.2,14.490909090909092,27.5,23.73636363636364,18.5,0,0.0,canicule-aout-2023,aou23
22092001,KERPERT,48.404,-3.147667,281,11,0,16.8,13.518181818181818,27.0,23.63636363636364,17.481818181818184,0,0.0,canicule-aout-2023,aou23
22108001,LANLEFF,48.691167,-3.0405,78,11,0,16.7,12.936363636363636,27.8,23.672727272727272,17.654545454545453,0,0.0,canicule-aout-2023,aou23
22113006,LANNION_AERO,48.755333,-3.468667,85,11,0,17.2,13.21818181818182,26.3,23.118181818181817,17.72727272727273,0,0.0,canicule-aout-2023,aou23
22114003,LANRELAS-EDF,48.248833,-2.2915,112,11,0,17.8,14.70909090909091,30.2,26.227272727272723,19.645454545454548,0,0.0,canicule-aout-2023,aou23
22138003,MAEL-PESTIVIEN-EDF,48.418667,-3.303167,257,11,0,16.5,12.945454545454544,26.7,23.472727272727276,17.445454545454545,0,0.0,canicule-aout-2023,aou23
22147006,MERDRIGNAC,48.188,-2.4205,145,11,0,17.9,14.67272727272727,30.1,26.654545454545453,19.57272727272727,0,0.0,canicule-aout-2023,aou23
22168001,PLOUMANAC'H,48.825833,-3.473167,55,11,0,17.5,15.48181818181818,25.4,22.018181818181816,18.09090909090909,0,0.0,canicule-aout-2023,aou23
22219003,PLOUGUENAST,48.265833,-2.748333,235,11,0,16.5,13.8,28.0,24.40909090909091,18.13636363636364,0,0.0,canicule-aout-2023,aou23
22243001,PLUSQUELLEC,48.404167,-3.522333,214,11,0,17.0,13.609090909090911,27.5,24.109090909090916,17.863636363636363,0,0.0,canicule-aout-2023,aou23
22247002,POMMERIT-JAUDY,48.742,-3.251,55,11,0,17.6,14.518181818181818,27.3,24.627272727272725,18.99090909090909,0,0.0,canicule-aout-2023,aou23
22261002,QUINTENIC,48.519167,-2.42,71,11,0,16.8,13.727272727272728,27.3,24.5,18.581818181818186,0,0.0,canicule-aout-2023,aou23
22266001,ROSTRENEN,48.226667,-3.295333,236,11,0,16.8,13.536363636363632,27.6,24.8,18.02727272727273,0,0.0,canicule-aout-2023,aou23
22282001,SAINT-CAST-LE-G,48.6445,-2.247,35,11,0,18.2,16.509090909090908,27.0,22.25454545454545,18.85454545454545,0,0.0,canicule-aout-2023,aou23
22294003,ST-GILLES-PLIGEAUX-EDF,48.384333,-3.091333,266,11,0,16.7,13.654545454545454,26.6,23.39090909090909,17.700000000000003,0,0.0,canicule-aout-2023,aou23
22372001,ST BRIEUC,48.5365,-2.853167,135,11,0,17.0,13.9,26.3,22.945454545454545,17.918181818181818,0,0.0,canicule-aout-2023,aou23
23008004,AUBUSSON_SAPC,45.957833,2.187833,486,11,0,17.3,15.481818181818182,37.9,31.92727272727273,22.75454545454545,0,0.0,canicule-aout-2023,aou23
23013001,AUZANCES_SAPC,46.0215,2.489333,564,11,0,17.4,15.990909090909092,35.8,30.4,23.072727272727267,0,0.0,canicule-aout-2023,aou23
23021001,BENEVENT_SAPC,46.121,1.6285,460,11,4,23.0,18.6,35.6,30.309090909090912,23.88181818181818,4,0.36363636363636365,canicule-aout-2023,aou23
23025001,BONNAT,46.315333,1.916333,382,11,2,20.0,18.20909090909091,36.7,31.71818181818181,24.4,2,0.18181818181818182,canicule-aout-2023,aou23
23030004,BOURGANEUF,45.942333,1.725833,513,11,2,22.2,18.6,35.0,29.509090909090904,23.727272727272727,2,0.18181818181818182,canicule-aout-2023,aou23
23031002,BOUSSAC_SAPC,46.343333,2.228333,380,11,0,19.0,16.754545454545454,36.6,31.35454545454546,23.545454545454547,0,0.0,canicule-aout-2023,aou23
23046001,CHAMBONCHARD,46.176,2.553,320,11,0,17.8,16.20909090909091,39.6,32.96363636363637,23.527272727272727,0,0.0,canicule-aout-2023,aou23
23067001,LA COURTINE,45.702667,2.263667,772,11,0,17.8,15.42727272727273,34.8,30.03636363636364,22.245454545454542,0,0.0,canicule-aout-2023,aou23
23069002,CROCQ,45.867167,2.362167,710,11,0,19.1,16.745454545454546,36.1,30.24545454545455,23.181818181818183,0,0.0,canicule-aout-2023,aou23
23075001,DUN LE PALESTEL,46.317833,1.666833,365,11,3,20.9,18.59090909090909,35.8,30.954545454545453,24.472727272727276,3,0.2727272727272727,canicule-aout-2023,aou23
23079002,FELLETIN,45.880167,2.186,635,11,1,21.6,17.518181818181816,36.2,30.24545454545454,23.318181818181817,1,0.09090909090909091,canicule-aout-2023,aou23
23089001,GENOUILLAC,46.352333,1.985,306,11,0,18.9,16.99090909090909,36.0,31.40909090909091,23.73636363636364,0,0.0,canicule-aout-2023,aou23
23090003,GENTIOUX,45.785,1.997333,794,11,0,18.2,16.42727272727273,33.9,28.83636363636364,22.3,0,0.0,canicule-aout-2023,aou23
23113001,LUPERSAT_SAPC,45.9865,2.393167,610,11,0,19.5,16.9,36.5,30.76363636363636,23.53636363636364,0,0.0,canicule-aout-2023,aou23
23155001,PONTARION_SAPC,45.995667,1.852833,455,11,0,18.8,16.55454545454546,35.7,30.727272727272727,23.027272727272727,0,0.0,canicule-aout-2023,aou23
23176001,LA SOUTERRAINE,46.2425,1.451833,370,11,3,22.0,18.5,36.1,30.55454545454546,24.05454545454546,3,0.2727272727272727,canicule-aout-2023,aou23
23206002,GUERET-ST LAURENT,46.1755,1.950333,365,11,1,20.1,17.05454545454546,36.9,31.36363636363636,23.481818181818184,1,0.09090909090909091,canicule-aout-2023,aou23
23209001,SAINT-LOUP_SAPC,46.140667,2.2645,440,11,1,20.0,17.0,37.7,31.87272727272727,23.981818181818188,1,0.09090909090909091,canicule-aout-2023,aou23
24035003,BELVES,44.782667,0.956,238,11,5,24.8,20.372727272727275,39.1,33.03636363636363,26.272727272727277,5,0.45454545454545453,canicule-aout-2023,aou23
24037005,BERGERAC,44.822833,0.524167,49,11,4,21.6,19.38181818181818,40.2,34.154545454545456,26.05454545454546,4,0.36363636363636365,canicule-aout-2023,aou23
24064001,BRANTOME,45.356833,0.645833,129,11,4,20.8,18.763636363636365,39.6,33.77272727272728,25.645454545454548,4,0.36363636363636365,canicule-aout-2023,aou23
24138004,COULOUNIEIX,45.1595,0.676667,217,11,7,22.8,20.072727272727278,39.0,32.50909090909091,25.954545454545453,7,0.6363636363636364,canicule-aout-2023,aou23
24152001,DOMME,44.798333,1.219667,165,11,4,21.4,19.518181818181823,40.0,33.71818181818182,26.20909090909091,4,0.36363636363636365,canicule-aout-2023,aou23
24172001,LES EYZIES DE TAYAC,44.954667,1.021,112,11,2,20.4,18.56363636363637,39.1,33.28181818181818,24.827272727272728,2,0.18181818181818182,canicule-aout-2023,aou23
24226001,LAMOTHE MONTRAV,44.837333,0.041167,9,11,5,23.0,19.636363636363637,38.8,33.14545454545455,25.59090909090909,5,0.45454545454545453,canicule-aout-2023,aou23
24280001,MONPAZIER,44.684,0.891667,199,11,4,23.9,19.645454545454545,42.5,35.654545454545456,26.663636363636364,4,0.36363636363636365,canicule-aout-2023,aou23
24291001,MONTIGNAC,45.052167,1.147333,77,11,3,20.7,18.94545454545454,40.6,34.53636363636364,25.727272727272727,3,0.2727272727272727,canicule-aout-2023,aou23
24452001,ST MARTIAL VIVEYROLS,45.357833,0.319333,166,11,7,24.3,20.345454545454547,40.6,34.09090909090909,26.55454545454545,7,0.6363636363636364,canicule-aout-2023,aou23
24453001,ST MARTIN  DE FRESSENGEAS,45.4755,0.848333,277,11,5,21.4,19.1,37.3,31.47272727272728,24.8,5,0.45454545454545453,canicule-aout-2023,aou23
24516002,SALIGNAC-EYVIGUES,44.936667,1.364667,276,11,4,22.6,19.76363636363636,38.7,32.918181818181814,26.33636363636364,4,0.36363636363636365,canicule-aout-2023,aou23
24547002,TERRASSON-LAVILLEDIEU,45.1355,1.2925,90,11,4,21.8,19.672727272727272,40.0,34.081818181818186,26.13636363636364,4,0.36363636363636365,canicule-aout-2023,aou23
24550003,THENON,45.112667,1.0385,265,11,4,24.4,19.9,38.5,32.60909090909091,25.509090909090904,4,0.36363636363636365,canicule-aout-2023,aou23
25021001,ARC-ET-SENANS,47.0315,5.782,235,11,0,19.6,18.154545454545453,38.5,32.53636363636364,25.036363636363635,0,0.0,canicule-aout-2023,aou23
25047001,BAUME-LES-DAMES,47.347167,6.350333,267,11,2,20.0,18.290909090909093,38.4,32.89090909090908,25.045454545454547,2,0.18181818181818182,canicule-aout-2023,aou23
25056001,BESANCON,47.249,5.988833,307,11,4,20.7,19.145454545454548,36.0,31.40909090909091,24.9,4,0.36363636363636365,canicule-aout-2023,aou23
25087002,BRANNE_SAPC,47.378,6.472167,287,11,0,19.5,17.245454545454546,37.7,32.50909090909091,24.3,0,0.0,canicule-aout-2023,aou23
25127001,CHARQUEMONT,47.218833,6.815,884,11,0,18.5,16.336363636363636,35.2,29.94545454545455,22.509090909090915,0,0.0,canicule-aout-2023,aou23
25219002,EPENOY,47.127167,6.366333,752,11,1,20.9,18.672727272727272,35.3,29.072727272727278,23.609090909090916,1,0.09090909090909091,canicule-aout-2023,aou23
25222001,ETALANS_SAPC,47.1525,6.210167,540,11,0,16.9,14.82727272727273,35.8,30.454545454545453,22.55454545454546,0,0.0,canicule-aout-2023,aou23
25223002,COULANS,47.023333,6.0205,468,11,0,18.9,16.736363636363635,38.7,32.0,23.87272727272727,0,0.0,canicule-aout-2023,aou23
25254001,LES FOURGS,46.834,6.4365,1140,11,0,15.0,12.263636363636362,32.8,28.49090909090909,19.972727272727276,0,0.0,canicule-aout-2023,aou23
25285001,GRAND'COMBE-CHATELEU_SAPC,47.019167,6.567167,769,11,0,16.2,12.836363636363638,35.6,31.181818181818187,21.50909090909091,0,0.0,canicule-aout-2023,aou23
25320001,LABERGEMENT,46.779667,6.2795,863,11,0,15.7,12.727272727272728,35.5,31.781818181818178,21.327272727272728,0,0.0,canicule-aout-2023,aou23
25334001,LEVIER_SAPC,46.949333,6.124167,713,11,0,17.3,14.727272727272728,34.3,30.527272727272727,22.5,0,0.0,canicule-aout-2023,aou23
25356003,MAICHE,47.243,6.791,825,11,0,16.9,14.372727272727271,34.9,29.481818181818184,21.83636363636364,0,0.0,canicule-aout-2023,aou23
25372001,MEDIERE,47.456,6.601333,302,11,0,19.4,17.563636363636363,37.8,32.93636363636363,24.272727272727277,0,0.0,canicule-aout-2023,aou23
25413001,MOUTHE,46.707,6.2095,940,11,0,15.8,12.172727272727274,34.0,30.181818181818183,20.71818181818182,0,0.0,canicule-aout-2023,aou23
25453001,PIERREFONTAINE,47.216667,6.528833,695,11,0,16.4,13.6,35.9,30.44545454545454,21.99090909090909,0,0.0,canicule-aout-2023,aou23
25462001,PONTARLIER,46.927,6.32,808,11,0,19.6,16.44545454545454,37.0,32.72727272727273,23.91818181818181,0,0.0,canicule-aout-2023,aou23
25494001,LA BOISSAUDE ROCHEJEAN,46.729,6.322833,1222,11,0,17.4,15.272727272727275,31.9,27.845454545454547,21.163636363636364,0,0.0,canicule-aout-2023,aou23
25512001,LE RUSSEY,47.162167,6.7375,891,11,0,17.4,14.872727272727271,34.6,30.209090909090914,22.30909090909091,0,0.0,canicule-aout-2023,aou23
25529002,SANCEY-LE-GRAND,47.3015,6.581667,490,11,0,19.3,17.009090909090908,36.9,31.709090909090904,23.89090909090909,0,0.0,canicule-aout-2023,aou23
26002003,ALBON,45.252333,4.822333,153,11,3,22.3,18.672727272727272,41.2,38.21818181818182,28.409090909090917,3,0.2727272727272727,canicule-aout-2023,aou23
26035001,BEAUFORT-S-GERV,44.778,5.139,379,11,6,23.4,20.38181818181818,40.2,36.68181818181818,28.236363636363635,6,0.5454545454545454,canicule-aout-2023,aou23
26047001,BELLEGARDE-EN-D,44.535167,5.454333,1017,11,4,21.9,18.736363636363635,36.9,32.71818181818182,25.363636363636363,4,0.36363636363636365,canicule-aout-2023,aou23
26050001,BESIGNAN,44.3205,5.317,556,11,3,21.6,18.77272727272727,38.2,35.10909090909091,26.890909090909087,3,0.2727272727272727,canicule-aout-2023,aou23
26056001,BOURDEAUX,44.580167,5.142833,432,11,0,17.0,14.509090909090906,40.8,36.79090909090908,25.35454545454546,0,0.0,canicule-aout-2023,aou23
26059001,BOUVANTE,44.955,5.326667,1071,11,0,17.2,13.854545454545452,33.4,30.727272727272727,,0,0.0,canicule-aout-2023,aou23
26064001,VALENCE-CHABEUI,44.914833,4.971833,163,11,4,22.4,18.754545454545458,40.9,37.95454545454545,28.3,4,0.36363636363636365,canicule-aout-2023,aou23
26074001,CHAPELLE-EN-VERCORS_SAPC,44.9615,5.422167,879,11,1,20.5,16.900000000000002,36.4,33.86363636363637,24.90909090909091,1,0.09090909090909091,canicule-aout-2023,aou23
26113003,DIE,44.767667,5.3435,384,11,0,17.8,14.809090909090912,40.9,37.98181818181818,26.281818181818185,0,0.0,canicule-aout-2023,aou23
26116002,DONZERE,44.429167,4.725333,66,11,4,22.6,18.48181818181818,41.8,38.7909090909091,28.654545454545453,4,0.36363636363636365,canicule-aout-2023,aou23
26124001,ETOILE,44.819,4.8895,145,11,6,22.5,19.581818181818186,39.7,37.17272727272727,28.490909090909096,6,0.5454545454545454,canicule-aout-2023,aou23
26142001,GLANDAGE_SAPC,44.674667,5.615167,1007,11,1,20.3,16.972727272727273,36.6,33.99090909090909,24.70909090909091,1,0.09090909090909091,canicule-aout-2023,aou23
26168001,LUS L CROIX HTE,44.672833,5.710833,1059,11,0,17.7,13.372727272727277,35.7,33.64545454545455,23.13636363636364,0,0.0,canicule-aout-2023,aou23
26179001,MERCUROL,45.0585,4.8835,153,11,6,23.5,19.472727272727276,41.0,38.16363636363637,28.67272727272728,6,0.5454545454545454,canicule-aout-2023,aou23
26182001,MIRABEL-AUX-BAR,44.328667,5.100833,238,11,0,19.1,16.509090909090908,40.0,37.25454545454546,26.70909090909091,0,0.0,canicule-aout-2023,aou23
26189001,MONTAUBAN-S-OUV,44.276,5.478333,689,11,0,18.1,15.6,37.6,34.85454545454546,25.11818181818182,0,0.0,canicule-aout-2023,aou23
26198001,MONTELIMAR,44.581167,4.733,73,11,6,24.9,19.245454545454542,40.1,37.61818181818182,28.281818181818185,6,0.5454545454545454,canicule-aout-2023,aou23
26211001,MONTSEGUR-S-LAU,44.3615,4.860833,146,11,4,22.1,19.045454545454547,42.2,38.91818181818182,28.9,4,0.36363636363636365,canicule-aout-2023,aou23
26258001,PUY-ST-MARTIN,44.618167,4.976833,211,11,6,24.9,20.827272727272728,43.5,38.536363636363646,28.954545454545453,6,0.5454545454545454,canicule-aout-2023,aou23
26273002,ROCHEFORT-SAMSON_SAPC,44.990667,5.165167,368,11,5,21.7,19.42727272727273,38.8,36.11818181818182,27.58181818181818,5,0.45454545454545453,canicule-aout-2023,aou23
26281001,ROMANS_SAPC,45.050167,4.998667,156,11,2,22.7,17.8,40.8,37.690909090909095,27.55454545454545,2,0.18181818181818182,canicule-aout-2023,aou23
26290002,COL DE ROUSSET_SAPC,44.841667,5.421667,1400,11,2,20.5,18.13636363636364,30.1,28.09090909090909,22.772727272727277,2,0.18181818181818182,canicule-aout-2023,aou23
26292002,ST-AUBAN-SUR-OUVEZE,44.294833,5.409833,625,11,0,18.7,15.57272727272727,38.3,35.309090909090905,25.818181818181817,0,0.0,canicule-aout-2023,aou23
26295001,ST-BARTHELEMY-V_SAPC,45.173833,4.9025,203,11,1,20.8,17.236363636363638,42.5,38.43636363636363,27.79090909090909,1,0.09090909090909091,canicule-aout-2023,aou23
26298001,ST-CHRISTOPHE-L_SAPC,45.229333,5.071833,452,11,8,23.6,21.0,37.7,34.43636363636364,27.427272727272733,8,0.7272727272727273,canicule-aout-2023,aou23
26307001,ST-JEAN-EN-ROYA,45.009167,5.2925,308,11,1,20.4,17.62727272727273,39.4,36.16363636363636,26.045454545454547,1,0.09090909090909091,canicule-aout-2023,aou23
26313001,ST-MARCEL-LES-V-INRAE,44.980167,4.931333,190,11,5,24.7,19.454545454545453,39.0,36.845454545454544,28.21818181818181,5,0.45454545454545453,canicule-aout-2023,aou23
26327001,ST ROMAN-DIOIS,44.693833,5.428333,545,11,1,20.1,17.509090909090908,41.6,38.85454545454546,27.4,1,0.09090909090909091,canicule-aout-2023,aou23
26328001,ST SAUVEUR EN DIOIS,44.682667,5.157833,338,11,5,22.0,19.581818181818186,40.3,37.50000000000001,28.12727272727273,5,0.45454545454545453,canicule-aout-2023,aou23
26330001,ST-SORLIN-EN-VA,45.271167,4.930333,237,11,5,22.2,19.290909090909093,39.5,37.11818181818182,27.99090909090909,5,0.45454545454545453,canicule-aout-2023,aou23
26340001,SEDERON,44.202333,5.538833,804,11,0,14.1,11.29090909090909,37.7,34.290909090909096,23.13636363636364,0,0.0,canicule-aout-2023,aou23
26361001,VALDROME,44.505333,5.576667,786,11,0,12.9,10.590909090909092,39.4,35.63636363636363,22.48181818181818,0,0.0,canicule-aout-2023,aou23
26377003,VINSOBRES,44.337333,5.060167,346,11,8,24.2,21.536363636363635,43.0,39.00909090909091,29.50909090909091,8,0.7272727272727273,canicule-aout-2023,aou23
27016001,LES ANDELYS,49.244667,1.412833,16,11,0,19.8,15.863636363636363,31.6,28.309090909090912,21.481818181818184,0,0.0,canicule-aout-2023,aou23
27056003,BERNAY,49.101333,0.559833,166,11,0,18.0,14.809090909090909,30.4,26.809090909090912,20.245454545454542,0,0.0,canicule-aout-2023,aou23
27100001,BOULLEVILLE,49.361,0.392833,122,11,0,19.5,15.28181818181818,29.1,25.53636363636364,19.7,0,0.0,canicule-aout-2023,aou23
27112001,BRETEUIL,48.8375,0.907667,168,11,0,18.5,15.554545454545456,32.1,28.454545454545453,21.354545454545452,0,0.0,canicule-aout-2023,aou23
27306001,GUICHAINVILLE,48.977,1.181667,147,11,0,19.9,16.29090909090909,32.0,28.109090909090916,21.80909090909091,0,0.0,canicule-aout-2023,aou23
27347001,EVREUX-HUEST,49.025,1.221667,138,11,1,20.4,16.363636363636363,31.3,27.61818181818182,21.59090909090909,1,0.09090909090909091,canicule-aout-2023,aou23
27375001,LOUVIERS,49.204167,1.187167,25,11,0,19.8,16.245454545454546,31.7,28.90909090909091,21.91818181818182,0,0.0,canicule-aout-2023,aou23
27422001,MUIDS,49.224167,1.2805,31,11,1,20.3,16.08181818181818,31.2,28.209090909090904,21.60909090909091,1,0.09090909090909091,canicule-aout-2023,aou23
28051002,BONNEVAL,48.203167,1.417,134,11,0,19.8,16.645454545454548,32.5,28.99090909090909,22.5,0,0.0,canicule-aout-2023,aou23
28064002,BU_SAPC,48.8015,1.493167,132,11,2,21.1,16.52727272727273,31.6,28.37272727272727,22.21818181818182,2,0.18181818181818182,canicule-aout-2023,aou23
28070001,CHARTRES,48.4605,1.501167,155,11,2,20.4,17.29090909090909,31.9,28.50909090909091,22.518181818181816,2,0.18181818181818182,canicule-aout-2023,aou23
28078001,CHAPELLE-GUILLAUME_SAPC,48.112,0.905833,197,11,0,19.3,16.363636363636367,32.1,27.963636363636365,21.30909090909091,0,0.0,canicule-aout-2023,aou23
28190002,GUILLONVILLE,48.092833,1.6675,133,11,0,19.0,17.000000000000004,31.7,28.29090909090909,22.263636363636365,0,0.0,canicule-aout-2023,aou23
28195001,HOUX,48.566167,1.620833,107,11,1,20.1,15.990909090909092,33.8,29.518181818181816,22.245454545454542,1,0.09090909090909091,canicule-aout-2023,aou23
28196003,ILLIERS-COMBRAY_SAPC,48.2835,1.253167,170,11,0,19.5,17.03636363636363,32.2,28.90909090909091,22.527272727272727,0,0.0,canicule-aout-2023,aou23
28198001,CHATEAUDUN,48.061333,1.376333,126,11,0,19.8,17.37272727272727,32.9,29.163636363636364,22.73636363636364,0,0.0,canicule-aout-2023,aou23
28206001,LAONS,48.706833,1.173167,171,11,1,20.2,15.3,32.7,28.845454545454547,21.66363636363636,1,0.09090909090909091,canicule-aout-2023,aou23
28214003,LA LOUPE_SAPC,48.481,1.013333,200,11,0,19.9,16.427272727272726,32.2,28.681818181818183,21.99090909090909,0,0.0,canicule-aout-2023,aou23
28239002,MARVILLE_SAPC,48.652667,1.371833,153,11,1,20.6,16.645454545454548,32.0,28.3,22.1,1,0.09090909090909091,canicule-aout-2023,aou23
28280001,NOGENT-LE-ROTROU,48.318667,0.797833,108,11,2,20.2,17.227272727272727,32.3,28.69090909090909,22.7,2,0.18181818181818182,canicule-aout-2023,aou23
28322001,RUEIL,48.712167,0.959333,157,11,0,18.4,14.454545454545457,31.7,28.081818181818186,20.98181818181818,0,0.0,canicule-aout-2023,aou23
28363001,SAINVILLE,48.403833,1.903167,149,11,0,19.8,17.454545454545453,32.0,28.59090909090909,22.445454545454545,0,0.0,canicule-aout-2023,aou23
28373002,SENONCHES,48.558,1.012167,239,11,0,19.4,15.236363636363636,31.5,27.690909090909088,21.072727272727278,0,0.0,canicule-aout-2023,aou23
28380003,SOURS_SAPC,48.406333,1.555167,147,11,1,20.5,17.21818181818182,31.9,28.47272727272728,22.527272727272727,1,0.09090909090909091,canicule-aout-2023,aou23
28386001,THIMERT,48.544167,1.302833,225,11,0,19.8,16.027272727272727,31.4,27.745454545454542,21.527272727272727,0,0.0,canicule-aout-2023,aou23
28406002,EOLE_VIABON,48.214667,1.6755,141,11,1,20.1,17.14545454545454,32.1,28.60909090909091,22.39090909090909,1,0.09090909090909091,canicule-aout-2023,aou23
28407001,VICHERES,48.257833,0.910167,235,11,0,19.8,16.972727272727273,31.8,27.763636363636365,22.027272727272727,0,0.0,canicule-aout-2023,aou23
29018001,BRENNILIS,48.352667,-3.869,220,11,0,16.1,12.545454545454543,26.6,23.363636363636363,17.345454545454544,0,0.0,canicule-aout-2023,aou23
29022001,CAMARET,48.274333,-4.606,40,11,0,17.8,15.618181818181824,27.1,22.1,18.245454545454542,0,0.0,canicule-aout-2023,aou23
29041002,CORAY CHAT EAU,48.066,-3.8255,242,11,0,18.3,14.2,26.9,23.71818181818181,18.090909090909093,0,0.0,canicule-aout-2023,aou23
29075001,BREST-GUIPAVAS,48.453833,-4.391167,92,11,0,16.5,13.236363636363636,26.4,22.809090909090912,17.563636363636363,0,0.0,canicule-aout-2023,aou23
29082001,BATZ,48.746333,-4.011833,32,11,0,17.1,15.67272727272727,23.4,20.99090909090909,17.818181818181817,0,0.0,canicule-aout-2023,aou23
29105800,LANDIVISIAU_DOUBLE,48.525667,-4.147167,109,11,0,16.5,13.854545454545455,25.5,22.463636363636365,17.599999999999998,0,0.0,canicule-aout-2023,aou23
29113001,LANMEUR,48.6625,-3.692667,57,11,0,16.8,12.990909090909092,27.8,23.97272727272728,17.863636363636363,0,0.0,canicule-aout-2023,aou23
29120001,LANVEOC,48.279333,-4.439333,81,11,0,17.8,14.736363636363636,27.5,22.818181818181817,18.200000000000003,0,0.0,canicule-aout-2023,aou23
29155005,OUESSANT-STIFF,48.473333,-5.057,64,11,0,16.4,14.863636363636362,21.7,19.981818181818184,16.94545454545455,0,0.0,canicule-aout-2023,aou23
29163003,PLEYBER-CHRIST SA,48.5,-3.8535,147,11,0,16.1,12.936363636363636,28.9,24.5,17.763636363636365,0,0.0,canicule-aout-2023,aou23
29168001,PTE DU RAZ,48.038833,-4.732,67,11,0,16.6,15.754545454545452,24.0,20.59090909090909,17.663636363636364,0,0.0,canicule-aout-2023,aou23
29170001,PLOMELIN-INRAE,47.946,-4.128,33,11,0,19.5,14.272727272727272,28.0,24.1,18.67272727272728,0,0.0,canicule-aout-2023,aou23
29178001,PLOUDALMEZEAU,48.548,-4.664167,40,11,0,16.5,14.245454545454548,23.9,21.61818181818182,17.563636363636366,0,0.0,canicule-aout-2023,aou23
29179001,PLOUDANIEL-INRAE,48.503833,-4.327667,76,11,0,16.0,13.145454545454548,26.9,22.827272727272728,17.41818181818182,0,0.0,canicule-aout-2023,aou23
29214001,PLOVAN,47.915833,-4.3775,10,11,1,20.1,14.9,28.1,22.59090909090909,18.463636363636365,1,0.09090909090909091,canicule-aout-2023,aou23
29216001,QUIMPER,47.973,-4.160667,82,11,0,19.4,14.172727272727274,27.4,23.781818181818185,18.42727272727273,0,0.0,canicule-aout-2023,aou23
29249002,SAINT-GOAZEC,48.144667,-3.730833,260,11,0,16.7,13.509090909090908,26.6,23.954545454545453,17.709090909090907,0,0.0,canicule-aout-2023,aou23
29263002,ST-SEGAL S A,48.225833,-4.09,89,11,0,18.1,13.809090909090909,28.2,24.5,18.20909090909091,0,0.0,canicule-aout-2023,aou23
29264001,LANDIVISIAU,48.532,-4.151833,109,11,0,16.4,13.272727272727272,25.4,22.327272727272728,17.345454545454547,0,0.0,canicule-aout-2023,aou23
29276001,SIBIRIL S A,48.660833,-4.079167,52,11,0,17.1,14.19090909090909,24.0,21.77272727272728,17.61818181818182,0,0.0,canicule-aout-2023,aou23
29277001,SIZUN,48.391333,-4.0205,157,11,0,16.4,13.172727272727274,28.5,23.55454545454546,17.736363636363635,0,0.0,canicule-aout-2023,aou23
29293001,TREGUNC,47.841333,-3.868833,25,11,1,20.6,14.827272727272726,29.3,23.963636363636365,19.172727272727272,1,0.09090909090909091,canicule-aout-2023,aou23
30003001,AIGUES-MORTES,43.537167,4.207,1,11,11,25.3,22.39090909090909,39.2,33.92727272727273,27.7,11,1.0,canicule-aout-2023,aou23
30009001,ALZON,43.979,3.444,611,11,0,16.1,13.554545454545456,40.6,35.054545454545455,23.05454545454546,0,0.0,canicule-aout-2023,aou23
30032007,TARASCON,43.829833,4.640167,15,11,5,21.3,18.9,40.5,36.1,27.21818181818181,5,0.45454545454545453,canicule-aout-2023,aou23
30068001,CARDET,44.021,4.079667,109,11,2,21.1,17.081818181818182,43.1,38.17272727272728,27.25454545454545,2,0.18181818181818182,canicule-aout-2023,aou23
30076001,CAVILLARGUES,44.113,4.518667,131,11,0,19.5,16.818181818181817,41.7,37.40909090909091,27.0,0,0.0,canicule-aout-2023,aou23
30087002,COLOGNAC,44.021833,3.825,589,11,1,20.0,16.472727272727273,38.0,33.37272727272728,24.236363636363635,1,0.09090909090909091,canicule-aout-2023,aou23
30101001,DEAUX,44.071833,4.143667,185,11,6,25.1,21.363636363636363,42.2,37.263636363636365,28.781818181818185,6,0.5454545454545454,canicule-aout-2023,aou23
30129001,GENERARGUES,44.073333,3.977667,139,11,2,22.0,17.845454545454544,43.1,38.227272727272734,27.44545454545455,2,0.18181818181818182,canicule-aout-2023,aou23
30132004,LA GRAND COMBE,44.243,4.010167,499,11,8,25.5,22.16363636363636,40.1,35.263636363636365,28.09090909090909,8,0.7272727272727273,canicule-aout-2023,aou23
30164001,MEJANNES-LE-CLAP,44.216333,4.331,313,11,0,19.8,16.163636363636364,41.9,37.13636363636363,26.89090909090909,0,0.0,canicule-aout-2023,aou23
30176002,MONTDARDIER,43.947,3.58,640,11,7,27.5,21.618181818181817,40.3,34.46363636363637,27.390909090909087,7,0.6363636363636364,canicule-aout-2023,aou23
30189001,NIMES-COURBESSAC,43.856833,4.406333,59,11,6,23.9,20.77272727272728,42.3,37.28181818181818,28.718181818181822,6,0.5454545454545454,canicule-aout-2023,aou23
30202002,PONT ST ESPRIT,44.248333,4.627333,79,11,5,22.1,19.445454545454545,41.7,38.27272727272727,28.627272727272725,5,0.45454545454545453,canicule-aout-2023,aou23
30209002,PUJAUT,43.9985,4.759667,44,11,0,18.2,15.51818181818182,41.6,37.16363636363637,26.154545454545453,0,0.0,canicule-aout-2023,aou23
30224001,LA ROUVIERE,43.931833,4.2405,79,11,1,20.0,16.618181818181817,43.4,37.77272727272727,26.96363636363636,1,0.09090909090909091,canicule-aout-2023,aou23
30243001,ST CHRISTOL-LES-ALES,44.092167,4.080333,129,11,5,21.7,18.527272727272727,43.4,38.49090909090909,28.036363636363635,5,0.45454545454545453,canicule-aout-2023,aou23
30258001,NIMES-GARONS,43.772833,4.412833,94,11,5,23.3,20.40909090909091,40.4,36.309090909090905,27.75454545454545,5,0.45454545454545453,canicule-aout-2023,aou23
30263001,ST HIPPOLYTE,43.9615,3.835167,237,11,6,24.3,20.90909090909091,43.3,38.08181818181818,28.654545454545453,6,0.5454545454545454,canicule-aout-2023,aou23
30269006,ST JEAN DU GARD,44.1105,3.872,196,11,0,19.8,16.74545454545455,42.5,37.6,26.681818181818183,0,0.0,canicule-aout-2023,aou23
30297001,ST SAUVEUR CAMPRIEU,44.119333,3.4745,1107,11,0,19.3,16.772727272727277,36.0,31.0,23.472727272727276,0,0.0,canicule-aout-2023,aou23
