NUM_POSTE,NOM_USUEL,LAT,LON,ALTI,NTrop_5j_max,TnMoy_5j_max
1014002,ARBENT,46.278167,5.669,534,0.0,9.679999999999998
1027003,BALAN_AERO,45.833,5.106667,196,0.0,14.080000000000002
1034004,BELLEY,45.769333,5.688,330,1.0,17.279999999999998
1064001,VERIZIEU,45.777167,5.487167,281,0.0,14.9
1071001,CESSY,46.310333,6.080333,507,0.0,15.360000000000003
1072001,CEYZERIAT_SAPC,46.204333,5.287667,260,0.0,14.36
1089001,AMBERIEU,45.9765,5.329333,250,0.0,14.939999999999998
1143002,DIVONNE ZA,46.3415,6.139667,467,0.0,12.9
1200002,LA BALME SUR CERDON_SAPC,46.09,5.482,596,0.0,15.440000000000001
1235001,MARLIEUX,46.0385,5.044333,280,0.0,15.440000000000001
1247003,MIJOUX,46.378833,6.019333,1002,0.0,8.139999999999999
1269001,NANTUA,46.148167,5.607333,483,0.0,12.580000000000002
1367002,SAINT JULIEN SUR REYSSOUZE,46.403167,5.109833,189,0.0,15.34
1384003,ST RAMBERT CG01,45.950333,5.461,296,0.0,13.9
1414001,SUTRIEU,45.916167,5.624667,878,0.0,14.26
2037002,AULNOIS-SS-LAON,49.595667,3.610333,78,0.0,13.419999999999998
2058001,BEAURIEUX,49.390333,3.732667,56,0.0,13.7
2094001,BLESMES,49.009667,3.462667,222,0.0,14.860000000000003
2110002,BRAINE,49.351333,3.527,61,0.0,13.639999999999997
2173002,CHAUNY,49.633833,3.197833,83,0.0,14.9
2320001,ST QUENTIN,49.818333,3.206,98,0.0,15.780000000000001
2321002,FONTAINE-LES-VV,49.837333,3.877833,186,0.0,16.64
2346001,GIZY,49.599833,3.781,75,0.0,12.18
2381001,HIRSON,49.922,4.077167,165,0.0,13.280000000000001
2471001,MARTIGNY-COURPI,49.485667,3.693167,95,0.0,12.139999999999999
2585001,PARCY-ET-TIGNY,49.280167,3.331,148,0.0,14.4
2705001,NIZY-LE-COMTE,49.566,4.0365,90,0.0,12.359999999999998
2738001,TERGNIER,49.663833,3.320667,59,0.0,15.24
3036002,BOURBON_SAPC,46.58,3.0495,270,0.0,15.680000000000001
3059001,CHAREIL-CINTRAT_SAPC,46.275833,3.225667,286,0.0,13.36
3060001,VICHY-CHARMEIL,46.166667,3.398667,249,0.0,12.6
3061001,CHARMES_SAPC,46.0635,3.233667,330,0.0,16.84
3074001,CHEVAGNES,46.630667,3.549167,228,0.0,11.779999999999998
3100001,DIOU,46.541667,3.706667,220,0.0,14.12
3106002,DURDAT-LAREQUILLE,46.251667,2.695667,500,0.0,16.52
3108001,ECHASSIERES_SAPC,46.191167,2.957667,650,0.0,15.86
3114001,FERTE-HAUTERIVE,46.376833,3.331,226,0.0,13.34
3125001,LA GUILLERMIE,45.984667,3.639833,722,0.0,16.6
3130002,ISLE-ET-BARDAIS,46.663333,2.730167,262,0.0,15.059999999999999
3155003,LURCY-LEVIS SA,46.718333,2.947667,225,0.0,11.860000000000001
3162001,MARIGNY,46.581667,3.195833,249,0.0,11.680000000000001
3180001,MONTBEUGNY,46.536333,3.423167,275,0.0,13.879999999999999
3185007,MONTLUCON,46.355167,2.574667,229,0.0,11.4
3204001,PARAY-SOUS-BRIAILLES,46.2835,3.337833,250,0.0,12.6
3226001,SAINT DIDIER_SAPC,46.365333,3.850167,293,0.0,12.66
3240001,ST-LEON,46.4025,3.685833,378,0.0,18.7
3248001,ST-NICOLAS,46.0515,3.805167,1022,0.0,16.28
3285001,TORTEZAIS_SAPC,46.451333,2.857,256,0.0,11.96
3310001,VICHY-VILLE,46.117667,3.439,255,0.0,14.680000000000001
3321001,YZEURE,46.579167,3.352833,242,0.0,13.7
4006005,ALLOS_SAPC,44.2425,6.625333,1400,0.0,8.719999999999999
4019001,BARCELONNETTE,44.391167,6.670167,1155,0.0,6.0600000000000005
4022001,BARREME,43.957167,6.372333,743,0.0,8.760000000000002
4023001,BAYONS,44.342667,6.178667,886,0.0,10.16
4024004,BEAUJEU ST PIERRE,44.209833,6.385167,960,0.0,9.9
4039001,CASTELLANE,43.849167,6.508,729,0.0,9.12
4041001,LE CASTELLET,43.938333,5.9795,473,0.0,13.0
4049001,ST AUBAN,44.062167,5.989667,458,0.0,15.0
4068001,DAUPHIN,43.909833,5.767167,427,0.0,12.459999999999999
4070009,DIGNE LES BAINS,44.07,6.186667,554,0.0,12.919999999999998
4096002,JAUSIERS-ST ANNE,44.413667,6.725167,1240,0.0,8.940000000000001
4096401,RESTEFOND-NIVOSE,44.34,6.8,2550,0.0,7.040000000000001
4115001,MEAILLES_SAPC,44.031167,6.6295,1090,0.0,12.64
4126001,MONTCLAR_SAPC,44.391833,6.333333,1197,0.0,10.26
4134002,LA MOTTE DU CAIRE,44.326667,6.0305,665,0.0,10.14
4136001,LA MURE-ARGENS,43.977,6.520167,920,0.0,8.88
4184001,ST JURS,43.900833,6.2005,867,0.0,16.14
4209005,SISTERON,44.2245,5.916,500,0.0,12.760000000000002
4222001,TURRIERS,44.399,6.1695,1020,0.0,14.02
4230001,VALENSOLE,43.8395,6.000833,600,0.0,15.040000000000001
5004001,ANCELLE,44.6245,6.209833,1354,0.0,11.279999999999998
5007003,ARVIEUX,44.796,6.728,1825,0.0,9.580000000000002
5026400,CEILLAC_NIVO,44.671167,6.776167,1665,0.0,9.34
5027001,CERVIERES,44.869333,6.7235,1614,0.0,9.3
5038001,CHATEAU-VILLE-VIEILLE,44.759333,6.809,1355,0.0,6.94
5044400,PARPAILLON-NIVOSE,44.495333,6.636333,2545,0.0,7.880000000000001
5046001,EMBRUN,44.571167,6.508667,873,0.0,14.8
5055001,LA FAURIE,44.566667,5.750167,825,0.0,8.559999999999999
5061009,GAP,44.577667,6.079833,885,0.0,14.439999999999998
5063402,LA MEIJE-NIVOSE,45.012333,6.265167,3093,0.0,4.92
5064403,LES PORTES EN VALGAUDEMAR_NIVO,44.81,6.195333,1270,0.0,7.92
5070003,LARAGNE MONTEGLIN,44.319167,5.7945,565,0.0,12.919999999999998
5077402,COL AGNEL-NIVOSE,44.688667,6.976167,2627,0.0,7.44
5079402,GALIBIER-NIVOSE,45.056833,6.377167,2559,0.0,7.919999999999999
5090002,MOTTE-MOLINES,44.748167,6.122833,1250,0.0,10.879999999999999
5096404,ORCIERES-NIVOSE,44.719,6.333667,2280,0.0,9.34
5098001,LES ORRES,44.508833,6.559333,1457,0.0,8.34
5101001,PELVOUX,44.866833,6.486667,1270,0.0,7.140000000000001
5110001,PUY-ST-VINCENT,44.828833,6.492667,1388,0.0,10.4
5120002,RISTOLAS,44.765667,6.9845,1670,0.0,4.5
5126001,ROSANS,44.3875,5.462167,625,0.0,11.36
5136002,ST CREPIN,44.7045,6.6,906,0.0,9.26
5139006,AGNIERES-EN-DEVOLUY,44.696167,5.880833,1244,0.0,7.18
5142001,ST FIRMIN,44.7825,6.035,935,0.0,11.760000000000002
5145002,ST JEAN-ST-NICOLAS,44.670833,6.209833,1210,0.0,11.860000000000001
5158001,LE SAIX,44.475833,5.8155,801,0.0,10.2
5170001,TALLARD,44.452167,6.033333,593,0.0,12.56
5179001,VEYNES,44.536333,5.840667,823,0.0,11.7
5181002,VILLAR D'ARENE,45.030833,6.361667,1665,0.0,5.12
5182001,VILLAR LOUBIERE,44.826833,6.146,1072,0.0,11.040000000000001
5183001,VILLAR ST PANCRACE,44.880333,6.640333,1310,0.0,10.120000000000001
6004002,ANTIBES-GAROUPE,43.564667,7.133,75,4.0,20.52
6004004,ANTIBES-GOLF,43.579667,7.091167,13,1.0,17.740000000000002
6004009,ANTIBES_SAPC,43.599167,7.111167,32,0.0,17.240000000000002
6005001,ASCROS,43.922,7.013667,1173,0.0,16.740000000000002
6016001,BEUIL-OBS,44.089833,6.988,1464,0.0,11.959999999999999
6029001,CANNES,43.5565,6.9505,2,0.0,18.0
6033002,CARROS_SAPC,43.786667,7.209167,78,2.0,19.46
6037002,CAUSSOLS,43.752333,6.923167,1268,0.0,15.7
6038001,CHATEAUNEUF GRASSE,43.678333,6.996167,379,3.0,19.839999999999996
6050002,COURSEGOULES_SAPC,43.792,7.0485,985,0.0,16.0
6059003,EZE,43.738833,7.365833,704,3.0,20.660000000000004
6071001,GUILLAUMES-OBS,44.090667,6.852333,788,0.0,11.54
6073005,ISOLA 2000,44.1895,7.149,1912,0.0,7.0
6074005,LANTOSQUE_SAPC,43.972,7.307,550,0.0,13.9
6075007,LEVENS,43.846333,7.21,691,0.0,17.22
6077006,PEIRA CAVA,43.929167,7.363333,1443,0.0,15.059999999999999
6079002,MANDELIEU LA NAPOULE_SAPC,43.523667,6.898667,104,0.0,18.419999999999998
6081001,LE MAS,43.813667,6.809333,1525,0.0,14.9
6083005,MENTON,43.785833,7.488667,216,4.0,22.18
6086001,MOULINET,43.942,7.414667,817,0.0,15.26
6088001,NICE,43.648833,7.209,2,4.0,21.48
6088007,NICE-RIMIEZ,43.738667,7.279167,238,2.0,19.720000000000002
6090002,PEGOMAS,43.602667,6.936667,109,0.0,18.68
6091003,PEILLE,43.775167,7.428333,1106,0.0,16.8
6094002,PEONE,44.099667,6.930833,1784,0.0,12.679999999999998
6099004,PUGET THENIERS_SAPC,43.956833,6.892333,449,0.0,14.720000000000002
6102001,RIMPLAS_SAPC,44.067167,7.1335,1130,0.0,16.9
6103002,BERTHEMONT-LES-BAINS_SAPC,44.044333,7.300833,938,0.0,17.360000000000003
6118002,ST CEZAIRE SUR SIAGNE,43.678667,6.809,694,0.0,17.08
6120004,ST ETIENNE DE TINEE_SAPC,44.257667,6.921167,1150,0.0,12.739999999999998
6125001,ST MARTIN D'ENTRAUNES_SAPC,44.154667,6.747,1642,0.0,13.2
6136005,SOSPEL,43.862833,7.433667,843,2.0,19.46
6152002,VALBONNE-SOPHIA,43.623167,7.0285,238,5.0,22.380000000000003
6153400,MILLEFONTS-NIVOSE,44.118333,7.192,2430,0.0,8.860000000000001
6163001,TENDE-OBS,44.086667,7.595,792,0.0,11.559999999999999
6163007,TENDE_SAPC,44.043167,7.586,636,0.0,14.4
7005001,ALBA LA ROMAINE,44.539833,4.5825,223,1.0,16.52
7010001,ANNONAY,45.246167,4.6705,336,0.0,14.520000000000001
7011002,ANTRAIGUES,44.719167,4.352167,428,0.0,13.780000000000001
7019005,AUBENAS SA,44.601667,4.409833,176,0.0,14.74
7025001,BARNAS RAD,44.666,4.159833,480,0.0,15.3
7032002,BERZEME RAD,44.628333,4.566333,650,1.0,17.86
7033001,BESSAS,44.34,4.298667,251,2.0,18.7
7064001,CHEYLARD SA,44.914833,4.4375,418,0.0,14.02
7066001,CHOMERAC SA_RCE,44.6995,4.648333,216,0.0,15.8
7068001,COLOMBIER JEUNE RAD,45.0155,4.671167,566,1.0,19.380000000000003
7075001,CROS GEORAND,44.780167,4.099667,1021,0.0,8.319999999999999
7096001,GLUIRAS RAD,44.839333,4.524,760,0.0,18.44
7099001,GRAS,44.429,4.5655,341,0.0,15.0
7101001,GROSPIERRES,44.411333,4.300833,127,0.0,13.780000000000001
7105001,ISSANLAS,44.773167,3.981667,1215,0.0,11.9
7105003,ISSANLAS_SAPC,44.7555,3.975333,1264,0.0,12.7
7117002,LABLACHERE,44.480833,4.208333,295,0.0,17.220000000000002
7128001,LALOUVESC,45.117833,4.535,1090,0.0,16.440000000000005
7131001,LANAS SYN,44.537167,4.368167,265,0.0,15.48
7153001,MAYRES,44.667167,4.113,579,0.0,14.98
7154005,MAZAN ABBAYE RAD,44.733833,4.083833,1240,0.0,13.38
7159001,MIRABEL SA,44.5815,4.497333,275,0.0,16.14
7161001,MONTPEZAT SA,44.715667,4.207,602,1.0,18.76
7168001,ORGNAC AVEN,44.288333,4.421667,230,1.0,17.74
7172002,PEAUGRES RAD,45.286167,4.705833,480,1.0,19.24
7187001,CROIX MILLET,44.606333,4.241333,779,2.0,19.580000000000002
7202002,SABLIERES OARA,44.533,4.0725,540,0.0,18.44
7204008,ST-AGREVE RAD,44.997833,4.368,1014,0.0,13.379999999999999
7232001,ST-ETIENNE LUGDARES,44.651333,3.9485,1022,0.0,7.12
7240001,ST-GEORGES BAIN,44.860333,4.8325,112,0.0,17.16
7261001,ST-LAURENT PAPE,44.817833,4.746833,112,0.0,14.719999999999999
7265001,ST-MARCEL ANNONAY,45.296,4.642,494,0.0,15.16
7279001,ST-MONTAN,44.441833,4.636333,130,2.0,17.919999999999998
7286002,ST-PIERREVILLE,44.814333,4.485,560,0.0,13.559999999999999
7301002,ST-VICTOR,45.110167,4.682333,557,2.0,19.5
7315004,LA SOUCHE,44.6285,4.123667,924,0.0,16.26
7331001,VALS-LES-BAINS,44.6695,4.360667,283,0.0,15.180000000000001
7334004,LES VANS-SA,44.4155,4.150833,140,0.0,13.4
7338001,VERNOUX,44.8995,4.652333,561,0.0,15.239999999999998
7347001,VOCANCE,45.201167,4.554333,529,0.0,15.1
8046001,BANOGNE-RECOUVRANCE,49.571667,4.129167,130,0.0,16.4
8089003,BUZANCY_SAPC,49.427333,4.9645,199,0.0,15.2
8105005,CHARLEVILLE-MEZ,49.782833,4.643167,145,0.0,10.52
8116001,LE CHESNE,49.510333,4.766167,168,0.0,14.02
8145001,DOUZY,49.658,5.039833,153,0.0,11.98
8207001,HAM-SUR-MEUSE,50.116,4.7795,109,0.0,13.419999999999998
8239001,JUNIVILLE,49.397333,4.371667,90,0.0,12.54
8244001,LAMETZ_SAPC,49.536667,4.689667,165,0.0,14.12
8248002,LAUNOIS-SUR-VENCE_SAPC,49.671833,4.534667,218,0.0,14.12
8254002,LIART_SAPC,49.7655,4.340333,240,0.0,14.9
8255001,LINAY,49.616833,5.216833,177,0.0,11.56
8296002,MONTCHEUTIN_SAPC,49.287333,4.809667,142,0.0,13.739999999999998
8353001,RANCENNES,50.118833,4.813167,162,0.0,11.92
8367002,ROCROI,49.918667,4.53,382,0.0,15.339999999999998
8401001,SAULCES-CHAMPENOISES,49.423833,4.4925,147,0.0,15.460000000000003
8419001,SIGNY-L'ABBAYE,49.686,4.418833,180,0.0,13.86
8420002,SIGNY-LE-PETIT_SAPC,49.9135,4.288167,309,0.0,14.420000000000002
9023002,ASCOU LAVAIL,42.725333,1.8885,1090,0.0,8.22
9024004,ASTON,42.724167,1.691,1781,0.0,12.7
9027001,AUGIREIN,42.930167,0.92,655,0.0,13.64
9047001,BELESTA,42.903833,1.936667,490,0.0,10.639999999999999
9094001,CERIZOLS,43.126,1.063,374,0.0,11.900000000000002
9099001,COS,42.970167,1.5645,519,0.0,14.66
9161003,LERAN,42.990333,1.919167,391,0.0,11.7
9181003,LE MAS D AZIL,43.0735,1.357667,293,0.0,12.719999999999999
9199002,MONTAUT,43.192167,1.6435,295,0.0,16.6
9285400,PORT D'AULA-NIVOSE,42.77,1.114333,2140,0.0,9.22
9289001,ST GIRONS,43.005333,1.106833,414,0.0,13.059999999999999
9290400,SENTEIN EYLIE HAUT,42.835333,0.934667,1000,0.0,10.875
9301001,SOULAN,42.914667,1.234333,638,0.0,12.379999999999999
9328001,VERDUN,42.791667,1.689833,546,0.0,11.8
10002001,AILLEVILLE_SAPC,48.254167,4.685667,195,0.0,13.36
10021001,AVANT-LES-RAMERUPT,48.451333,4.283667,118,0.0,12.780000000000001
10030001,TROYES-BARBEREY,48.324667,4.02,112,0.0,13.14
10042001,BERULLE,48.179,3.663333,146,0.0,11.16
10057001,BOUY-SUR-ORVIN,48.439833,3.504833,102,0.0,14.280000000000001
10070001,CELLES-SUR-OURCE,48.0675,4.411333,275,0.0,16.360000000000003
10099002,CHESSY-LES-PRES_SAPC,48.0255,3.915,119,0.0,12.34
10119001,CUNFIN_SAPC,48.0365,4.6785,315,0.0,16.44
10130001,DOSNON,48.609167,4.224667,115,0.0,12.88
10166002,GRANDES-CHAPELL,48.468167,4.016833,111,0.0,13.780000000000001
10228002,MATHAUX-ETAPE,48.353167,4.472333,145,0.0,14.440000000000001
10238001,MESNIL-ST-PERE,48.244833,4.322167,142,0.0,14.16
10241001,METZ-ROBERT_SAPC,48.0745,4.101167,140,0.0,11.34
10261001,MUSSY-SUR-SEINE,47.983833,4.495833,193,0.0,12.28
10323001,ROMILLY,48.503333,3.7495,77,0.0,13.0
10350001,ST-MARDS,48.169833,3.789,227,0.0,14.9
10372001,SOULAINES,48.399333,4.671333,138,0.0,13.280000000000001
10401001,VENDEUVRE-SUR-B,48.233,4.463,180,0.0,12.459999999999999
10419001,VILLEMOYENNE,48.1785,4.233833,134,0.0,12.239999999999998
11004001,ALAIGNE,43.1125,2.098333,293,0.0,17.840000000000003
11012001,ARGELIERS,43.308167,2.911667,31,0.0,14.339999999999998
11015001,ARQUES,42.951833,2.374833,350,0.0,11.56
11016003,ARQUETTES-EN-VAL,43.100833,2.503333,240,1.0,15.419999999999998
11028001,BELCAIRE,42.8195,1.968,980,0.0,13.439999999999998
11069001,CARCASSONNE,43.215333,2.2955,128,0.0,15.739999999999998
11076001,CASTELNAUDARY,43.305333,1.949167,160,0.0,16.08
11081003,CAUNES-MINERVOIS,43.334333,2.481,371,4.0,20.619999999999997
11124003,DURBAN-CORBIERES,42.993333,2.819167,120,0.0,13.74
11136001,FANJEAUX_SAPC,43.202,2.07,182,0.0,16.68
11144001,FITOU,42.894667,2.995833,9,2.0,19.959999999999997
11159002,RIBOUISSE,43.182833,1.895833,302,0.0,14.819999999999999
11168001,GRANES,42.909167,2.2505,420,0.0,15.719999999999999
11181002,LABECEDE LAURAGAIS_SAPC,43.3895,2.022167,408,2.0,19.7
11185001,LAGRASSE,43.0915,2.621833,130,0.0,14.6
11202001,LEUCATE,42.917333,3.059667,42,2.0,20.12
11203004,LEZIGNAN-CORBIERES,43.173,2.728833,60,1.0,16.18
11206003,LIMOUX,43.046,2.201167,230,0.0,13.48
11221004,LES MARTYS,43.4085,2.292333,760,0.0,12.5
11253001,MONTOLIEU,43.312667,2.2405,280,0.0,17.880000000000003
11260002,MOUTHOUMET,42.9595,2.529,538,0.0,15.819999999999999
11262005,NARBONNE,43.150333,2.955833,110,2.0,19.76
11266001,PORT-LA-NOUVELLE,43.0145,3.0525,0,2.0,19.9
11412001,VILLARDEBELLE_SAPC,43.014833,2.4005,593,0.0,15.4
12005001,ALPUECH,44.756,2.868167,1107,0.0,12.940000000000001
12011001,ARVIEU,44.168167,2.620167,733,0.0,17.259999999999998
12014001,AURELLE-VERLAC_SAPC,44.533667,3.012833,1076,0.0,17.080000000000002
12039001,BRUSQUE_SAPC,43.7495,2.938667,858,2.0,19.8
12050001,CANET-DE-SALARS_SAPC,44.2335,2.737167,860,0.0,16.04
12063003,MILLAU-LARZAC_SAPC,43.987,3.181833,794,0.0,11.739999999999998
12068001,COLOMBIES,44.357833,2.317167,647,0.0,17.04
12077002,CORNUS,43.922333,3.192167,718,0.0,7.62
12092001,DURENQUE_SAPC,44.111833,2.6445,812,0.0,17.360000000000003
12094002,ENTRAYGUES SUR,44.6375,2.566167,292,0.0,12.779999999999998
12096001,ESPALION,44.515667,2.770167,360,0.0,11.139999999999999
12145001,MILLAU,44.1185,3.0195,712,0.0,16.619999999999997
12150001,MONTEILS,44.265667,1.991667,268,0.0,11.540000000000001
12154003,MONTLAUR,43.891667,2.836333,374,0.0,11.88
12179001,PEUX-ET-COUFFOULEUX_SAPC,43.761833,2.867167,830,0.0,16.6
12189001,PRADINAS_SAPC,44.242167,2.255833,564,0.0,18.24
12216001,ST-COME-D'OLT,44.514667,2.827833,380,0.0,12.18
12224001,ST-GENIEZ-D'OLT,44.463667,2.967667,420,0.0,11.620000000000001
12253001,SALLES CURAN,44.151833,2.866167,959,0.0,15.459999999999999
12254001,RODEZ-AVEYRON,44.410333,2.4825,578,0.0,12.400000000000002
12266002,SEGUR,44.2895,2.820333,879,0.0,17.119999999999997
12298001,VILLECOMTAL,44.530667,2.572,318,0.0,12.4
12300004,VILLEFRANCHE-DE-ROUERGUE,44.371833,2.023667,330,0.0,14.02
13001009,AIX EN PROVENCE,43.5295,5.4245,173,0.0,16.6
13004003,ARLES,43.51,4.693833,1,0.0,17.619999999999997
13005003,AUBAGNE,43.307333,5.601167,130,0.0,14.14
13022003,CASSIS,43.222167,5.503167,212,0.0,17.2
13028001,BEC DE L AIGLE,43.174667,5.574167,316,4.0,21.8
13030001,CUGES-LES-PINS,43.274,5.700167,184,0.0,13.14
13031002,LA DESTROUSSE_SAPC,43.386667,5.601,201,0.0,14.0
13036003,EYRAGUES,43.847167,4.834833,17,0.0,15.180000000000001
13047001,ISTRES,43.522667,4.9275,23,0.0,18.34
13054001,MARIGNANE,43.437,5.2115,6,0.0,16.9
13055001,MARSEILLE-OBS,43.305667,5.394333,75,3.0,20.4
13055029,MARSEILLE,43.310667,5.479167,192,0.0,17.46
13062002,MIMET,43.4185,5.499667,416,0.0,16.060000000000002
13074003,PEYROLLES EN PROVENCE,43.656667,5.607,217,0.0,13.74
13091002,ST CANNAT,43.6045,5.317667,249,0.0,14.36
13092001,ST CHAMAS,43.5495,5.0395,10,0.0,15.580000000000002
13103001,SALON DE PROVENCE,43.612833,5.108,58,0.0,14.1
13110003,TRETS,43.445333,5.698667,264,0.0,14.5
13111002,VAUVENARGUES,43.551,5.68,565,0.0,15.12
14047002,BAYEUX,49.274833,-0.712333,60,1.0,18.599999999999998
14066001,BERNIERES,49.334,-0.430667,2,0.0,15.64
14096001,BREMOY,48.991167,-0.780833,240,4.0,20.86
14137001,CAEN-CARPIQUET,49.18,-0.456167,67,0.0,16.48
14216001,DAMBLAINVILLE,48.928,-0.148667,155,0.0,18.78
14229001,DOZULE,49.231667,-0.0475,29,0.0,18.6
14239001,ENGLESQUEVILLE,49.3875,-0.956667,38,1.0,17.62
14296001,LEGAST_SAPC,48.794667,-1.037167,336,3.0,20.839999999999996
14357002,LASSY_SAPC,48.9265,-0.6925,223,0.0,19.139999999999997
14366002,LISIEUX_SAPC,49.165,0.227,62,0.0,16.04
14372001,LIVRY,49.099167,-0.7665,194,3.0,20.1
14446001,MONTIGNY,49.045833,-0.530167,151,1.0,18.419999999999998
14501002,PIERREFITTE CIN_SAPC,48.894,-0.3875,187,0.0,18.48
14578001,ST GATIEN DES B,49.3645,0.167,139,0.0,18.080000000000002
14624001,L OUDON LIEURY_SAPC,48.9895,-0.009167,52,0.0,14.120000000000001
14634001,SAINT MICHEL DE,49.006833,0.1295,140,0.0,18.34
14659001,ST SYLVAIN_SAPC,49.06,-0.234333,62,0.0,15.040000000000003
14762004,VIRE HIPPODROME,48.850833,-0.899,100,0.0,15.460000000000003
15001003,ALLANCHE,45.232,2.937667,1010,0.0,9.0
15014001,AURILLAC - VILL,44.935833,2.438333,707,0.0,16.16
15014004,AURILLAC,44.8915,2.419167,632,0.0,13.16
15025001,PRAT DE BOUC,45.0525,2.792,1405,0.0,12.940000000000001
15050001,LE CLAUX,45.1725,2.7105,1033,0.0,11.52
15053001,COLTINES,45.074667,2.990667,979,0.0,9.2
15060002,DEUX-VERGES,44.8015,3.012667,1080,0.0,12.38
15085001,LABROUSSE,44.855333,2.540667,800,0.0,16.4
15101004,LE LIORAN_SAPC,45.080833,2.747667,1236,0.0,12.68
15108003,FAVEROLLES-STADE,44.933167,3.1455,989,0.0,12.680000000000001
15114002,MARCENAT,45.302667,2.833,1075,0.0,11.9
15118002,MARMANHAC,45.002833,2.4745,644,0.0,12.2
15119001,MASSIAC,45.263333,3.197833,533,0.0,12.7
15120005,MAURIAC,45.222167,2.293167,674,0.0,14.62
15122002,MAURS,44.734167,2.166,480,0.0,17.46
15138001,MURAT,45.1095,2.862167,904,0.0,10.74
15162003,RIOM-MONTAGNES,45.280167,2.664667,837,0.0,13.419999999999998
15187006,ST FLOUR,45.024333,3.067333,909,0.0,11.74
15191001,ST ILLIDE,45.064,2.303833,635,0.0,14.76
15196001,ST MAMET,44.858833,2.310667,740,0.0,17.9
15207002,ST- PONCY_SAPC,45.178333,3.174167,805,0.0,9.239999999999998
15226001,SENEZERGUES,44.704,2.428167,530,0.0,16.3
15235002,LES TERNES,44.992833,3.001833,1007,0.0,8.98
15258004,VIC SUR CERE,44.965833,2.612167,657,0.0,13.62
16028001,BARBEZIEUX,45.464333,-0.170167,81,0.0,15.279999999999998
16078001,ANGOULEME - BRIE - CHAMPNIERS,45.728,0.220667,124,2.0,19.36
16089001,COGNAC,45.665,-0.315833,30,0.0,18.52
16113001,LA COURONNE,45.627833,0.099833,58,0.0,14.860000000000003
16193001,LOUZAC ST ANDRE,45.735833,-0.381833,51,0.0,18.28
16225001,MONTEMBOEUF,45.787167,0.543,247,5.0,21.419999999999995
16256001,PASSIRAC,45.334,-0.078667,114,0.0,14.959999999999999
16279001,RIOUX MARTIN,45.262,0.003333,81,0.0,15.4
16363001,SAULGOND_SAPC,45.956333,0.781667,228,0.0,18.0
16366001,SEGONZAC_SAPC,45.6145,-0.2235,62,0.0,17.979999999999997
16390001,TUSSON,45.949,0.062167,88,0.0,14.84
16403001,LE VIEUX CERIER_SAPC,45.9675,0.442,162,0.0,15.2
17093002,CHATEAU D'OLERON,45.862167,-1.204333,3,4.0,20.02
17111001,CLION,45.476833,-0.510333,35,0.0,15.440000000000001
17218001,MARANS,46.316333,-1.012167,2,1.0,18.779999999999998
17224001,MATHA,45.858667,-0.319667,38,0.0,16.2
17243002,MONTLIEU_SAPC,45.220167,-0.291833,89,0.0,17.240000000000002
17248001,MORTAGNE-SUR-GIRONDE_SAPC,45.477667,-0.789833,37,5.0,21.080000000000002
17268002,NUAILLE SUR BOUTONNE,46.019833,-0.406667,36,0.0,15.9
17300009,LA ROCHELLE-ILE DE RE,46.178,-1.193167,20,4.0,20.16
17306004,ROYAN-MEDIS,45.633,-0.974667,12,0.0,18.080000000000002
17308001,ST AGNANT,45.888,-0.984667,18,0.0,15.76
17318001,SAINT-CLEMENT DES BALEINES,46.243,-1.561667,10,3.0,19.82
17323001,CHASSIRON,46.046833,-1.411667,11,4.0,20.52
17339002,ST GERMAIN DE LUSIGNAN,45.458333,-0.409667,71,1.0,18.700000000000003
17353001,ST-LAURENT PREE-INRAE,45.988333,-1.027,3,0.0,17.5
17415003,SAINTES,45.761167,-0.652,38,0.0,17.020000000000003
17477001,VILLIERS_SAPC,45.9875,-0.152,106,0.0,14.16
18003003,LES AIX-D'ANG.,47.209667,2.552333,195,0.0,16.56
18015003,AUBIGNY-SUR-NERE,47.4995,2.427333,176,0.0,14.139999999999997
18033001,BOURGES,47.059167,2.359833,161,0.0,16.200000000000003
18036001,BRINAY,47.166667,2.081,131,0.0,15.62
18037001,BRINON,47.5645,2.262333,133,0.0,13.440000000000001
18047001,CHAPELLE-D'ANG_SAPC,47.373833,2.426667,190,0.0,12.6
18057003,CHATEAUMEILLANT,46.564,2.2175,243,0.0,11.5
18087001,DUN,46.878333,2.566167,160,0.0,13.559999999999999
18089001,EPINEUIL,46.563333,2.519833,228,0.0,13.760000000000002
18092001,AVORD,47.052167,2.642167,175,0.0,16.38
18109002,HENRICHEMONT,47.285833,2.579167,377,4.0,20.139999999999997
18125004,LERE,47.457833,2.893167,139,0.0,11.739999999999998
18172003,ORVAL RAD,46.731,2.467333,165,0.0,14.02
18175003,OUROUER,46.925333,2.803333,221,0.0,15.4
18187004,PREVERANGES,46.425333,2.2365,462,0.0,17.96
18207003,ST-FLORENT/CHER,46.989333,2.248667,146,0.0,14.5
18223003,ST-MARTIN-D'A.,47.200667,2.416833,172,0.0,15.5
18231001,ST-PIERRE,46.729,2.631667,174,0.0,12.7
18242001,SANCOINS,46.831333,2.9265,203,0.0,14.34
18279001,VIERZON - VEVES,47.219167,2.0135,98,0.0,14.02
19010001,ARGENTAT,45.101333,1.9375,190,0.0,12.8
19016001,BAR,45.3445,1.823833,269,0.0,13.1
19031008,BRIVE,45.146667,1.473333,115,0.0,15.2
19033001,BUGEAT,45.602667,1.930333,694,0.0,10.959999999999999
19034001,CAMPS,44.983667,1.988333,519,0.0,13.580000000000002
19073006,EGLETONS,45.398833,2.059167,610,0.0,13.879999999999999
19121002,LUBERSAC,45.410333,1.411167,390,0.0,15.2
19125001,MARCILLAC,45.2835,2.039833,598,0.0,15.64
19136002,MEYMAC,45.534333,2.154333,670,0.0,11.52
19139001,MILLEVACHES,45.642667,2.0955,915,0.0,16.16
19147001,BRIVE-SOUILLAC,45.036333,1.491667,295,0.0,15.66
19164001,PEYRELEVADE,45.701,2.058667,827,0.0,13.52
19201001,USSEL-THALAMY,45.537333,2.42,740,0.0,11.5
19237001,ST-PRIVAT,45.139,2.096,585,0.0,11.24
19264001,SOURSAC,45.249,2.212833,528,0.0,13.6
19272001,TULLE,45.2425,1.740333,235,0.0,14.239999999999998
19275001,USSEL-LAMARTINE,45.558833,2.321333,654,0.0,11.680000000000001
19276006,UZERCHE,45.396333,1.568167,422,0.0,17.799999999999997
19288004,VOUTEZAC,45.279833,1.416,124,0.0,12.86
20004002,AJACCIO,41.918,8.792667,5,0.0,15.139999999999997
20004003,AJACCIO-PARATA,41.908333,8.618167,124,2.0,19.44
20004014,AJACCIO-MILELLI_SAPC,41.9385,8.720833,86,0.0,16.34
20007402,SPONDE-NIVOSE,42.324333,8.881667,1971,0.0,10.36
20023005,ASCO_SAPC,42.403833,8.922667,1400,0.0,11.58
20029003,BARBAGGIO_SAPC,42.679833,9.389333,572,1.0,18.5
20033015,BASTIA_SAPC,42.704333,9.444833,26,2.0,19.82
20040001,BOCOGNANO-GARE,42.080167,9.0525,660,0.0,16.759999999999998
20040004,BOCOGNANO,42.104167,9.103333,1019,0.0,15.760000000000002
20041001,CAP PERTUSATO,41.374833,9.178333,107,0.0,18.32
20046002,CAGNANO,42.886667,9.4395,278,3.0,21.459999999999997
20047006,CALACUCCIA,42.3315,9.0215,811,0.0,12.2
20050001,CALVI,42.5295,8.7915,57,1.0,17.1
20054002,CAMPILE_SAPC,42.494667,9.353,499,0.0,16.720000000000002
20083001,CASTIRLA,42.380167,9.134167,376,0.0,15.580000000000002
20092001,CONCA,41.717,9.3485,253,3.0,20.1
20093002,ILE ROUSSE,42.633333,8.9225,140,3.0,20.32
20096008,CORTE,42.2885,9.193167,350,0.0,11.46
20096009,RESTONICA_SAPC,42.229667,9.031333,1372,0.0,11.540000000000001
20107001,CAP CORSE,43.003833,9.3595,72,4.0,21.000000000000004
20108002,EVISA-ONF,42.263333,8.838667,1030,0.0,11.46
20114002,FIGARI,41.505167,9.103667,20,0.0,10.56
20126001,GIUNCAGGIO_SAPC,42.2165,9.369333,685,1.0,18.580000000000002
20135002,ISOLACCIO DI FIUMORBO,41.992333,9.305,198,0.0,15.48
20142001,LEVIE,41.7035,9.125833,571,0.0,12.020000000000001
20148001,BASTIA,42.540667,9.485167,10,0.0,18.08
20154001,MARIGNANA,42.188833,8.655333,515,2.0,19.419999999999998
20160001,MOCA-CROCE,41.761667,9.0165,951,0.0,15.88
20169007,PONTE-LECCIA,42.472667,9.199833,240,0.0,13.239999999999998
20185003,OLETTA,42.632333,9.3205,75,0.0,14.780000000000001
20190002,OLMI-CAPPELLA,42.5295,9.0165,844,0.0,15.180000000000001
20209003,PERI_SAPC,42.003167,8.905667,433,2.0,19.360000000000003
20211001,PETRETO BICCHISANO,41.785167,8.979167,450,0.0,17.56
20223001,PIETRALBA,42.541,9.172,510,0.0,17.04
20232002,PILA-CANALE,41.8145,8.903667,407,0.0,18.8
20235001,PIOGGIOLA,42.517833,8.999833,995,0.0,17.520000000000003
20247001,LA CHIAPPA,41.594833,9.363167,57,2.0,19.740000000000002
20249003,PROPRIANO,41.678167,8.915,34,0.0,13.9
20254006,QUENZA,41.777667,9.142833,932,0.0,13.52
20255003,QUERCITELLO,42.426833,9.332333,997,0.0,15.2
20258001,RENNO,42.190167,8.807167,755,0.0,11.44
20264002,RUSIO_SAPC,42.364167,9.2645,860,0.0,15.8
20268001,SAMPOLO,41.943,9.123,837,0.0,16.98
20270001,SARI D'ORCINO,42.0785,8.802333,407,0.0,17.720000000000002
20272001,SARTENE-CIMETIERE,41.620167,8.962167,272,2.0,19.439999999999998
20272004,SARTENE,41.652333,8.979333,62,0.0,13.520000000000001
20273001,SCATA,42.429333,9.412167,185,0.0,14.420000000000002
20281001,CAP SAGRO,42.798333,9.488667,111,5.0,22.4
20303002,ALISTRO,42.259667,9.5415,65,4.0,20.9
20312001,SANTA MARIA SICHE,41.879167,8.989167,541,0.0,17.42
20314006,SANTO PIETRO DI TENDA,42.635833,9.200667,484,0.0,15.62
20326001,TOLLA_SAPC,41.9635,8.959167,698,0.0,16.2
20341400,MANICCIA-NIVOSE,42.208333,9.0485,2379,0.0,8.3
20342001,SOLENZARA,41.921833,9.400833,12,3.0,20.18
20354008,VIVARIO_SAPC,42.152667,9.149167,773,0.0,10.36
21056001,BEIRE LE CHATEL,47.413833,5.208333,250,0.0,15.0
21065001,BESSEY,47.086,4.743167,593,2.0,19.880000000000003
21116002,BURE LES TEMPLIERS_SAPC,47.7195,4.948167,461,0.0,16.580000000000002
21131001,PAGNY-LE-CHATEAU,47.043167,5.190667,182,0.0,15.24
21154001,CHATILLON/SEINE,47.849333,4.581333,262,0.0,11.26
21231001,DIJON,47.319167,5.014333,240,0.0,14.86
21310001,GROSBOIS-EN-MONTAGNE,47.319333,4.596333,376,0.0,13.02
21326001,JOURS LES BAIGNEUX_SAPC,47.636,4.596333,392,0.0,14.079999999999998
21386001,MARIGNY LE CAHOUET,47.4475,4.4335,335,0.0,13.219999999999999
21395001,MASSINGY-LES-VITTEAUX_SAPC,47.388667,4.586333,509,0.0,17.46
21425001,MONTBARD_SAPC,47.6285,4.3305,209,0.0,12.620000000000001
21454001,NICEY,47.860333,4.315333,209,0.0,12.020000000000001
21473001,DIJON-LONGVIC,47.267833,5.088333,219,0.0,16.259999999999998
21501003,POUILLY EN AUX_SAPC,47.251333,4.561,412,0.0,15.9
21503001,POUILLY SUR VINGEANNE,47.542667,5.417667,239,0.0,13.319999999999999
21519001,RECEY SUR OURCE,47.782167,4.864167,326,0.0,10.739999999999998
21527001,LA ROCHEPOT,46.9525,4.674,417,0.0,14.34
21561003,ST-MARTIN-DU-M,47.4005,4.781167,578,1.0,17.48
21564001,ST NIC. CITEAUX,47.122167,5.072167,203,0.0,12.819999999999999
21567001,ARNAY_SAPC,47.124833,4.498667,396,0.0,13.1
21584001,SAULIEU,47.264167,4.215,586,0.0,17.82
21603001,SEMUR EN AUXOIS_SAPC,47.482,4.34,314,0.0,12.24
21633002,THOREY SOUS CHARNY_SAPC,47.319167,4.4395,421,0.0,14.780000000000001
21638002,TIL-CHATEL_SAPC,47.544833,5.2075,283,0.0,13.540000000000001
22005003,BELLE-ISLE-EN-TERRE,48.55,-3.3875,158,0.0,16.42
22016001,ILE-DE-BREHAT,48.855167,-3.0045,25,0.0,16.48
22032002,CAULNES-EDF,48.298333,-2.142167,75,1.0,17.5
22033001,CAUREL-EDF,48.207667,-3.051333,150,0.0,16.660000000000004
22046003,COLLINEE-EDF,48.294833,-2.499333,201,0.0,16.8
22092001,KERPERT,48.404,-3.147667,281,2.0,18.3
22108001,LANLEFF,48.691167,-3.0405,78,0.0,15.040000000000001
22113006,LANNION_AERO,48.755333,-3.468667,85,0.0,16.580000000000002
22114003,LANRELAS-EDF,48.248833,-2.2915,112,0.0,16.04
22138003,MAEL-PESTIVIEN-EDF,48.418667,-3.303167,257,0.0,15.040000000000001
22147006,MERDRIGNAC,48.188,-2.4205,145,0.0,17.439999999999998
22168001,PLOUMANAC'H,48.825833,-3.473167,55,0.0,16.119999999999997
22219003,PLOUGUENAST,48.265833,-2.748333,235,0.0,17.720000000000002
22243001,PLUSQUELLEC,48.404167,-3.522333,214,2.0,19.400000000000002
22247002,POMMERIT-JAUDY,48.742,-3.251,55,0.0,16.14
22261002,QUINTENIC,48.519167,-2.42,71,0.0,16.16
22266001,ROSTRENEN,48.226667,-3.295333,236,0.0,17.720000000000002
22282001,SAINT-CAST-LE-G,48.6445,-2.247,35,0.0,17.259999999999998
22294003,ST-GILLES-PLIGEAUX-EDF,48.384333,-3.091333,266,2.0,18.4
22372001,ST BRIEUC,48.5365,-2.853167,135,1.0,17.66
23008004,AUBUSSON_SAPC,45.957833,2.187833,486,0.0,10.48
23013001,AUZANCES_SAPC,46.0215,2.489333,564,0.0,10.379999999999999
23021001,BENEVENT_SAPC,46.121,1.6285,460,0.0,17.52
23025001,BONNAT,46.315333,1.916333,382,0.0,15.120000000000001
23030004,BOURGANEUF,45.942333,1.725833,513,0.0,16.119999999999997
23031002,BOUSSAC_SAPC,46.343333,2.228333,380,0.0,11.44
23046001,CHAMBONCHARD,46.176,2.553,320,0.0,10.559999999999999
23067001,LA COURTINE,45.702667,2.263667,772,0.0,11.319999999999999
23069002,CROCQ,45.867167,2.362167,710,0.0,13.0
23075001,DUN LE PALESTEL,46.317833,1.666833,365,0.0,15.459999999999999
23079002,FELLETIN,45.880167,2.186,635,0.0,15.460000000000003
23089001,GENOUILLAC,46.352333,1.985,306,0.0,12.080000000000002
23090003,GENTIOUX,45.785,1.997333,794,0.0,13.120000000000001
23113001,LUPERSAT_SAPC,45.9865,2.393167,610,0.0,13.560000000000002
23155001,PONTARION_SAPC,45.995667,1.852833,455,0.0,11.600000000000001
23176001,LA SOUTERRAINE,46.2425,1.451833,370,1.0,18.9
23206002,GUERET-ST LAURENT,46.1755,1.950333,365,0.0,13.360000000000003
23209001,SAINT-LOUP_SAPC,46.140667,2.2645,440,0.0,12.440000000000001
24035003,BELVES,44.782667,0.956,238,0.0,19.0
24037005,BERGERAC,44.822833,0.524167,49,0.0,13.539999999999997
24064001,BRANTOME,45.356833,0.645833,129,0.0,14.779999999999998
24138004,COULOUNIEIX,45.1595,0.676667,217,0.0,18.18
24152001,DOMME,44.798333,1.219667,165,0.0,15.2
24172001,LES EYZIES DE TAYAC,44.954667,1.021,112,0.0,14.219999999999999
24226001,LAMOTHE MONTRAV,44.837333,0.041167,9,0.0,15.440000000000001
24280001,MONPAZIER,44.684,0.891667,199,0.0,16.880000000000003
24291001,MONTIGNAC,45.052167,1.147333,77,0.0,13.62
24452001,ST MARTIAL VIVEYROLS,45.357833,0.319333,166,2.0,20.2
24453001,ST MARTIN  DE FRESSENGEAS,45.4755,0.848333,277,0.0,16.240000000000002
24516002,SALIGNAC-EYVIGUES,44.936667,1.364667,276,0.0,17.220000000000002
24547002,TERRASSON-LAVILLEDIEU,45.1355,1.2925,90,0.0,15.0
24550003,THENON,45.112667,1.0385,265,0.0,17.16
25021001,ARC-ET-SENANS,47.0315,5.782,235,0.0,15.98
25047001,BAUME-LES-DAMES,47.347167,6.350333,267,0.0,15.719999999999999
25056001,BESANCON,47.249,5.988833,307,0.0,16.52
25087002,BRANNE_SAPC,47.378,6.472167,287,0.0,12.08
25127001,CHARQUEMONT,47.218833,6.815,884,0.0,13.66
25219002,EPENOY,47.127167,6.366333,752,0.0,15.219999999999999
25222001,ETALANS_SAPC,47.1525,6.210167,540,0.0,11.6
25223002,COULANS,47.023333,6.0205,468,0.0,12.080000000000002
25254001,LES FOURGS,46.834,6.4365,1140,0.0,9.419999999999998
25285001,GRAND'COMBE-CHATELEU_SAPC,47.019167,6.567167,769,0.0,7.640000000000001
25320001,LABERGEMENT,46.779667,6.2795,863,0.0,9.1
25334001,LEVIER_SAPC,46.949333,6.124167,713,0.0,10.58
25356003,MAICHE,47.243,6.791,825,0.0,10.64
25372001,MEDIERE,47.456,6.601333,302,0.0,13.539999999999997
25413001,MOUTHE,46.707,6.2095,940,0.0,8.379999999999999
25453001,PIERREFONTAINE,47.216667,6.528833,695,0.0,10.040000000000001
25462001,PONTARLIER,46.927,6.32,808,0.0,10.88
25494001,LA BOISSAUDE ROCHEJEAN,46.729,6.322833,1222,0.0,13.7
25512001,LE RUSSEY,47.162167,6.7375,891,0.0,10.559999999999999
25529002,SANCEY-LE-GRAND,47.3015,6.581667,490,0.0,13.679999999999998
25621001,VILLENEUVE-D'AMONT,46.9385,6.021333,663,0.0,10.280000000000001
26002003,ALBON,45.252333,4.822333,153,0.0,14.419999999999998
26035001,BEAUFORT-S-GERV,44.778,5.139,379,0.0,16.779999999999998
26047001,BELLEGARDE-EN-D,44.535167,5.454333,1017,0.0,14.360000000000003
26050001,BESIGNAN,44.3205,5.317,556,0.0,16.1
26056001,BOURDEAUX,44.580167,5.142833,432,0.0,11.459999999999997
26064001,VALENCE-CHABEUI,44.914833,4.971833,163,0.0,15.020000000000001
26074001,CHAPELLE-EN-VERCORS_SAPC,44.9615,5.422167,879,0.0,12.38
26113003,DIE,44.767667,5.3435,384,0.0,11.2
26116002,DONZERE,44.429167,4.725333,66,1.0,16.119999999999997
26124001,ETOILE,44.819,4.8895,145,0.0,16.4
26142001,GLANDAGE_SAPC,44.674667,5.615167,1007,0.0,13.34
26168001,LUS L CROIX HTE,44.672833,5.710833,1059,0.0,11.4
26179001,MERCUROL,45.0585,4.8835,153,0.0,16.3
26182001,MIRABEL-AUX-BAR,44.328667,5.100833,238,0.0,13.399999999999997
26189001,MONTAUBAN-S-OUV,44.276,5.478333,689,0.0,11.7
26198001,MONTELIMAR,44.581167,4.733,73,1.0,16.78
26258001,PUY-ST-MARTIN,44.618167,4.976833,211,1.0,17.98
26273002,ROCHEFORT-SAMSON_SAPC,44.990667,5.165167,368,0.0,14.540000000000001
26281001,ROMANS_SAPC,45.050167,4.998667,156,0.0,14.120000000000001
26290002,COL DE ROUSSET_SAPC,44.841667,5.421667,1400,0.0,13.4
26292002,ST-AUBAN-SUR-OUVEZE,44.294833,5.409833,625,0.0,11.720000000000002
26295001,ST-BARTHELEMY-V_SAPC,45.173833,4.9025,203,0.0,13.720000000000002
26298001,ST-CHRISTOPHE-L_SAPC,45.229333,5.071833,452,0.0,18.339999999999996
26307001,ST-JEAN-EN-ROYA,45.009167,5.2925,308,0.0,14.860000000000003
26313001,ST-MARCEL-LES-V-INRAE,44.980167,4.931333,190,0.0,16.380000000000003
26327001,ST ROMAN-DIOIS,44.693833,5.428333,545,0.0,13.86
26328001,ST SAUVEUR EN DIOIS,44.682667,5.157833,338,0.0,15.760000000000002
26330001,ST-SORLIN-EN-VA,45.271167,4.930333,237,0.0,15.160000000000002
26340001,SEDERON,44.202333,5.538833,804,0.0,8.32
26361001,VALDROME,44.505333,5.576667,786,0.0,7.68
26377003,VINSOBRES,44.337333,5.060167,346,1.0,18.139999999999997
27016001,LES ANDELYS,49.244667,1.412833,16,0.0,14.720000000000002
27056003,BERNAY,49.101333,0.559833,166,0.0,14.7
27100001,BOULLEVILLE,49.361,0.392833,122,0.0,17.48
27112001,BRETEUIL,48.8375,0.907667,168,0.0,13.959999999999999
27306001,GUICHAINVILLE,48.977,1.181667,147,0.0,16.380000000000003
27347001,EVREUX-HUEST,49.025,1.221667,138,0.0,16.619999999999997
27375001,LOUVIERS,49.204167,1.187167,25,0.0,14.959999999999999
27422001,MUIDS,49.224167,1.2805,31,0.0,14.460000000000003
28051002,BONNEVAL,48.203167,1.417,134,0.0,13.48
28064002,BU_SAPC,48.8015,1.493167,132,0.0,14.719999999999999
28070001,CHARTRES,48.4605,1.501167,155,0.0,15.0
28078001,CHAPELLE-GUILLAUME_SAPC,48.112,0.905833,197,0.0,13.079999999999998
28190002,GUILLONVILLE,48.092833,1.6675,133,0.0,14.34
28195001,HOUX,48.566167,1.620833,107,0.0,12.86
28196003,ILLIERS-COMBRAY_SAPC,48.2835,1.253167,170,0.0,15.12
28198001,CHATEAUDUN,48.061333,1.376333,126,0.0,14.959999999999999
28206001,LAONS,48.706833,1.173167,171,0.0,13.4
28214003,LA LOUPE_SAPC,48.481,1.013333,200,0.0,13.7
28239002,MARVILLE_SAPC,48.652667,1.371833,153,0.0,15.319999999999999
28280001,NOGENT-LE-ROTROU,48.318667,0.797833,108,0.0,14.919999999999998
28322001,RUEIL,48.712167,0.959333,157,0.0,11.92
28363001,SAINVILLE,48.403833,1.903167,149,0.0,16.52
28373002,SENONCHES,48.558,1.012167,239,0.0,13.760000000000002
28380003,SOURS_SAPC,48.406333,1.555167,147,0.0,15.120000000000001
28386001,THIMERT,48.544167,1.302833,225,0.0,13.459999999999999
28406002,EOLE_VIABON,48.214667,1.6755,141,0.0,14.3
28407001,VICHERES,48.257833,0.910167,235,0.0,16.3
29018001,BRENNILIS,48.352667,-3.869,220,0.0,13.6
29022001,CAMARET,48.274333,-4.606,40,1.0,18.02
29041002,CORAY CHAT EAU,48.066,-3.8255,242,2.0,18.92
29075001,BREST-GUIPAVAS,48.453833,-4.391167,92,0.0,16.86
29082001,BATZ,48.746333,-4.011833,32,0.0,15.84
29113001,LANMEUR,48.6625,-3.692667,57,0.0,15.920000000000002
29120001,LANVEOC,48.279333,-4.439333,81,1.0,18.02
29155005,OUESSANT-STIFF,48.473333,-5.057,64,1.0,16.66
29163003,PLEYBER-CHRIST SA,48.5,-3.8535,147,0.0,17.6
29168001,PTE DU RAZ,48.038833,-4.732,67,2.0,19.000000000000004
29170001,PLOMELIN-INRAE,47.946,-4.128,33,1.0,17.080000000000002
29178001,PLOUDALMEZEAU,48.548,-4.664167,40,0.0,16.339999999999996
29179001,PLOUDANIEL-INRAE,48.503833,-4.327667,76,0.0,16.759999999999998
29214001,PLOVAN,47.915833,-4.3775,10,2.0,19.240000000000002
29216001,QUIMPER,47.973,-4.160667,82,1.0,17.7
29249002,SAINT-GOAZEC,48.144667,-3.730833,260,2.0,18.860000000000003
29263002,ST-SEGAL S A,48.225833,-4.09,89,0.0,16.419999999999998
29264001,LANDIVISIAU,48.532,-4.151833,109,0.0,16.82
29276001,SIBIRIL S A,48.660833,-4.079167,52,0.0,16.959999999999997
29277001,SIZUN,48.391333,-4.0205,157,0.0,17.24
29293001,TREGUNC,47.841333,-3.868833,25,2.0,19.18
30003001,AIGUES-MORTES,43.537167,4.207,1,2.0,20.08
30009001,ALZON,43.979,3.444,611,0.0,9.34
30032007,TARASCON,43.829833,4.640167,15,1.0,16.82
30068001,CARDET,44.021,4.079667,109,0.0,13.12
30076001,CAVILLARGUES,44.113,4.518667,131,0.0,14.24
30087002,COLOGNAC,44.021833,3.825,589,0.0,14.319999999999999
30101001,DEAUX,44.071833,4.143667,185,2.0,18.339999999999996
30129001,GENERARGUES,44.073333,3.977667,139,0.0,14.059999999999999
30132004,LA GRAND COMBE,44.243,4.010167,499,2.0,19.439999999999998
30164001,MEJANNES-LE-CLAP,44.216333,4.331,313,0.0,11.440000000000001
30176002,MONTDARDIER,43.947,3.58,640,0.0,17.46
30189001,NIMES-COURBESSAC,43.856833,4.406333,59,1.0,17.740000000000002
30202002,PONT ST ESPRIT,44.248333,4.627333,79,1.0,16.880000000000003
30209002,PUJAUT,43.9985,4.759667,44,1.0,14.88
30224001,LA ROUVIERE,43.931833,4.2405,79,0.0,13.02
30243001,ST CHRISTOL-LES-ALES,44.092167,4.080333,129,0.0,14.639999999999997
30258001,NIMES-GARONS,43.772833,4.412833,94,1.0,16.919999999999998
30263001,ST HIPPOLYTE,43.9615,3.835167,237,0.0,17.18
30269006,ST JEAN DU GARD,44.1105,3.872,196,0.0,13.120000000000001
30297001,ST SAUVEUR CAMPRIEU,44.119333,3.4745,1107,0.0,11.879999999999999
30305001,SALINDRES,44.1745,4.1525,191,0.0,13.059999999999999
30334003,UZES,43.9925,4.401833,72,0.0,12.719999999999999
30339001,MONT AIGOUAL,44.121333,3.5815,1567,0.0,15.440000000000001
30349001,VIC LE FESQ,43.870833,4.072167,45,0.0,12.16
30350001,LE VIGAN,43.99,3.6115,222,0.0,11.54
30352002,VILLEVIEILLE,43.795167,4.090833,41,0.0,14.48
31011001,ARBAS,42.996833,0.906667,402,0.0,12.88
31035001,AUZEVILLE-TOLOSANE-INRAE,43.528833,1.503667,150,0.0,14.9
31037002,AVIGNONET-LAURAGAIS,43.343167,1.805667,193,0.0,14.7
31042012,LUCHON,42.8015,0.600167,618,0.0,11.8
31069001,TOULOUSE-BLAGNAC,43.621,1.378833,151,0.0,16.88
31070004,BLAJAN,43.2565,0.643833,325,0.0,14.580000000000002
31147001,CLARAC,43.106,0.617333,401,0.0,15.719999999999999
31157001,TOULOUSE-FRANCAZAL,43.540333,1.372667,164,0.0,16.32
31299001,MURET-LHERM,43.4515,1.262,189,0.0,14.739999999999998
31374001,MONTESQUIEU-LAURAGAIS,43.417333,1.6365,190,0.0,15.26
31403002,ONDES,43.778333,1.321333,109,0.0,15.260000000000002
31406002,PALAMINY,43.2,1.05,243,0.0,12.76
31451001,REVEL,43.4375,2.018667,338,2.0,18.94
31454001,RIEUMES,43.415167,1.113,261,0.0,13.8
31478001,ST-FELIX-LAURAGAIS,43.441667,1.881167,330,1.0,18.24
31508400,St Paul d Oueil,42.828333,0.55,1107,0.0,13.66
31540001,SEGREVILLE,43.491833,1.7425,212,0.0,15.1
31579001,VILLARIES,43.743667,1.481667,135,0.0,13.580000000000002
32013005,AUCH,43.689,0.601167,122,0.0,13.7
32035001,BEAUCAIRE,43.8425,0.372833,120,0.0,16.1
32107006,CONDOM,43.974333,0.336,173,0.0,19.360000000000003
32132001,FLEURANCE,43.874167,0.672833,108,0.0,15.440000000000001
32147001,GIMONT,43.627667,0.884167,177,0.0,14.960000000000003
32155001,LE HOUGA,43.745833,-0.1775,141,0.0,16.64
32182001,LAHAS,43.5475,0.887833,251,1.0,19.020000000000003
32190001,LANNEPAX,43.792,0.208333,181,0.0,17.18
32245001,MAUMUSSON,43.604333,-0.096667,164,0.0,16.759999999999998
32248001,MAUROUX,43.906833,0.824833,201,2.0,19.18
32256001,MIRANDE,43.530167,0.400833,184,0.0,14.959999999999999
32315001,PEYRUSSE-GRANDE,43.616667,0.222,254,1.0,18.78
32355001,SADEILLAN,43.399,0.349167,263,0.0,15.9
32414001,SARRAGACHIES,43.673167,-0.050833,110,0.0,15.98
33042001,BELIN-BELIET,44.4935,-0.7905,36,0.0,17.46
33042005,BELIN BELIET,44.448,-0.882,45,0.0,14.879999999999999
33063001,BORDEAUX-PAULIN,44.849667,-0.588667,10,2.0,19.880000000000003
33080001,CADAUJAC-INRAE,44.7525,-0.5605,25,0.0,16.419999999999998
33095001,CAPTIEUX,44.295167,-0.2605,96,0.0,13.9
33116001,CAZATS,44.463167,-0.186167,114,0.0,18.139999999999997
33122003,PIERROTON-INRAE,44.738333,-0.776667,60,0.0,14.620000000000001
33195001,GRIGNOLS,44.385667,-0.040333,146,1.0,19.14
33214002,LACANAU,45.001167,-1.138167,16,0.0,18.820000000000004
33236002,CAP-FERRET,44.6305,-1.251667,8,4.0,20.5
33281001,BORDEAUX-MERIGNAC,44.830667,-0.691333,47,1.0,19.16
33314005,PAUILLAC,45.214333,-0.782833,26,0.0,17.6
33394002,ST EMILION,44.917667,-0.188,38,0.0,15.180000000000001
33415001,ST GERVAIS,45.027167,-0.472667,42,0.0,17.36
33482001,ST SULPICE DE POMMIERS,44.683833,-0.12,82,0.0,17.54
33484001,ST-SYMPHORIEN,44.426833,-0.489,54,0.0,14.719999999999999
33494001,SALAUNES,44.935833,-0.828667,50,0.0,16.1
33504001,SAUTERNES,44.544333,-0.326833,65,0.0,18.360000000000003
33529001,CAZAUX,44.534667,-1.132,23,0.0,16.36
33540001,VENDAYS-MONTALIVE,45.378667,-1.119167,6,0.0,14.059999999999999
33550001,VILLENAVE D'ORNON-INRAE,44.79,-0.576667,25,0.0,17.839999999999996
34028003,BEDARIEUX,43.639833,3.146,373,0.0,15.440000000000001
34032002,BEZIERS-COURTADE,43.334333,3.155,25,0.0,12.74
34046005,CAMBON-ET-SALVERGUES,43.622333,2.865333,955,0.0,13.64
34055003,CASTANET LE HAUT_SAPC,43.6675,2.976167,424,0.0,12.860000000000003
34064003,LE CAYLAR_SAPC,43.867167,3.3085,729,0.0,10.419999999999998
34107006,MURAT SUR VEBRE,43.633333,2.8255,1022,0.0,16.2
34142001,LODEVE,43.730333,3.303167,184,0.0,12.219999999999999
34144001,LUNAS,43.695833,3.170667,249,0.0,13.680000000000001
34150001,MARSEILLAN-INRAE,43.328333,3.565333,1,0.0,16.66
34154001,MONTPELLIER-AEROPORT,43.576167,3.964667,1,0.0,17.52
34163001,MONTARNAUD,43.635833,3.688167,148,0.0,14.020000000000001
34174002,MOULES-ET-BAUCELS,43.948,3.752,252,0.0,15.160000000000002
34178001,MURVIEL LES BEZIERS,43.476,3.146,140,1.0,16.56
34205001,LES PLANS,43.786,3.246167,846,1.0,18.92
34209002,BEZIERS-VIAS,43.322,3.352667,15,0.0,15.779999999999998
34217001,PRADES LE LEZ,43.718333,3.866667,69,0.0,12.08
34237001,ROUJAN-INRAE,43.491667,3.321333,73,0.0,14.420000000000002
34239002,ST ANDRE DE SANGONIS,43.664167,3.507833,86,0.0,14.280000000000001
34269001,ST JEAN DE MINERVOIS,43.385667,2.857667,258,1.0,18.9
34274001,ST MARTIN DE LONDRES,43.7795,3.729333,214,0.0,13.039999999999997
34277001,ST MAURICE-NAVACELLE,43.841333,3.522333,584,0.0,11.940000000000001
34301002,SETE,43.397333,3.692167,75,4.0,21.859999999999996
34302001,SIRAN,43.3265,2.675167,137,0.0,17.98
34306001,SOUMONT,43.707,3.3475,252,2.0,20.02
34311001,PEZENAS-TOURBES,43.437667,3.400333,40,0.0,15.36
34317001,LA VACQUERIE_SAPC,43.792,3.457833,620,0.0,12.680000000000001
34319001,VAILHAN,43.546833,3.299333,122,1.0,18.639999999999997
34337001,VILLENEUVE-LES-MAG-INRAE,43.538167,3.853833,20,1.0,17.56
35005001,ARBRISSEL,47.927333,-1.297333,75,0.0,17.66
35026001,BLERUAIS,48.1115,-2.124167,84,0.0,17.38
35044001,BROUALAN,48.485667,-1.640833,99,2.0,19.0
35057003,LA-CHAPELLE-BOUEXIC,47.9215,-1.940833,42,0.0,16.080000000000002
35110003,FEINS  SA,48.326833,-1.596833,87,2.0,18.32
35115001,FOUGERES,48.337167,-1.212667,74,1.0,18.659999999999997
35162003,LOUVIGNE-DU-DESERT,48.479333,-1.129833,153,1.0,18.06
35178001,MEZIERES-SUR-C.,48.308833,-1.439,71,1.0,17.619999999999997
35202001,LA-NOE-BLANCHE,47.780167,-1.765,89,1.0,18.380000000000003
35224001,PLERGUER,48.524833,-1.843667,30,0.0,17.159999999999997
35225001,PLESDER,48.406833,-1.924833,56,0.0,17.44
35228001,DINARD,48.584833,-2.076333,65,2.0,18.42
35238003,RENNES GALLET,48.126167,-1.6435,66,3.0,19.7
35240001,LE RHEU-INRAE,48.1125,-1.781167,38,0.0,17.020000000000003
35281001,RENNES-ST JACQUES,48.068833,-1.734,36,2.0,18.139999999999997
35294001,SAINTE MARIE,47.691333,-2.0045,47,0.0,16.725
35335001,THOURIE,47.845167,-1.4505,67,1.0,17.96
35347001,VAL-D-IZE,48.167667,-1.302167,106,2.0,19.240000000000002
36001001,AIGURANDE,46.436167,1.8225,427,1.0,19.96
36018001,LE BLANC,46.637167,1.073167,117,0.0,16.72
36034002,CHABRIS,47.238,1.7065,91,0.0,14.8
36035002,CHAILLAC_SAPC,46.456667,1.302167,126,0.0,11.940000000000001
36063001,CHATEAUROUX  DEOLS,46.869833,1.741,158,0.0,15.12
36070001,EGUZON,46.436333,1.581,272,0.0,16.72
36088005,ISSOUDUN_SAPC,46.96,2.0285,140,0.0,13.02
36093002,LEVROUX - TREG.,46.948667,1.663,169,0.0,16.080000000000002
36103001,LUCAY-LE-MALE,47.1305,1.441833,119,0.0,14.440000000000001
36113001,MARTIZAY,46.804667,1.040167,80,0.0,14.2
36127002,MONTGIVRAY,46.610167,1.974,204,0.0,13.579999999999998
36139001,NEUILLAY,46.792,1.445667,121,0.0,14.9
36141001,NEUVY-ST-SEP.,46.598333,1.7985,211,0.0,14.84
36147001,ORVILLE,47.136,1.748333,146,0.0,15.280000000000001
36155001,PELLEVOISIN,46.974833,1.406167,161,0.0,18.72
36169001,PRUNIERS,46.7885,2.045,164,0.0,13.060000000000002
36173002,ROSNAY,46.703,1.249833,109,0.0,16.16
36186001,ST-CHRISTOPHE,46.679333,2.1245,265,0.0,18.740000000000002
36192001,ST-GAULTIER,46.6365,1.43,96,0.0,14.780000000000001
36208001,STE-SEVERE,46.488333,2.066667,302,0.0,16.3
36219001,TENDU_SAPC,46.6615,1.588333,155,0.0,15.1
37003001,AMBOISE,47.393833,0.976833,119,0.0,17.340000000000003
37023002,BEAUMONT_SAPC,47.177167,1.211667,126,0.0,16.6
37107001,FERRIERE-LARCON,46.9875,0.875,116,0.0,17.52
37113001,LE GRAND-PRES.,46.921167,0.796333,58,0.0,14.379999999999999
37119001,L'ILE-BOUCHARD,47.114167,0.425167,39,0.0,15.520000000000001
37122001,JOUE-LES-TOURS OB,47.325333,0.661,93,0.0,15.959999999999999
37128002,LIGNIERES-DE-T.,47.293,0.402833,32,0.0,15.36
37170001,NEUVY-LE-ROI,47.608,0.596,103,0.0,15.999999999999996
37179001,TOURS,47.4445,0.727333,108,0.0,17.68
37192001,REIGNAC,47.219333,0.899,90,0.0,14.819999999999999
37213003,ST-CHRISTOPHE-SUR-NAIS,47.6155,0.464333,107,0.0,16.46
37216003,SAINT EPAIN,47.157167,0.604833,112,0.0,17.22
37240001,SAUNAY,47.590333,0.931333,109,0.0,15.460000000000003
37241001,SAVIGNE/LATHAN,47.4415,0.319667,88,0.0,17.54
37242002,SAVIGNY - VERON,47.227,0.149333,33,0.0,16.619999999999997
37253001,SUBLAINES,47.265,0.993167,111,0.0,16.6
38005402,AIGLETON-NIVOSE,45.231,6.038167,2240,0.0,10.52
38021001,AUTRANS,45.182,5.552167,1069,0.0,8.9
38034001,BEAUREPAIRE,45.350333,5.0365,288,0.0,16.4
38046002,COL DE ROSSATIERE,45.4555,5.401,568,0.0,14.760000000000002
38053003,BOURGOIN,45.608,5.309333,358,0.0,17.839999999999996
38095001,CHATTE_SAPC,45.140167,5.306,272,0.0,14.059999999999999
38103002,CHICHILIANNE_SAPC,44.810333,5.580333,984,0.0,10.719999999999999
38133001,COUBLEVIE,45.355333,5.596333,300,0.0,17.68
38153001,ENGINS,45.176167,5.617167,877,0.0,12.3
38162001,FAVERGES,45.594667,5.528833,367,0.0,17.6
38185012,GRENOBLE-CEA-RADOME,45.2115,5.682833,213,0.0,17.659999999999997
38186001,GRESSE,44.899833,5.565667,1220,0.0,10.6
38187400,LE GUA-NIVOSE,45.015,5.588667,1646,0.0,15.3
38191002,ALPE-D'HUEZ,45.087833,6.085667,1860,0.0,10.120000000000001
38207001,LAVALDENS,44.990667,5.883333,1070,0.0,10.139999999999999
38269004,LA MURE- RADOME,44.935,5.786167,885,0.0,7.2
38275002,SERRE-NERPOL_SAPC,45.2845,5.353,632,0.0,17.580000000000002
38285001,ORNON,45.051667,5.987333,950,0.0,13.540000000000001
38299001,PELLAFOL-CHANEAUX,44.784167,5.906167,947,0.0,12.059999999999999
38315002,PONT-DE-BEAUVOISIN,45.528333,5.671333,284,0.0,13.76
38336001,REVENTIN,45.478667,4.810667,295,0.0,18.119999999999997
38342001,ROISSARD,44.882167,5.6395,746,0.0,14.080000000000002
38349001,SABLONS,45.329667,4.768667,136,0.0,15.440000000000001
38362001,ST AUPRE_SAPC,45.392667,5.657333,450,0.0,14.14
38366001,ST-BAUDILLE,44.796,5.796167,1040,0.0,12.32
38375009,ST CHRISTOPHE EN OISANS_SAPC,44.945833,6.188333,1564,0.0,12.7
38375402,LES ECRINS-NIVOSE,44.936833,6.346167,2970,0.0,5.639999999999999
38384001,GRENOBLE-ST GEOIRS,45.364,5.313333,384,0.0,12.919999999999998
38395004,SAINT-HILAIRE_SAPC,45.315,5.884833,990,0.0,15.940000000000001
38395403,ST HILAIRE-NIVOSE,45.313833,5.8635,1756,0.0,14.680000000000001
38442008,ST-PIERRE-LES EGAUX,45.317333,5.803833,950,0.0,12.260000000000002
38446003,ST-PIERRE-D'ENTREMONT,45.411,5.843333,870,0.0,14.820000000000002
38472403,COL DE PORTE-NIVOSE,45.295,5.765333,1325,0.0,15.02
38501001,TENCIN,45.300167,5.951333,233,0.0,14.4
38504001,THEYS,45.302333,5.995667,615,0.0,15.180000000000001
38504002,PIPAY_SAPC,45.265333,6.016,1578,0.0,11.780000000000001
38522004,VALJOUFFREY_SAPC,44.869833,6.090167,1285,0.0,12.76
38524001,VARCES,45.101167,5.697667,253,0.0,13.079999999999998
38527001,VAUJANY,45.149167,6.047167,772,0.0,10.959999999999999
38538002,GRENOBLE - LVD,45.217167,5.8485,220,0.0,15.719999999999999
38548001,VILLARD-DE-LANS,45.0785,5.561,1027,0.0,9.6
38567002,CHAMROUSSE,45.128,5.878333,1730,0.0,13.02
39013004,ARBOIS_SAPC,46.896,5.740167,313,0.0,16.72
39097003,CHAMPAGNOLE,46.756833,5.886,537,0.0,9.58
39130002,CHAUX-DES-PRES-INRAE,46.509,5.865,854,0.0,6.779999999999999
39156001,COGNA,46.5815,5.764667,577,0.0,14.2
39159002,COLONNE,46.867667,5.572167,244,0.0,14.559999999999999
39177001,CRANCOT,46.690167,5.659,509,0.0,11.559999999999999
39198001,DOLE,47.063667,5.496,212,0.0,16.080000000000002
39225002,LE FIED_SAPC,46.768167,5.717333,522,0.0,11.66
39235001,FRAISANS,47.148667,5.768333,254,0.0,16.0
39240001,LE FRASNOIS,46.634333,5.895167,773,0.0,7.62
39362001,LONS LE SAUNIER,46.692833,5.517667,298,0.0,17.68
39413001,LA PESSE,46.302833,5.843,1133,0.0,12.08
39485002,ST JULIEN - SA,46.385167,5.448,361,0.0,10.98
39526003,TAVAUX SA,47.043833,5.427333,195,0.0,15.02
40031001,BEGAAR,43.833167,-0.836,19,0.0,15.62
40033001,BELIS,44.063833,-0.453833,85,0.0,12.88
40046001,BISCARROSSE,44.431667,-1.2475,35,3.0,20.380000000000003
40065002,CAPBRETON,43.627333,-1.453333,11,1.0,18.24
40087001,CREON D'ARMAGNAC,43.9935,-0.045,150,0.0,14.62
40088001,DAX,43.689833,-1.07,31,0.0,18.32
40134001,LABOUHEYRE DFCI,44.213333,-0.915333,72,0.0,17.3
40164004,CAPTIEUX-RETJONS,44.185,-0.286167,131,0.0,16.18
40192001,MONT-DE-MARSAN,43.909833,-0.500167,59,0.0,15.819999999999999
40218002,PARLEBOSCQ,43.936667,0.044167,155,0.0,16.82
40227001,PISSOS,44.313667,-0.787333,56,0.0,13.2
40243001,RION-DES-LANDES,43.916333,-0.950833,77,0.0,15.24
40246003,SABRES,44.153667,-0.859,81,0.0,13.4
40272002,ST M HINX STNA-INRAE,43.570833,-1.299333,37,0.0,16.720000000000002
40286001,SAMADET,43.640667,-0.488833,134,0.0,18.16
40304001,SOORTS-HOSSEGOR,43.669833,-1.426333,10,0.0,18.419999999999998
40321002,URGONS,43.639667,-0.435167,146,0.0,17.48
41018001,BLOIS - VILLE,47.572,1.3375,69,0.0,15.6
41050002,CHEVERNY,47.505167,1.436333,99,0.0,14.540000000000001
41053001,CHOUE,47.969167,0.912833,163,0.0,17.880000000000003
41075003,DROUE - MORACHE,48.016167,1.031667,206,0.0,16.580000000000002
41080001,FAVEROLLES,47.331833,1.1655,77,0.0,16.18
41097001,ROMORANTIN,47.319667,1.6875,83,0.0,12.120000000000001
41106001,LAMOTTE-BEUVRON,47.6105,2.012,117,0.0,13.959999999999999
41152001,MONTRIEUX,47.535833,1.7305,96,0.0,13.7
41173003,OUZOUER,47.904,1.521667,128,0.0,16.02
41269001,VENDOME,47.826667,1.054333,115,0.0,15.940000000000001
41281001,BLOIS,47.6785,1.212333,119,0.0,16.16
41285001,VILLENY,47.610667,1.743667,127,0.0,16.880000000000003
42005001,ST ETIENNE-BOUTHEON,45.545667,4.293833,395,0.0,13.38
42011001,BALBIGNY,45.820167,4.192,336,0.0,13.8
42019005,BOEN-SUR-LIGNON_SAPC,45.756167,4.0015,513,0.0,14.959999999999999
42023004,BOURG-ARGENTAL,45.298667,4.5735,514,0.0,17.380000000000003
42034001,COL DE CERVIERES,45.850667,3.766167,804,0.0,16.839999999999996
42039003,CHALMAZEL_RA,45.699,3.844,990,0.0,10.54
42040001,COL DE LA LOGE_SAPC,45.743833,3.780333,1261,0.0,15.339999999999998
42059001,CHAZELLES-LYON,45.642333,4.396333,632,0.0,17.160000000000004
42094003,FEURS,45.7385,4.233833,347,0.0,14.719999999999999
42098001,FOURNEAUX,45.941167,4.269167,510,0.0,16.48
42101001,PILAT GRAIX,45.361167,4.559833,1164,0.0,16.16
42102002,GRAMMOND_SAPC,45.564833,4.442833,803,0.0,17.96
42145003,MONTAGNY,46.015667,4.222333,460,0.0,15.48
42152001,NANDAX,46.097,4.191333,374,0.0,15.02
42159001,NOIRETABLE,45.812667,3.7605,714,0.0,11.64
42165003,PANISSIERES,45.804333,4.333833,614,0.0,17.0
42204002,ST-BONNET-LE-CHATEAU_SAPC,45.436167,4.072,822,0.0,16.3
42207005,ST-CHAMOND-P,45.491,4.534167,394,0.0,17.98
42218011,SAINT-ETIENNE,45.435333,4.368167,640,0.0,15.719999999999999
42224003,COL REPUBLIQUE,45.352667,4.470833,1071,0.0,15.439999999999998
42227001,ST GEORGES EN C,45.701667,3.9555,496,0.0,12.6
42239001,ST-MAURICE-SUR-LOIRE,45.975,4.006,395,0.0,16.02
42248002,ST-JUST-EN-CHEV,45.9085,3.844167,612,0.0,10.8
42253001,ROANNE-RIORGES_AERO,46.055,4.0045,337,0.0,13.819999999999999
42287001,ST SAUVEUR EN R,45.2685,4.503667,783,0.0,15.52
42299001,SAVIGNEUX,45.624833,4.078667,370,0.0,12.04
42306001,TARENTAISE,45.369,4.4985,1090,0.0,12.44
42322001,LA VALLA EN GIE,45.429167,4.511,609,0.0,16.64
43003001,ALLEGRE,45.203,3.718167,1035,0.0,13.02
43014001,AUTRAC,45.328667,3.131833,807,0.0,16.96
43020002,BAS-EN-BASSET,45.319667,4.129,446,0.0,11.239999999999998
43037001,LE BOUCHET-ST-NICOLAS,44.885,3.7905,1218,0.0,12.72
43046001,LE PUY-CHADRAC,45.054667,3.8945,714,0.0,12.080000000000002
43062001,LE PUY-LOUDES,45.0745,3.764,833,0.0,11.26
43067001,CHAVANIAC-LAFAYETTE,45.1595,3.582,715,0.0,12.839999999999998
43071001,CHOMELIX,45.2575,3.826833,886,0.0,9.84
43091005,LES ESTABLES_SAPC,44.9005,4.161,1350,0.0,10.66
43093001,FELINES_SAPC,45.265833,3.742833,1014,0.0,10.18
43095001,FIX-ST-GENEYS,45.145833,3.665,1102,0.0,13.52
43096001,FONTANNES,45.300333,3.419667,435,0.0,13.040000000000001
43104001,GREZES,44.9205,3.4905,1106,0.0,13.479999999999999
43111002,LANDOS-CHARBON,44.858,3.843667,1148,0.0,12.2
43118001,LAVOUTE-CHILHAC,45.155833,3.41,491,0.0,11.4
43130002,MAZET-VOLAMONT,45.025,4.239833,1130,0.0,14.6
43137003,MONISTROL-SUR-LOIRE,45.314,4.231167,777,0.0,14.98
43150001,LE PERTUIS_SAPC,45.098833,4.061333,1020,0.0,14.1
43162001,RETOURNAC,45.203833,4.030167,535,0.0,11.86
43212002,ST-PAL-DE-CHALENCON,45.344833,3.9665,960,0.0,15.64
43223001,ST-ROMAIN-LACHALM,45.2615,4.3275,902,0.0,11.219999999999999
43234005,SAUGUES-SA,44.966167,3.539833,945,0.0,7.659999999999999
43241002,SOLIGNAC-SUR-LO,44.973667,3.882667,832,0.0,11.98
43244003,TENCE,45.1165,4.277167,848,0.0,10.1
43246001,TIRANGES,45.268333,3.998667,603,0.0,12.1
43268004,YSSINGEAUX,45.135167,4.1275,873,0.0,12.1
44015001,BLAIN,47.472833,-1.771667,13,0.0,16.619999999999997
44020001,NANTES-BOUGUENAIS,47.15,-1.608833,26,2.0,19.28
44067001,GUEMENE-PENFAO,47.625333,-1.889833,33,0.0,15.919999999999998
44072002,HERBIGNAC,47.4265,-2.3365,22,0.0,17.8
44103001,ST NAZAIRE-MONTOIR,47.313833,-2.1545,3,0.0,17.36
44109012,NANTES-VILLE,47.227667,-1.514,17,0.0,17.700000000000003
44110002,NORT-SUR-ERDRE,47.425167,-1.513667,13,0.0,18.139999999999997
44113001,NOZAY,47.572833,-1.6115,44,0.0,17.32
44117002,LE PALLET_SAPC,47.1415,-1.336833,35,0.0,18.16
44120002,PELLERIN(LE),47.210333,-1.828667,4,0.0,17.059999999999995
44129001,PONTCHATEAU,47.439667,-2.105167,34,1.0,18.68
44131002,PORNIC,47.122,-2.0925,25,2.0,18.32
44180005,ST-MARS-LA-JAIL,47.526167,-1.185333,32,0.0,18.979999999999997
44181001,ST-MEME-LE-TENU,47.005667,-1.7825,4,0.0,16.92
44188001,ST-PHILBERT,47.029167,-1.652833,18,0.0,16.0
45004001,AMILLY,47.962167,2.728,91,0.0,12.7
45055001,ORLEANS,47.990667,1.778167,123,0.0,15.4
45069001,CHAMBON-LA-F.,48.025167,2.260333,143,0.0,16.14
45145001,FERRIERES,48.113167,2.857833,107,0.0,16.3
45187001,LORRIS,47.881167,2.505167,125,0.0,13.779999999999998
45193001,MARCILLY-EN-V.,47.769167,2.021833,127,0.0,15.02
45199003,MELLEROY_SAPC,47.897333,2.952,165,0.0,15.419999999999998
45245001,OUZOUER_SUR_TREZEE,47.672,2.809833,150,0.0,13.860000000000003
45253001,PITHIVIERS-LE-V,48.166333,2.228333,120,0.0,17.140000000000004
45270002,ST-BENOIT/LOIRE,47.808,2.305667,112,0.0,14.7
45340002,VILLEMURLIN,47.6935,2.366167,144,0.0,13.540000000000001
46005001,ANGLARS,44.493333,1.208167,104,0.0,14.6
46031001,BLARS,44.572,1.722,281,0.0,11.040000000000001
46038002,BRETENOUX,44.9125,1.838333,136,0.0,13.279999999999998
46071001,COMIAC,44.965333,2.0,562,0.0,17.6
46100001,FAYCELLES,44.575333,2.004667,342,0.0,17.98
46127001,GOURDON,44.745,1.396667,260,0.0,17.6
46128002,GRAMAT - PARC,44.760167,1.7255,312,0.0,13.0
46143001,LACAPELLE,44.7305,1.925167,396,1.0,17.939999999999998
46160001,LATRONQUIERE,44.8,2.067833,658,1.0,19.48
46173006,LIMOGNE,44.398167,1.775,303,0.0,14.76
46176001,LIVERNON,44.6485,1.847,308,0.0,12.72
46181001,LUNEGARDE,44.6785,1.6895,383,0.0,18.959999999999997
46197002,LE MONTAT,44.373667,1.435,260,0.0,15.959999999999999
46201001,MONTCUQ - ROUIL,44.3125,1.213833,193,0.0,18.119999999999997
46287001,SAINT-PAUL-FLAUGNAC,44.293833,1.454667,266,0.0,17.68
46330002,VAYRAC - BROUSS,44.969667,1.701333,152,0.0,13.48
46332001,VIAZAC - LABOUD,44.6625,2.073833,394,0.0,16.4
47004001,AIGUILLON,44.283167,0.334667,32,0.0,13.9
47038002,BOURRAN-INRAE,44.331833,0.413167,55,0.0,15.120000000000001
47086001,DURAS,44.685667,0.2065,112,1.0,19.060000000000002
47091001,AGEN-LA GARENNE,44.172167,0.594667,58,0.0,14.7
47093002,FARGUES-SUR-OURBISE,44.235833,0.186333,124,0.0,13.02
47123002,LACAPELLE-BIRON,44.585667,0.900333,235,4.0,20.879999999999995
47138001,LAROQUE-TIMBAUT,44.265667,0.775167,186,0.0,18.16
47163001,MAUVEZIN-SUR-GUPIE,44.5615,0.160333,95,0.0,18.840000000000003
47175001,MONFLANQUIN,44.532,0.734167,118,0.0,15.84
47213001,PRAYSSAS,44.310833,0.570667,196,2.0,20.6
47221001,REAUP,44.091667,0.193333,158,0.0,18.46
47254001,SAINT-MARTIN-CURTO,44.345333,0.042833,144,1.0,19.580000000000002
47323004,VILLENEUVE-SUR-LOT,44.3975,0.764,59,0.0,14.76
47327001,XAINTRAILLES,44.205,0.261167,190,2.0,20.1
48004001,ALTIER,44.494,3.852,900,0.0,16.78
48009001,AUMONT AUBRAC,44.727167,3.279833,1018,0.0,6.94
48020003,BASSURELS,44.1965,3.630667,1042,0.0,14.540000000000001
48027002,LE BLEYMARD BOURG,44.504667,3.737667,1199,0.0,13.539999999999997
48027003,LE BLEYMARD_SAPC,44.4515,3.748167,1418,0.0,14.6
48032003,LE BUISSON,44.633333,3.238167,1088,0.0,7.32
48036001,CASSAGNAS,44.270333,3.763333,802,0.0,10.94
48043001,CHATEAUNEUF-DE-RANDON,44.638167,3.679833,1247,0.0,10.920000000000002
48045004,CHAUDEYRAC,44.6595,3.779667,1225,0.0,10.74
48051002,LE COLLET-SAUVEPLANE,44.256,3.925667,485,0.0,16.68
48060001,FAU DE PEYRE,44.763167,3.211833,1163,0.0,12.919999999999998
48061002,FLORAC,44.309,3.596333,618,0.0,10.26
48069001,GATUZIERES_SAPC,44.195333,3.499,965,0.0,14.76
48070004,GRANDRIEU,44.780667,3.633833,1163,0.0,5.000000000000001
48094001,LE MASSEGROS,44.295667,3.165667,890,0.0,14.26
48095004,MENDE-VILLE,44.516833,3.489833,710,0.0,9.98
48095005,MENDE,44.533667,3.4545,932,0.0,13.440000000000001
48103001,MONTRODAT,44.545833,3.3125,746,0.0,11.52
48108001,LA PANOUSE_SAPC,44.728667,3.589333,1260,0.0,9.940000000000001
48110001,PAULHAC EN MARGERIDE_SAPC,44.947667,3.38,1170,0.0,11.620000000000001
48116001,LE PONT-DE-MONTVERT,44.365667,3.738333,875,0.0,11.5
48130002,ROUSSES_SAPC,44.206833,3.5845,812,0.0,11.620000000000001
48146001,STE ENIMIE-SAUVETERRE,44.408667,3.438167,1018,0.0,14.919999999999998
48148004,ST-ETIENNE-VALLEE-FRANCAISE,44.165833,3.854167,518,0.0,18.479999999999997
48156002,ST GERMAIN DU TEIL,44.478,3.160667,775,0.0,13.220000000000002
48176002,ST PIERRE-DES-TRIPIERS,44.2465,3.3035,929,0.0,13.540000000000001
48186001,LA SALLE PRUNET,44.315667,3.650667,903,0.0,14.5
48187003,LES SALCES-FROMENTAL,44.532667,3.155167,1075,0.0,13.8
48198001,VILLEFORT,44.441667,3.928333,620,0.0,13.680000000000001
49007011,ANGERS VILLE,47.4535,-0.5605,35,4.0,20.479999999999997
49008001,ANGRIE,47.561667,-0.970333,65,0.0,16.119999999999997
49020001,BEAUCOUZE,47.479,-0.614333,50,0.0,18.04
49022001,BEAULIEU-S-LAY,47.308,-0.598333,78,0.0,18.020000000000003
49027001,BEGROLLES,47.152167,-0.937667,100,0.0,16.0
49099003,CHOLET,47.0795,-0.8805,134,3.0,19.98
49138001,FONTAINE-GUERIN,47.493167,-0.167833,41,0.0,18.18
49176001,LE LION D'ANG.,47.6135,-0.735167,52,0.0,17.439999999999998
49188001,MARCE,47.561833,-0.317,53,0.0,17.479999999999997
49191001,MARTIGNE-BRIAND,47.2525,-0.435833,73,0.0,17.32
49215002,MONT-BELLAY-INRAE,47.13,-0.1415,58,0.0,18.06
49248003,POUANCE_SAPC,47.74,-1.188333,96,1.0,18.740000000000002
49276001,ST FLORENT VIEI,47.355333,-1.011833,21,0.0,17.16
49281001,ST GEORGES GARD,47.150667,-0.7395,203,4.0,20.78
49307001,ST MATHURIN S L,47.425667,-0.319167,20,0.0,16.8
49328001,SAUMUR,47.252167,-0.074333,69,4.0,20.4
49331003,SEGRE_SAPC,47.679167,-0.873333,25,0.0,18.000000000000004
49368001,VERNANTES,47.406833,0.018833,41,0.0,16.240000000000002
49373001,VIHIERS,47.148,-0.517167,124,2.0,19.560000000000002
50020001,PTE DE LA HAGUE,49.725167,-1.939833,6,0.0,15.419999999999998
50082001,BRICQUEBEC,49.462,-1.650333,38,0.0,13.520000000000001
50111001,CERISY LA SALLE,49.036333,-1.298167,134,2.0,19.0
50139001,CONDE SUR VIRE_SAPC,49.050833,-1.0405,28,0.0,15.520000000000001
50144001,COULOUVRAY-BOISBENATRE,48.785333,-1.103667,268,3.0,20.7
50147001,COUTANCES,49.044,-1.457833,80,2.0,19.0
50174001,EQUILLY,48.8345,-1.388667,101,0.0,16.9
50209001,GONNEVILLE,49.652667,-1.4635,134,1.0,17.52
50215002,GOUVILLE,49.1075,-1.606833,7,0.0,17.720000000000002
50277001,LONGUEVILLE,48.862,-1.573,5,2.0,19.5
50298001,MEAUTIS,49.2595,-1.299167,15,0.0,15.620000000000001
50410003,PONTORSON,48.585667,-1.505167,33,0.0,18.3
50456001,ST-CLEMENT,48.673333,-0.886667,269,2.0,19.52
50484002,ST-HILAIRE-DU-H,48.563667,-1.096667,95,0.0,16.880000000000003
50509002,STE MARIE DU MO,49.4045,-1.168333,5,0.0,14.88
50514001,CHAULIEU_SAPC,48.7635,-0.842333,278,2.0,18.759999999999998
50531001,ST OVIN,48.6825,-1.248667,155,4.0,20.92
50562001,ST VAAST LA HOUGUE,49.572667,-1.274667,17,0.0,17.14
51015001,ARGERS,49.064333,4.849833,152,0.0,11.94
51153001,CHOUILLY,49.017833,3.981667,172,0.0,17.64
51210001,DIZY,49.069333,3.966167,92,0.0,14.919999999999998
51237002,ESTERNAY,48.742,3.579667,185,0.0,13.5
51242001,FAGNIERES-INRAE,48.939833,4.3085,105,0.0,14.419999999999998
51262001,FRIGNICOURT,48.701167,4.618,113,0.0,11.979999999999999
51298001,IGNY-COMBLIZY,49.016667,3.716833,225,0.0,15.16
51388003,MOURMELON-GRAND,49.1075,4.3585,115,0.0,10.52
51449002,REIMS-PRUNAY,49.209833,4.155333,95,0.0,11.72
51545001,SOMMESOUS,48.734167,4.2075,167,0.0,12.72
51588001,VALMY,49.085,4.775833,161,0.0,12.9
51590002,VANAULT,48.849667,4.771833,140,0.0,13.420000000000002
51595002,VATRY-AERO,48.777167,4.164667,179,0.0,14.76
52023002,AUBERIVE_SAPC,47.783,5.0535,349,0.0,9.36
52055001,BLECOURT,48.384167,5.067,348,0.0,16.22
52061002,BOURDONS_SAPC,48.162333,5.349667,304,0.0,8.54
52074002,BREUVANNES_SAPC,48.094333,5.602167,323,0.0,10.040000000000001
52084002,BUSSON_SAPC,48.328833,5.3605,387,0.0,13.059999999999999
52114001,CHATEAUVILLAIN,48.047,4.908,227,0.0,9.92
52123003,CHEVILLON_SAPC,48.522833,5.113833,170,0.0,11.94
52131002,CIRFONTAINES_SAPC,48.456167,5.394667,379,0.0,13.86
52145001,COUBLANC,47.692,5.460167,258,0.0,12.419999999999998
52197003,FAYL-BILLOT_SAPC,47.784333,5.615333,347,0.0,14.440000000000001
52248002,IS-EN-BASSIGNY,48.022167,5.455333,403,0.0,13.279999999999998
52269001,LANGRES,47.843667,5.3375,466,0.0,17.619999999999997
52294001,LOUVEMONT - MAN,48.560333,4.909833,146,0.0,12.64
52332001,VAL-DE-MEUSE,48.0215,5.586833,380,0.0,11.940000000000001
52348003,NEUILLY-L'EVEQUE_SAPC,47.918,5.435833,353,0.0,11.080000000000002
52443001,SAILLY,48.433833,5.272833,270,0.0,11.9
52447001,ST-CIERGUES,47.882333,5.2615,359,0.0,12.440000000000001
52448001,ST-DIZIER,48.631333,4.903667,139,0.0,15.4
52450002,SAINT-LOUP-SUR-AUJON_SAPC,47.895,5.092167,310,0.0,10.14
52469001,CHAUMONT-SEMOUTIERS,48.092167,5.046,294,0.0,11.220000000000002
52529001,VILLEGUSIEN,47.7385,5.313833,296,0.0,11.040000000000001
53077001,COSSE-LE-VIVIEN,47.964333,-0.927,95,0.0,18.639999999999997
53078001,COUDRAY,47.788167,-0.645333,55,0.0,17.52
53083001,COURCITE_SAPC,48.318667,-0.222333,172,0.0,14.439999999999998
53096004,ERNEE,48.295667,-0.9625,168,1.0,18.86
53097001,EVRON,48.168,-0.388,107,4.0,20.759999999999998
53110002,GREZ-EN-BOUERE,47.891,-0.542333,93,0.0,15.6
53116003,LE HORPS,48.405667,-0.440833,268,3.0,20.020000000000003
53130008,LAVAL-ETRONNIER,48.030667,-0.7465,100,0.0,18.339999999999996
53147001,MAYENNE,48.311167,-0.640167,138,4.0,20.5
53159002,MONTOURTIER_SAPC,48.209833,-0.538667,107,0.0,15.680000000000001
53185001,PRE-EN-PAIL_SAPC,48.452,-0.183167,277,5.0,21.38
54040001,BADONVILLER,48.498,6.896167,336,0.0,12.559999999999999
54113002,CHAMPENOUX-ARBO-INRAE,48.750667,6.340167,255,0.0,13.88
54171001,DONCOURT-LES-CONFLANS,49.1535,5.929333,235,0.0,11.48
54181001,ERROUVILLE_SAPC,49.42,5.909833,373,0.0,14.62
54182001,ESSEY-ET-MAIZE.,48.919333,5.809167,218,0.0,10.44
54322001,LONGUYON,49.431667,5.612833,257,0.0,14.12
54405001,NANCY-OCHEY,48.581,5.959833,336,0.0,14.2
54407001,OGNEVILLE,48.475,6.067667,300,0.0,12.84
54415001,PAGNY-SUR-MOSELLE,48.983833,6.031167,179,0.0,14.279999999999998
54481001,ST MAURICE,48.514833,6.845667,305,0.0,12.48
54526001,NANCY-ESSEY,48.687833,6.2215,212,0.0,13.520000000000001
54582001,VILLETTE,49.482167,5.578167,345,0.0,16.88
55014001,AUBREVILLE_SAPC,49.133833,5.0935,202,0.0,11.52
55041001,BEHONNE_SAPC,48.795667,5.1885,301,0.0,15.319999999999999
55060002,BONZEE_SAPC,49.092833,5.601167,235,0.0,11.64
55067001,BOVIOLLES,48.648667,5.415,272,0.0,11.459999999999999
55073001,BRAS-SUR-MEUSE,49.208333,5.379167,194,0.0,12.32
55108004,CHAUMONT_SAPC,48.931333,5.264667,294,0.0,14.040000000000001
55123002,CONDE_SAPC,48.867167,5.182167,265,0.0,15.48
55129001,COUROUVRE,48.936833,5.358333,324,0.0,15.420000000000002
55179001,ERNEVILLE AUX BOIS_SAPC,48.7495,5.403833,313,0.0,11.3
55248001,HOUDELAINCOURT,48.563,5.5055,390,0.0,16.240000000000002
55328001,MAXEY-SUR-VAISE,48.538167,5.668833,256,0.0,11.2
55364001,MOUZAY,49.460167,5.209167,166,0.0,12.099999999999998
55386002,NONSARD,48.934167,5.763833,230,0.0,12.32
55443001,ROUVRES-EN-WOEVRE,49.224667,5.6875,226,0.0,12.780000000000001
55484001,SEPTSARGES,49.276333,5.155,293,0.0,15.440000000000001
55517002,TRIAUCOURT_SAPC,48.983167,5.065167,185,0.0,13.560000000000002
55531001,VASSINCOURT,48.808667,5.033167,187,0.0,15.2
56004001,ARZAL,47.512667,-2.382667,26,2.0,18.8
56007001,AURAY,47.659167,-2.971,26,2.0,18.799999999999997
56009001,BELLE ILE-LE TALUT,47.294333,-3.218333,37,2.0,20.56
56009003,BELLE-ILE_AERO,47.325667,-3.196833,52,0.0,18.119999999999997
56017003,BIGNAN,47.884333,-2.728833,112,0.0,16.7
56031001,CAMORS,47.823833,-2.991667,112,0.0,17.62
56069001,ILE DE GROIX,47.652333,-3.502333,41,2.0,19.6
56137001,VANNES-MEUCON,47.722,-2.727,132,0.0,17.66
56144001,NAIZIN-INRAE,48.005333,-2.8165,132,1.0,17.919999999999998
56151001,PONTIVY AERODROME,48.055667,-2.916667,125,0.0,17.48
56159001,PLEUCADEUC,47.7655,-2.387167,65,0.0,15.1
56163001,PLOERDUT,48.090667,-3.308833,179,0.0,14.26
56165003,PLOERMEL,47.950833,-2.3975,65,0.0,17.060000000000002
56166005,PLOUAY-SA,47.916167,-3.3445,75,1.0,17.619999999999997
56185001,LORIENT-LANN BIHOUE,47.762833,-3.435667,45,1.0,17.9
56186003,QUIBERON-AERODROME,47.479833,-3.099,9,1.0,17.76
56240003,SARZEAU SA,47.510667,-2.796,35,2.0,18.68
56243001,VANNES-SENE,47.6045,-2.714167,3,2.0,18.98
57019001,MALANCOURT,49.218833,6.057,346,0.0,16.360000000000003
57039001,METZ-FRESCATY,49.0695,6.125333,192,0.0,14.220000000000002
57119001,BUHL-LORRAINE,48.7195,7.079833,258,0.0,11.080000000000002
57168001,PHALSBOURG_SAPC,48.766667,7.305833,377,0.0,18.28
57251001,AEROPORT METZ-NANCY-LORRAINE,48.979333,6.243167,260,0.0,14.98
57253001,GONDREXANGE,48.688,6.9285,266,0.0,11.4
57322001,HESTROFF_SAPC,49.255667,6.433333,221,0.0,10.559999999999999
57357002,KAPPELKINGER_SAPC,48.978833,6.9035,224,0.0,11.24
57395001,LESSE_SAPC,48.965833,6.508,233,0.0,10.4
57465001,METZERVISSE,49.306333,6.283167,226,0.0,13.76
57469002,MITTERSHEIM,48.859167,6.934833,233,0.0,12.120000000000001
57489001,MOUTERHOUSE,48.9845,7.4525,265,0.0,11.219999999999999
57509002,NITTING_SAPC,48.667833,7.031,266,0.0,10.819999999999999
57524001,OMMERAY_SAPC,48.724333,6.690833,219,0.0,10.14
57550001,PORCELETTE,49.159667,6.645667,250,0.0,10.48
57557001,PUTTELANGE-LES-THIONVILLE,49.481667,6.259,190,0.0,13.7
57587003,RODALBE,48.909833,6.693167,258,0.0,12.639999999999999
57623003,TURQUESTEIN-BLANCRUPT_SAPC,48.568167,7.09,352,0.0,11.66
57644001,SEINGBOUSE,49.127667,6.831,347,0.0,15.940000000000001
57689001,VALMESTROFF,49.356833,6.262,203,0.0,13.8
57730001,BOULAY,49.1655,6.443,214,0.0,12.419999999999998
57732001,VOLMUNSTER,49.124,7.381833,358,0.0,13.66
57740001,WALDWISSE,49.417,6.505833,291,0.0,13.479999999999999
58019001,AVREE,46.820667,3.905,302,0.0,15.4
58023001,BAZOCHES_SAPC,47.359667,3.790333,351,0.0,15.580000000000002
58061001,CHASNAY,47.233833,3.168167,213,0.0,13.180000000000001
58062001,CHATEAU CHINON,47.070333,3.934333,598,0.0,17.72
58079004,CLAMECY,47.441,3.509,215,0.0,13.76
58104001,DORNES,46.720333,3.3555,220,0.0,10.180000000000001
58106005,DUN_SAPC,47.312833,4.046833,598,0.0,16.880000000000003
58132001,GUIPY_SAPC,47.212833,3.570333,274,0.0,15.180000000000001
58145002,LORMES_SAPC,47.267167,3.858333,485,4.0,20.6
58148001,LUTHENAY UXELOU,46.8465,3.288833,230,0.0,13.959999999999999
58149001,LUZY,46.807,3.9625,300,0.0,15.440000000000001
58160001,NEVERS-MARZY,46.999333,3.1145,175,0.0,11.88
58177001,MONTIGNY EN MORVAN_SAPC,47.161333,3.855667,285,0.0,11.34
58199001,ONLAY,46.981333,3.910833,375,0.0,16.36
58218006,PREMERY,47.170333,3.3695,260,0.0,11.24
58264001,ST PIERRE LE MOUTIER,46.798833,3.113667,218,0.0,15.84
58304005,VARZY_SAPC,47.368333,3.386,226,0.0,11.38
59178001,DOUAI,50.3895,3.067167,26,0.0,15.439999999999998
59183001,DUNKERQUE,51.055833,2.3395,11,0.0,16.779999999999998
59343001,LILLE-LESQUIN,50.57,3.0975,47,0.0,17.2
59392001,MAUBEUGE,50.271667,3.9665,142,0.0,16.160000000000004
59512001,ROUBAIX,50.7075,3.180333,30,1.0,16.72
59534001,ST-HILAIRE-SUR-HELPE,50.1455,3.925167,185,0.0,14.819999999999999
59580003,STEENVOORDE,50.829833,2.568833,42,1.0,16.259999999999998
59604001,TROISVILLES,50.098,3.463667,125,0.0,13.819999999999999
59606004,VALENCIENNES,50.328333,3.461,50,0.0,14.579999999999998
59647001,WATTEN,50.833833,2.213333,7,1.0,14.939999999999998
60040001,BAILLEUL-LE-SOC,49.423667,2.579667,131,0.0,15.48
60107001,BREUIL-LE-VERT,49.3645,2.432833,57,0.0,13.420000000000002
60260001,FRESNOY-LA-RIVIERE,49.284833,2.918333,61,0.0,13.579999999999998
60276001,GODENVILLERS,49.586167,2.554167,92,0.0,15.559999999999999
60322001,JAMERICOURT,49.3065,1.8795,113,0.0,13.0
60363001,LIERVILLE,49.193333,1.895,105,0.0,14.86
60382001,MARGNY-LES-COMPIEGNE,49.4315,2.803667,92,0.0,16.580000000000002
60445001,NAMPCEL,49.495,3.087667,152,0.0,15.4
60500004,PLESSIS-BELLEVILLE,49.106,2.737167,116,0.0,14.24
60518001,PUITS-LA-VALLEE,49.5815,2.191167,168,0.0,16.139999999999997
60555002,ROUVROY-LES-MERLES,49.650333,2.370833,94,0.0,12.139999999999999
60566001,SAINT-ARNOULT,49.623333,1.790833,206,0.0,15.579999999999998
60623001,SONGEONS,49.545167,1.852333,113,0.0,13.039999999999997
60639001,BEAUVAIS-TILLE,49.4465,2.127167,89,0.0,13.160000000000002
60652001,VALDAMPIERRE,49.303167,2.048333,171,0.0,16.22
61001001,ALENCON,48.4455,0.110167,143,0.0,16.82
61006005,ARGENTAN,48.718167,0.0115,170,0.0,15.48
61124001,COULONCHE  -LA-,48.6445,-0.459167,309,4.0,20.759999999999998
61169003,FLERS,48.75,-0.5895,195,0.0,15.26
61179001,FRESNAYE-AU-SAUVAGE_SAPC,48.722333,-0.263667,229,1.0,18.6
61214002,L AIGLE,48.7585,0.662333,232,0.0,13.3
61275001,LE MERLERAULT_SAPC,48.711167,0.299,236,1.0,18.82
61328001,PIN AU HARAS-INRAE,48.725,0.180833,202,0.0,18.7
61345003,REMALARD,48.434,0.777667,158,0.0,15.88
61369001,ST BOMER-LES-FORGES,48.644667,-0.6235,226,0.0,17.520000000000003
61377001,ST CORNIER-DES-LANDES,48.7235,-0.7295,306,3.0,20.38
61387001,ST-FRAIMBAULT,48.504333,-0.7025,158,0.0,17.860000000000003
61404001,ST-HILAIRE,48.555833,0.5295,242,0.0,19.2
61426001,BELLEME_SAPC,48.373833,0.55,168,1.0,18.639999999999997
61464001,SEES,48.592,0.1725,195,0.0,15.52
61479001,TANQUES,48.674833,-0.079667,171,0.0,14.4
61483002,BAGNOLES-DE-L_ORNE,48.541167,-0.414833,151,0.0,15.0
61485002,TICHEVILLE_SAPC,48.913,0.245,225,0.0,18.880000000000003
61491002,TOUROUVRE_SAPC,48.585,0.667167,217,0.0,14.719999999999999
62044001,ATTIN,50.485333,1.765833,21,1.0,16.2
62054001,CAP-GRIS-NEZ,50.869667,1.582833,48,0.0,16.52
62076002,BAINGHEN_SAPC,50.750833,1.906667,117,1.0,16.479999999999997
62160001,BOULOGNE-SEM,50.7325,1.599667,73,1.0,19.02
62298001,CAMBRAI-EPINOY,50.2255,3.163833,76,0.0,14.579999999999998
62333001,FIEFS,50.502667,2.3255,180,0.0,16.48
62468001,HUMIERES_SAPC,50.3915,2.223333,127,0.0,16.5
62516002,LILLERS,50.5795,2.4965,19,0.0,13.8
62548002,CALAIS-MARCK,50.959833,1.956167,2,0.0,13.8
62613001,NIELLES-LES-BLEQUIN_SAPC,50.6725,2.061833,145,1.0,15.1
62685001,RADINGHEM,50.549167,2.113667,115,0.0,15.939999999999998
62784001,SAULTY,50.222167,2.522167,174,0.0,16.6
62826001,LE-TOUQUET,50.5145,1.622833,5,0.0,16.06
62873001,ARRAS,50.255833,2.87,74,0.0,14.680000000000001
63003004,AMBERT,45.516833,3.742667,555,0.0,10.180000000000001
63006002,ANZAT-LE-LUGUET_SAPC,45.320167,3.016,1270,0.0,13.559999999999999
63038002,SUPERBESSE,45.501667,2.865833,1287,0.0,15.48
63077001,CHAMBON-SUR-LAC,45.572667,2.897,897,0.0,12.12
63089001,CHAPPES,45.860667,3.214333,315,0.0,13.0
63098001,CHASTREIX,45.533,2.7745,1385,0.0,15.76
63113001,CLERMONT-FD,45.786833,3.149333,331,0.0,15.559999999999999
63125002,COURPIERE,45.754,3.572333,455,0.0,15.900000000000002
63129001,CROS,45.472,2.595,790,0.0,14.12
63132002,CUNLHAT,45.6345,3.557667,700,0.0,13.260000000000002
63157001,FAYET-LE-CHATEA,45.696667,3.429167,585,0.0,16.4
63163001,GELLES,45.7535,2.799333,784,0.0,11.92
63178001,ISSOIRE,45.535333,3.262333,372,0.0,12.919999999999998
63189005,LAQUEUILLE-INRAE,45.636,2.744667,1095,0.0,16.2
63222001,MEILHAUD,45.543667,3.164333,448,0.0,12.3
63223001,MENAT,46.105167,2.91,410,0.0,9.66
63236003,LE MONT-DORE_SAPC,45.551833,2.8125,1220,0.0,12.26
63263005,FONTAINE-DU-BER_SAPC,45.7995,2.991667,971,0.0,11.780000000000001
63281001,PIONSAT,46.104833,2.687833,524,0.0,10.68
63282001,PLAUZAT_SAPC,45.620167,3.133,495,0.0,14.1
63295001,RANDAN,46.012167,3.354167,394,0.0,15.739999999999998
63298001,LA RENAUDIE,45.737,3.6925,805,0.0,15.460000000000003
63319002,ST-ANTHEME,45.575833,3.886167,1263,0.0,13.1
63320001,SAINT AVIT_SAPC,45.872833,2.5265,724,0.0,13.02
63345002,ST-GENES-CHPLLE-INRAE,45.723,3.019333,893,0.0,11.299999999999999
63353003,ST-GERMAIN-L HE,45.461,3.532667,1070,0.0,12.98
63354004,ST-GERVAIS-D AU,46.032667,2.803833,705,0.0,15.280000000000001
63382001,ST-PARDOUX,46.041167,3.008833,602,0.0,16.0
63393001,ST-REMY-SUR-DUR,45.890333,3.599167,665,0.0,13.98
63399002,ST-SULPICE,45.6465,2.598333,851,0.0,14.180000000000001
63417001,SAYAT_SAPC,45.839667,3.045167,550,0.0,16.64
63426001,TAUVES,45.544667,2.595667,851,0.0,15.520000000000001
63451001,VERNINES,45.669,2.888333,1045,0.0,14.74
64006001,ACCOUS,42.944333,-0.611,495,0.0,11.979999999999999
64010002,AICIRITS,43.335,-1.0205,75,0.0,16.22
64024001,BIARRITZ-PAYS-BASQUE,43.469333,-1.534333,71,1.0,18.96
64068001,ASSON,43.127167,-0.2725,337,0.0,15.060000000000002
64092002,BANCA,43.1285,-1.372667,253,0.0,13.5
64109001,BENEJACQ,43.193333,-0.22,255,0.0,15.239999999999998
64123001,BIDACHE,43.481167,-1.142167,45,0.0,16.4
64155001,BUSTINCE - ST JEAN,43.1715,-1.2095,189,0.0,14.479999999999999
64160001,CAMBO-LES-BAINS,43.361833,-1.382333,71,1.0,18.080000000000002
64189001,SOCOA,43.3945,-1.6865,21,2.0,19.240000000000002
64233001,GARLIN,43.551,-0.272167,209,0.0,17.740000000000002
64238001,GER,43.238333,-0.083833,410,0.0,15.220000000000002
64301002,LAGOR,43.3905,-0.643,125,0.0,17.380000000000003
64310001,LANNE-EN-BARETOUS_SAPC,43.114667,-0.752667,350,0.0,12.419999999999998
64316001,LARRAU,43.02,-0.96,616,0.0,17.479999999999997
64316003,IRATY ORGAMBIDE,43.0335,-1.033833,1427,0.0,16.84
64320003,LARUNS-HOURAT,42.983667,-0.428667,522,0.0,16.52
64324002,LASSEUBE_SAPC,43.2045,-0.4855,247,0.0,15.660000000000002
64331002,LEMBEYE,43.4515,-0.109167,310,2.0,20.119999999999997
64342001,LICQ-ATHEREY,43.047833,-0.885667,288,0.0,12.48
64379001,MENDIVE_SAPC,43.126,-1.135167,292,0.0,16.96
64416001,NAVARRENX,43.324333,-0.7535,135,0.0,15.180000000000001
64422007,OLORON,43.1595,-0.5795,295,0.0,13.959999999999999
64430003,ORTHEZ,43.501333,-0.755,96,0.0,16.8
64450001,POMPS,43.490833,-0.5435,130,0.0,16.84
64453002,PONTACQ_SAPC,43.203333,-0.113833,343,0.0,16.479999999999997
64480001,ST-GLADIE,43.380167,-0.933667,73,0.0,16.54
64537001,TROIS-VILLES,43.133833,-0.876167,216,0.0,14.020000000000001
64543001,UREPEL_SAPC,43.068667,-1.4155,410,0.0,11.84
64549001,PAU-UZEIN,43.385,-0.416333,183,0.0,17.84
65001001,ADAST,42.972833,-0.072167,446,0.0,14.440000000000001
65018001,ARBEOST_SAPC,42.9885,-0.2785,1015,0.0,15.3
65055001,AYROS ARBOUIX,42.998333,-0.0685,478,0.0,16.86
65059001,PIC DU MIDI - OBSERVATOIRE,42.937167,0.141333,2880,0.0,6.279999999999999
65059022,LA MONGIE_SAPC,42.908667,0.170333,1779,0.0,10.24
65125001,CAMPISTROUS,43.127167,0.3665,593,0.0,17.919999999999998
65129003,CASTELNAU MAGNOAC,43.277833,0.5175,298,0.0,14.160000000000002
65138005,CAUTERETS_SAPC,42.8525,-0.147,1535,0.0,10.64
65188005,GAVARNIE_SAPC,42.733833,-0.010833,1410,0.0,9.559999999999999
65258001,LANNEMEZAN,43.113833,0.413167,638,0.0,18.3
65278001,LOMNE_SAPC,43.042833,0.298167,447,0.0,12.979999999999999
65283001,LOUDERVIELLE,42.7965,0.439667,1587,0.0,15.039999999999997
65295003,LUZ SAINT SAUVEUR,42.863833,-0.002833,910,0.0,15.780000000000001
65304001,MAUBOURGUET,43.470667,0.043167,177,0.0,15.64
65344001,TARBES-LOURDES-PYRENEES,43.188,0.0,360,1.0,17.82
65388001,ST LARY SOUL,42.813833,0.317667,826,0.0,12.36
65413400,LAC D'ARDIDEN-NIVOSE,42.848167,-0.066,2445,0.0,6.6
65447001,TOURNAY,43.178833,0.242833,267,0.0,15.3
65460002,VIC EN BIGORRE,43.3755,0.045833,219,0.0,15.2
66024001,LE BOULOU,42.5285,2.8435,77,0.0,15.139999999999997
66029003,CAIXAS,42.587333,2.679833,347,2.0,20.48
66037001,CANET-EN-ROUSSILLON,42.686833,2.983667,16,1.0,16.68
66049001,CERET,42.496333,2.7475,146,2.0,17.48
66067402,PUIGMAL-NIVOSE,42.384667,2.095333,2471,0.0,8.440000000000001
66074002,EUS,42.630167,2.446333,321,1.0,13.779999999999998
66082004,FORMIGUERES,42.616,2.111333,1495,0.0,8.58
66088003,ILLE-SUR-TET,42.659833,2.614167,158,2.0,17.04
66119002,MOSSET,42.675667,2.320333,750,0.0,14.039999999999997
66136001,PERPIGNAN,42.737167,2.872833,42,2.0,17.34
66137003,LE PERTHUS,42.473333,2.8595,295,2.0,19.080000000000002
66148001,CAP BEAR,42.516167,3.133667,72,2.0,21.259999999999998
66157001,RAILLEU,42.586667,2.181,1366,0.0,11.64
66183001,ST MARSAL,42.539167,2.622,690,0.0,15.0
66187006,ST PAUL DE FENOUILLET,42.8205,2.485333,300,1.0,15.920000000000002
66194002,SERRALONGUE,42.399833,2.557667,700,0.0,15.919999999999998
66202001,TARGASONNE,42.504,1.973333,1600,0.0,11.580000000000002
66204002,TAURINYA,42.580333,2.4105,770,0.0,18.6
66204400,CANIGOU-NIVOSE,42.536667,2.465,2160,0.0,9.040000000000001
66206004,LE TECH LA LLAU_SAPC,42.439833,2.5125,927,0.0,17.639999999999997
66212001,TORREILLES,42.755,2.978333,7,0.0,13.940000000000001
66230001,VINCA,42.6555,2.547833,251,0.0,15.2
66233001,VIVES,42.5365,2.760833,261,2.0,20.54
67027001,BELMONT,48.406333,7.267167,1065,0.0,17.04
67029001,BERG,48.884333,7.151667,350,0.0,15.299999999999997
67067001,BRUMATH,48.715667,7.707333,142,0.0,14.4
67083002,DAMBACH_SAPC,48.999333,7.661667,234,0.0,10.42
67115001,EBERSHEIM,48.3085,7.4945,164,1.0,17.04
67122001,WANGENBOURG_SAPC,48.6425,7.307,460,1.0,17.72
67124001,STRASBOURG-ENTZHEIM,48.5495,7.640333,150,0.0,16.28
67126002,ERCKARTSWILLER_SAPC,48.873,7.364167,245,0.0,11.419999999999998
67165006,GRANDFONTAINE_SAPC,48.507667,7.148,736,0.0,16.9
67180001,HAGUENAU,48.836333,7.801167,153,0.0,13.319999999999999
67210002,LE HOHWALD_SAPC,48.4015,7.33,591,0.0,13.24
67443001,SCHEIBENHARD,48.964167,8.1455,144,0.0,16.580000000000002
67462004,SELESTAT SA,48.272833,7.478333,173,0.0,17.0
67482001,STRASBOURG - BOTANIQUE,48.581833,7.768833,139,0.0,17.419999999999998
67498001,UHRWILLER_SAPC,48.883667,7.5815,217,0.0,14.5
67507003,VILLE,48.343,7.306167,264,0.0,14.64
67516001,WALTENHEIM-SUR-ZORN,48.7435,7.61,252,0.0,17.279999999999998
68028001,BERGHEIM-INRAE,48.216333,7.345833,309,0.0,18.880000000000003
68062001,CARSPACH,47.632,7.212833,332,0.0,15.66
68066001,COLMAR-INRAE,48.063333,7.33,202,0.0,17.619999999999997
68102001,GEISHOUSE_SAPC,47.875333,7.056833,618,0.0,17.880000000000003
68112005,GUEBWILLER,47.903667,7.225833,273,0.0,18.7
68165001,KIFFIS,47.438,7.355667,576,0.0,13.62
68171002,KRUTH_SAPC,47.944167,6.955,512,0.0,14.62
68188002,LINTHAL_SAPC,47.9415,7.114,488,0.0,13.88
68190001,LUCELLE_SAPC,47.438333,7.268167,690,0.0,15.080000000000002
68205001,COLMAR-MEYENHEIM,47.928667,7.407667,207,0.0,15.079999999999998
68224006,MULHOUSE,47.75,7.288833,245,0.0,16.54
68226005,MUNSTER_SAPC,48.047167,7.117333,420,0.0,14.559999999999999
68231001,NEUF-BRISACH,48.026167,7.574667,195,0.0,17.5
68247001,ODEREN - VALLEE,47.909667,6.970333,457,0.0,11.379999999999999
68247003,MARKSTEIN CRETE,47.923,7.031667,1184,0.0,15.040000000000001
68249002,ORBEY LAC BLANC_SAPC,48.135833,7.103833,1080,0.0,14.24
68287001,ROUFFACH - CHS,47.954,7.291667,208,0.0,16.84
68297001,BALE-MULHOUSE,47.614333,7.51,263,0.0,14.1
68307001,SEWEN - LAC ALFELD_SAPC,47.8155,6.873833,620,0.0,16.18
68338001,TROIS-EPIS_SAPC,48.1015,7.231,656,1.0,18.48
69008001,ANCY_SAPC,45.843333,4.508167,626,1.0,19.779999999999998
69028001,BRINDAS,45.713333,4.693167,317,0.0,17.279999999999998
69029001,LYON-BRON,45.721333,4.949167,202,0.0,15.959999999999999
69066003,COURS LA VILLE_SAPC,46.098667,4.325833,578,0.0,16.360000000000003
69114001,LIERGUES_SAPC,45.9765,4.650333,290,0.0,15.66
69123002,LYON TETE D'OR,45.772833,4.855167,170,2.0,19.52
69135001,MONSOLS,46.219167,4.523167,525,0.0,15.36
69141001,MORNANT,45.6145,4.673833,343,0.0,15.64
69174002,LES SAUVAGES,45.935333,4.384167,831,0.0,17.52
69196001,ST-DIDIER-BEAUJ,46.164167,4.566333,345,0.0,14.419999999999998
69203001,ST-GENIS-L'ARGENTIERE,45.7,4.4845,512,0.0,15.280000000000001
69204002,ST-GENIS-LAVAL,45.694667,4.782333,290,0.0,18.3
69206001,ST-GEORGES-REN,46.058167,4.710833,190,0.0,14.48
69238001,ST-SYMPHORIEN-C,45.638667,4.471333,610,0.0,14.539999999999997
69239002,SAINT-VERAND,45.916333,4.521167,390,0.0,17.340000000000003
69258001,VAUXRENARD,46.217,4.6285,740,0.0,18.339999999999996
69264001,VILLEFRANCHE,45.987167,4.737667,174,0.0,17.96
69299001,LYON-ST EXUPERY,45.7265,5.077833,235,0.0,18.42
70006001,AILLEVILLERS,47.915,6.338333,275,0.0,12.120000000000001
70061002,BELFAHY_SAPC,47.784167,6.730833,847,1.0,18.9
70104001,BUCEY-LES-GY,47.422667,5.8425,215,0.0,14.84
70132001,CHARGEY-LES-GRAY,47.507,5.5955,244,0.0,15.6
70165001,COMBEAUFONTAINE,47.708667,5.8915,252,0.0,12.62
70168001,CONFLANS-SUR-LA,47.817,6.208667,230,0.0,12.219999999999999
70229001,FAYMONT_SAPC,47.606667,6.585833,398,0.0,17.220000000000002
70245003,FOUGEROLLES_SAPC,47.8985,6.388833,315,0.0,13.419999999999998
70261001,FROTEY_SAPC,47.639167,6.1965,360,0.0,18.439999999999998
70283006,BALLON DE SERVANCE,47.830833,6.791333,1213,0.0,16.08
70414001,PLANCHER-LES-MI,47.772833,6.746333,529,0.0,14.16
70447002,RIOZ,47.438167,6.062,275,0.0,15.2
70473001,LUXEUIL,47.787,6.363833,271,0.0,13.040000000000001
70545001,VENISEY,47.836,5.990167,243,0.0,13.62
70550001,VESOUL VILLE,47.648833,6.163667,242,0.0,13.320000000000002
70561002,VILLERSEXEL SA,47.543667,6.433,290,0.0,14.219999999999999
71014004,AUTUN,46.972,4.263167,303,0.0,11.42
71022003,BAUDEMONT_SAPC,46.285667,4.281833,396,0.0,13.98
71056003,BRANGES_SAPC,46.645833,5.206667,197,0.0,15.76
71081001,CHALON-CHAMPFO,46.827,4.825667,187,0.0,14.24
71105001,MACON,46.2945,4.794333,219,0.0,16.98
71106001,CHAROLLES,46.429,4.2695,309,0.0,12.760000000000002
71190001,EPINAC,46.997667,4.496333,325,0.0,9.7
71230002,GUEUGNON,46.598167,4.020833,305,0.0,15.34
71240001,JALOGNY_SAPC,46.402167,4.651,246,0.0,11.78
71267001,LUGNY,46.477333,4.823333,247,0.0,16.240000000000002
71289001,MATOUR_SAPC,46.304,4.480333,415,0.0,12.960000000000003
71320001,MT-ST-VINCENT,46.627667,4.477,601,2.0,19.520000000000003
71340002,PALINGES,46.554667,4.228,281,0.0,11.7
71464001,ST-MAURICE-LES-COUCHES_SAPC,46.881833,4.594833,300,0.0,17.08
71482001,ST-SYMPHORIEN DE MARMAGNE,46.852167,4.336167,349,0.0,15.66
71491001,ST YAN,46.408333,4.0165,242,0.0,11.9
71523001,SIMARD,46.714167,5.181167,211,0.0,16.0
71541001,TORPES_SAPC,46.837667,5.337333,190,0.0,14.059999999999999
71558001,VARENNES-ST-SA,46.529333,5.255333,207,0.0,15.3
71589001,VITRY/LOIRE,46.691667,3.721667,258,0.0,15.300000000000002
72042001,BOULOIRE,47.984333,0.491833,134,2.0,19.360000000000003
72086001,COMMERVEIL_SAPC,48.315333,0.353667,105,0.0,17.86
72093001,CORMES,48.179667,0.710167,122,0.0,16.439999999999998
72137006,LA FRESNAYE,48.433333,0.212167,146,0.0,13.7
72172003,LE LUART,48.076333,0.591,112,0.0,17.240000000000002
72175002,LUCHE-PRINGE,47.713,0.088167,92,1.0,19.380000000000003
72181001,LE MANS,47.945833,0.194167,51,2.0,19.580000000000002
72189001,MAROLLES LES BR,48.243333,0.340833,65,0.0,16.62
72237001,PIRMIL,47.906833,-0.103333,66,0.0,17.700000000000003
72255001,ROUESSE-VASSE,48.139333,-0.225667,206,4.0,20.36
72264001,SABLE SUR SARTH,47.840167,-0.302667,41,0.0,18.12
72275003,SAINT CORNEILLE,48.078833,0.345,62,0.0,15.319999999999999
72284001,SAINT GERMAIN_SAPC,48.301333,0.093,85,0.0,16.6
72339001,SOULIGNE FLACE,47.964667,0.017333,64,0.0,16.72
72351002,TENNIE,48.1035,-0.05,103,0.0,16.46
72357001,THOREE LES PINS,47.659333,0.0225,78,0.0,17.78
72361001,TRESSON_SAPC,47.885333,0.5595,154,0.0,17.78
72377002,VILLAINES-SOUS-MALICORNE,47.745833,-0.1085,87,0.0,17.06
73013002,ALBIEZ-MONTROND,45.210667,6.336333,1633,0.0,11.2
73026001,AVRIEUX,45.214,6.716833,1104,0.0,11.08
73034002,BEAUFORT-SUR-DORON,45.691,6.568667,1036,0.0,14.52
73040005,BESSANS-CLIM,45.322833,7.002333,1731,0.0,5.5200000000000005
73040400,Bessans,45.320667,6.995333,1713,0.0,7.26
73040402,BONNEVAL-NIVOSE,45.351667,7.051167,2741,0.0,6.82
73051001,MONT DU CHAT,45.6605,5.8215,1496,0.0,14.66
73052002,BOURGET EN HUILE_SAPC,45.486667,6.207667,820,0.0,10.3
73054001,BOURG ST MAURICE,45.612667,6.763333,865,0.0,13.919999999999998
73055001,BOZEL,45.44,6.6495,865,0.0,9.2
73064001,CHALLES LES EAUX,45.565167,5.970333,298,0.0,15.179999999999998
73071403,BELLECOTE-NIVOSE,45.489,6.771167,2992,0.0,5.04
73093001,GRANDE PAREI-NIVOSE,45.614667,6.6475,2260,0.0,9.200000000000001
73098003,FECLAZ_SAPC,45.647167,5.983667,1328,0.0,11.2
73107001,ENTREMONT LE VIEUX_SAPC,45.444167,5.9005,1059,0.0,10.58
73132003,COL-DES-SAISIES,45.755,6.535333,1614,0.0,9.92
73139001,JARSY_SAPC,45.658833,6.176833,832,0.0,12.820000000000002
73139401,ALLANT-NIVOSE,45.663833,6.211833,1684,0.0,14.820000000000002
73144001,MONT CENIS,45.269333,6.899167,2032,0.0,9.34
73146001,LESCHERAINES,45.715167,6.108333,591,0.0,9.34
73150004,LA PLAGNE_SAPC,45.500333,6.675167,2120,0.0,8.38
73167001,MONTGELLAFREY,45.393,6.321,1057,0.0,15.319999999999999
73171002,MONTMELIAN,45.493833,6.049167,264,0.0,14.379999999999999
73176400,La Rosiere,45.629833,6.848333,1867,,
73187006,LA LECHERE_SAPC,45.549167,6.501,1195,0.0,14.320000000000002
73191001,NOVALAISE,45.597333,5.776833,460,0.0,14.040000000000001
73220001,ST-ALBAN DES HURTIERES,45.477167,6.271333,610,0.0,15.559999999999999
73229001,ST-CHRISTOPHE LA-GROTTE,45.452833,5.777333,420,0.0,14.2
73242003,ST JEAN D'ARVES_SAPC,45.206833,6.278833,1573,0.0,12.739999999999998
73244001,ST-JEAN DE BELLEVILLE,45.427667,6.482833,1150,0.0,14.2
73255003,STE MARIE CUINES,45.3435,6.307167,460,0.0,15.84
73257001,ST-MARTIN DE BELLEVILLE,45.368167,6.5105,1443,0.0,8.9
73257003,LA MASSE,45.297333,6.508333,2800,0.0,6.299999999999999
73257005,VAL THORENS_SAPC,45.294,6.581,2277,0.0,6.12
73258001,ST-MARTIN DE LA PORTE,45.238833,6.446167,763,0.0,16.28
73261001,ST-MICHEL DE MAURIENNE LE THYL,45.223667,6.490833,1345,0.0,13.559999999999999
73261003,ST MICHEL MAUR_SAPC,45.218167,6.4645,698,0.0,13.220000000000002
73280001,ST-SORLIN D'ARVES,45.224,6.216333,1694,0.0,10.4
73290002,TERMIGNON-CLIM,45.274833,6.8145,1280,0.0,8.899999999999999
73296005,TIGNES_SAPC,45.467,6.907167,2084,0.0,8.8
73296406,LE CHEVRIL-NIVOSE,45.499667,6.955333,2559,0.0,7.5600000000000005
73297003,ALBERTVILLE,45.627833,6.327667,314,0.0,14.98
73303005,UGINE,45.759167,6.421,539,0.0,16.2
73304005,VAL D'ISERE JOS,45.444833,6.978167,1850,0.0,6.9
73306401,LES ROCHILLES-NIVOSE,45.085,6.469,2444,0.0,7.44
73322001,LA NORMA_SAPC,45.190667,6.7035,1985,0.0,9.98
73329001,CHAMBERY-AIX,45.641333,5.878,235,0.0,15.059999999999999
74014002,LES CARROZ,46.024667,6.644,1151,0.0,15.020000000000001
74014004,FLAINE_SAPC,46.002833,6.697167,1611,0.0,11.66
74024001,AYZE,46.0795,6.431333,449,0.0,13.38
74035001,BLOYE,45.821667,5.944667,375,0.0,14.319999999999999
74042003,BONNEVILLE,46.0685,6.399833,453,0.0,14.48
74045001,LE BOUCHET_SAPC,45.7995,6.367667,925,0.0,13.16
74051002,CERCIER,46.025667,6.039333,492,0.0,14.1
74056001,CHAMONIX,45.9295,6.8775,1042,0.0,9.919999999999998
74056005,LE TOUR,46.003833,6.9485,1500,0.0,12.059999999999999
74056006,AIGUILLE DU MIDI,45.8785,6.8875,3845,0.0,-0.10000000000000002
74056405,AIGUILLES ROUGES-NIVOSE,45.986333,6.896833,2365,0.0,9.979999999999999
74056421,COUVERCLE-NIVOSE,45.909667,6.958833,2758,0.0,7.140000000000001
74060001,CHAPELLE SAINT-MAURICE_SAPC,45.782333,6.152167,970,0.0,16.3
74063002,CHATEL,46.255833,6.818833,1155,0.0,12.780000000000001
74083002,COMBLOUX,45.892833,6.626667,1183,0.0,16.14
74087001,CONTAMINE-SUR- ARVE,46.128667,6.34,452,0.0,14.36
74093001,CRAN-GEVRIER,45.910833,6.107833,426,0.0,14.52
74105002,DOUVAINE SA,46.302333,6.318333,470,0.0,17.4
74119002,EVIAN,46.3965,6.5665,395,0.0,17.56
74119003,EVIAN SA,46.382333,6.5825,725,0.0,15.580000000000002
74133001,GAILLARD,46.176,6.210333,399,0.0,14.02
74135001,GIEZ,45.762667,6.255333,478,0.0,13.280000000000001
74136005,LE GRAND-BORNAND,45.973333,6.471833,1430,0.0,13.620000000000001
74137001,GROISY_SAPC,46.012667,6.1745,670,0.0,13.8
74143003,HOUCHES (LES),45.8925,6.800667,1004,0.0,11.059999999999999
74182001,MEYTHET,45.928167,6.094,455,0.0,15.319999999999999
74191003,LE PLENEY,46.168333,6.692833,1515,0.0,15.219999999999999
74203001,NOVEL,46.368833,6.79,949,0.0,17.82
74211002,PERS JUSSY,46.098,6.2605,747,0.0,16.419999999999998
74221001,REPOSOIR (LE),46.011333,6.5355,975,0.0,11.78
74236002,MONT ARBOIS,45.855333,6.669,1833,0.0,13.76
74256001,SALLANCHES,45.931667,6.640333,542,0.0,12.940000000000001
74258002,SAMOENS,46.086667,6.726667,785,0.0,14.940000000000001
74266001,SERVOZ,45.931167,6.767333,815,0.0,11.780000000000001
74281001,THONON-INRAE,46.366667,6.455,376,0.0,17.3
74285002,USINENS SA,46.013,5.8445,452,0.0,17.02
74286001,VACHERESSE,46.316333,6.669833,790,0.0,13.179999999999998
74290003,VALLORCINE,46.0205,6.919167,1326,0.0,9.1
75106001,LUXEMBOURG,48.844833,2.3385,50,3.0,20.1
75107005,TOUR EIFFEL,48.858333,2.2945,330,5.0,23.0
75110001,LARIBOISIERE,48.882833,2.352,55,5.0,22.78
75114001,PARIS-MONTSOURIS,48.821667,2.337833,75,2.0,19.740000000000002
75114007,PARIS-MONTSOURIS-DOUBLE,48.821667,2.337833,75,3.0,19.78
75116008,LONGCHAMP,48.854833,2.233667,27,0.0,14.26
76116001,ROUEN-BOOS,49.3895,1.178333,156,0.0,17.06
76130001,BOUELLES,49.733167,1.5025,232,1.0,19.639999999999997
76171001,LA CHAPELLE-SAINT-OUEN_SAPC,49.538167,1.439833,197,0.0,16.919999999999998
76208001,CUY SAINT FIACRE_SAPC,49.507833,1.716,104,0.0,12.34
76217001,DIEPPE,49.932833,1.09,40,0.0,16.240000000000002
76228001,ECTOT LES BAONS,49.646667,0.816667,150,0.0,18.18
76255002,EU,50.058,1.421,13,0.0,15.7
76259001,FECAMP,49.767167,0.369167,104,3.0,19.259999999999998
76276001,FORGES,49.6025,1.5225,160,0.0,12.440000000000001
76302002,GODERVILLE,49.642333,0.368167,118,0.0,16.860000000000003
76378001,JUMIEGES,49.435833,0.820833,30,0.0,16.779999999999998
76473001,NOTRE-DAME DE BLIQUETUIT,49.494,0.770667,4,0.0,14.939999999999998
76481001,OCTEVILLE,49.533,0.091667,90,1.0,19.1
76540009,ROUEN - JARDIN,49.422667,1.077333,21,1.0,17.96
76552001,CAP-DE-LA-HEVE,49.509,0.071167,100,4.0,21.22
76582001,ST-GERMAIN-D'ETABLES,49.8395,1.167167,22,0.0,14.280000000000001
76679001,SOMMESNIL,49.705667,0.673667,101,0.0,16.5
76746001,VINNEMERVILLE,49.8145,0.567667,86,0.0,17.64
77054001,LA BROSSE-MX,48.351667,3.023333,77,0.0,14.74
77084001,CHANGIS,48.964667,3.011833,70,0.0,14.819999999999999
77113002,CHEVRU,48.726833,3.203333,158,0.0,15.459999999999999
77148002,CROUY-SUR-OURCQ,49.092833,3.070333,62,0.0,12.839999999999998
77159001,DONNEMARIE,48.474667,3.1265,97,0.0,13.7
77186002,FONTAINEBLEAU_SAPC,48.406,2.6785,84,0.0,12.38
77211001,NANGIS,48.595333,3.007667,128,0.0,14.280000000000001
77239001,JOUY-LE-CHATEL,48.6895,3.125167,135,0.0,15.66
77306001,MELUN,48.610333,2.6795,91,0.0,15.64
77320002,MOUROUX_SAPC,48.847,3.0585,148,0.0,16.340000000000003
77333003,NEMOURS,48.27,2.715,73,0.0,14.459999999999999
77418001,ST-LOUP-DE-NAUD,48.536167,3.210167,99,0.0,12.820000000000002
77468001,TORCY,48.8635,2.651,43,0.0,15.34
77489001,VAUX-SUR-LUNAIN,48.221833,2.934667,136,0.0,15.180000000000001
77530001,VOULTON_SAPC,48.612667,3.350333,175,0.0,15.440000000000001
78005002,ACHERES,48.983167,2.126,31,0.0,14.419999999999998
78354001,MAGNANVILLE,48.963667,1.674167,123,0.0,17.04
78380001,MAULE,48.909167,1.8475,54,0.0,14.38
78481001,LE PECQ,48.887833,2.115833,27,0.0,16.54
78486002,LE PERRAY,48.693667,1.867,174,0.0,14.86
78505001,PRUNAY-LE-TEMPLE_SAPC,48.867833,1.673333,107,,
78620001,TOUSSUS LE NOBLE,48.750667,2.1135,154,0.0,15.98
78621001,TRAPPES,48.774333,2.009833,167,0.0,17.42
78640001,VILLACOUBLAY,48.7725,2.204,174,3.0,19.5
78646002,VERSAILLES- INRAE,48.803333,2.09,121,0.0,14.98
79017001,NUEIL-LES-AUBIERS,46.941167,-0.584167,118,0.0,14.16
79049004,BRESSUIRE,46.839833,-0.515833,191,0.0,17.54
79079013,MAULEON_SAPC,46.928833,-0.757833,150,0.0,16.32
79134001,GLENAY_SAPC,46.856333,-0.253667,121,0.0,16.32
79148001,LEZAY,46.259,-0.011667,128,0.0,14.76
79174002,MELLE,46.235,-0.151333,136,1.0,19.439999999999998
79176001,MENIGOUTE_SAPC,46.494,-0.064333,138,0.0,13.4
79191005,NIORT,46.315833,-0.400167,57,0.0,17.339999999999996
79202003,PARTHENAY_SAPC,46.636833,-0.261,159,0.0,15.459999999999999
79215001,POUGNE-HERISSON_SAPC,46.6605,-0.401833,196,0.0,15.260000000000002
79220002,PRIN-DEYRANCON_SAPC,46.231,-0.668667,8,0.0,16.119999999999997
79270003,SAINT-MAIXENT-L-ECOLE_SAPC,46.417,-0.210333,83,0.0,17.580000000000002
79309001,SCILLE,46.617167,-0.571167,247,4.0,22.14
79311002,SECONDIGNY,46.605333,-0.4385,198,0.0,15.3
79320002,SURIN_SAPC,46.459667,-0.460333,100,5.0,20.78
79326004,THENEZAY STNA,46.725333,-0.020333,132,0.0,15.679999999999998
79329001,THOUARS-STNA,46.989167,-0.207,81,0.0,18.099999999999998
80001001,ABBEVILLE,50.136,1.834,69,1.0,16.779999999999998
80041001,AUMONT,49.883667,1.9295,119,0.0,15.080000000000002
80086002,BERNAVILLE,50.139333,2.1805,146,0.0,16.16
80182003,CAYEUX-SUR-MER,50.187167,1.521167,4,0.0,15.7
80248001,DOMPIERRE-SUR-AUTHIE,50.301,1.9205,36,0.0,15.24
80253002,DOULLENS,50.147667,2.3485,59,0.0,12.959999999999999
80271002,EPEHY_SAPC,50.001167,3.1215,117,0.0,14.680000000000001
80379002,AMIENS-GLISY,49.872,2.3825,60,0.0,15.540000000000001
80523001,MEAULTE,49.971833,2.703833,107,0.0,16.160000000000004
80557001,ESTREES-MONS-INRAE,49.874833,3.031167,87,0.0,16.279999999999998
80606002,OISEMONT_SAPC,49.956833,1.77,121,0.0,16.520000000000003
80628001,LE-PLESSIER-ROZAINVILLERS,49.754333,2.5545,105,0.0,15.739999999999998
80630001,POIX-DE-PICARDIE,49.778167,1.98,109,0.0,13.039999999999997
80682001,ROUVROY-EN-SANTERRE,49.765167,2.698333,95,0.0,13.9
80713001,SAINT-QUENTIN EN TT,50.285667,1.582333,5,0.0,14.7
80801001,VILLERS-CARBONNEL,49.877167,2.897667,81,0.0,16.380000000000003
81014001,ANGLES,43.556833,2.561667,743,0.0,11.4
81069001,CORDES,44.074333,1.955833,174,0.0,12.02
81081002,DOURGNE,43.491333,2.139667,234,1.0,16.82
81115002,LABASTIDE-ROUAIROUX,43.478333,2.657833,448,0.0,12.78
81124001,LACAUNE,43.705,2.7025,811,0.0,12.219999999999999
81140002,LAVAUR,43.693667,1.866167,131,0.0,13.139999999999997
81182004,MONTREDON-LABESSONNIE,43.725,2.3555,566,2.0,19.46
81217002,PUYCELSI,43.981,1.680667,260,0.0,15.719999999999999
81284001,ALBI,43.914667,2.116333,172,0.0,16.22
81292001,TANUS,44.107167,2.279667,537,0.0,17.880000000000003
82033005,CASTELSARRASIN,44.086833,1.129,73,0.0,13.720000000000002
82038006,CAYLUS,44.220167,1.704167,274,0.0,16.939999999999998
82094004,LAUZERTE,44.271,1.1155,231,2.0,19.96
82121002,MONTAUBAN,44.028,1.376667,106,0.0,15.36
82174001,ST-VINCENT,44.173167,1.466167,191,3.0,20.020000000000003
82178002,SAVENES,43.824167,1.175,156,0.0,14.279999999999998
82180001,SERIGNAC,43.931833,1.068333,151,0.0,18.02
83002004,AIGUINES_SAPC,43.7945,6.244833,563,0.0,15.98
83004004,LES ARCS_SAPC,43.451,6.470833,55,0.0,15.3
83007004,AUPS,43.641,6.1875,497,0.0,14.319999999999999
83019002,BORMES LES MIMOSAS,43.195167,6.379333,88,0.0,12.979999999999999
83031001,LE LUC,43.383167,6.386167,80,0.0,15.719999999999999
83035001,LE CASTELLET-AERO,43.252167,5.784667,417,0.0,18.1
83035002,LE CASTELLET_SAPC,43.1845,5.7725,66,0.0,13.4
83042001,COGOLIN_SAPC,43.261667,6.510333,31,0.0,14.919999999999998
83043005,COLLOBRIERES_SAPC,43.232167,6.258,128,0.0,13.280000000000001
83044003,COMPS-SUR-ARTUBY,43.658833,6.471333,892,0.0,13.98
83049005,CUERS,43.247667,6.131333,72,0.0,13.14
83050007,DRAGUIGNAN_SAPC,43.526167,6.453333,173,0.0,17.080000000000002
83051001,ENTRECASTEAUX,43.521333,6.252167,279,0.0,15.719999999999999
83061001,FREJUS,43.4235,6.738,7,0.0,18.18
83061007,FREJUS MONT VINAIGRE,43.502667,6.8155,560,4.0,21.060000000000002
83069001,HYERES,43.1005,6.147,2,0.0,16.36
83069002,PORQUEROLLES,43.000167,6.227167,143,3.0,20.18
83069003,ILE DU LEVANT,43.0325,6.469333,118,3.0,20.419999999999998
83074002,LA MARTRE,43.770667,6.598667,967,0.0,9.52
83075001,LES MAYONS_SAPC,43.316833,6.358333,147,0.0,14.179999999999998
83077001,MEOUNES LES MONTRIEUX_SAPC,43.258,5.964833,309,0.0,13.8
83080001,MONS,43.694333,6.710167,878,0.0,17.54
83083001,MONTFORT-SUR-ARGENS_SAPC,43.469667,6.127,141,0.0,13.959999999999999
83093005,PLAN D'AUPS - STE BAUME_SAPC,43.342667,5.728333,605,0.0,18.72
83101001,CAP CAMARAT,43.2005,6.6745,107,5.0,21.499999999999996
83102005,REGUSSE,43.668167,6.105167,561,0.0,14.86
83104001,RIANS,43.618167,5.7525,390,0.0,13.080000000000002
83116022,ST MAXIMIN LA STE BAUME,43.4775,5.847833,294,0.0,12.7
83124002,SEILLANS,43.580167,6.622167,278,0.0,15.5
83137001,TOULON,43.114,5.9005,3,1.0,19.2
83145001,VARAGES,43.593833,5.962833,348,0.0,14.12
83148002,VIDAUBAN,43.386667,6.525,282,2.0,19.419999999999998
83150002,VINON SUR VERDON,43.734,5.782667,271,0.0,12.4
84003002,APT-VITON,43.881,5.414,242,0.0,14.059999999999999
84003003,APT,43.892,5.381833,222,0.0,14.1
84007005,AVIGNON,43.911333,4.9025,34,0.0,15.779999999999998
84009002,LA BASTIDE DES JOURDANS,43.787333,5.615,381,0.0,14.88
84015002,BEAUMONT-MT  SEREIN,44.180667,5.255833,1445,0.0,14.12
84025001,CABRIERES D'AVIGNON,43.883667,5.164833,142,0.0,14.180000000000001
84026003,CADENET,43.718833,5.353,152,0.0,14.52
84031001,CARPENTRAS,44.083667,5.058333,98,0.0,15.48
84054001,ISLE SUR SORGUE,43.9015,5.051167,64,0.0,14.339999999999998
84064001,LAPALUD,44.3205,4.658167,46,0.0,15.219999999999999
84069001,MALAUCENE,44.168833,5.116333,348,0.0,14.220000000000002
84074004,MERINDOL,43.752167,5.192667,150,0.0,17.22
84085004,MURS,43.938167,5.2255,488,0.0,17.14
84086001,OPPEDE CRETE DU PETIT  LUBERON,43.811,5.146,672,1.0,19.52
84087001,ORANGE,44.1445,4.861,57,1.0,16.5
84094001,PUYMERAS,44.2895,5.131333,392,1.0,18.3
84107002,ST CHRISTOL,44.040667,5.492833,836,0.0,10.219999999999999
84150001,VISAN,44.336667,4.9055,141,1.0,17.04
85005001,ANTIGNY,46.618833,-0.775333,75,0.0,16.46
85051001,CHANTONNAY,46.693333,-1.048333,93,0.0,17.82
85060002,CHATEAU-D'OLONNE,46.477167,-1.725833,27,4.0,20.060000000000002
85092004,FONTENAY,46.448167,-0.779833,20,0.0,17.88
85097001,LA-GAUBRETIERE_SAPC,46.925167,-1.023833,190,5.0,21.779999999999998
85104001,GRUES,46.350167,-1.334833,2,0.0,16.48
85109001,LES HERBIERS,46.855833,-1.018167,103,2.0,17.96
85113001,L ILE D YEU,46.693667,-2.330167,32,2.0,19.240000000000002
85113004,L'ILE D'YEU AERO,46.718167,-2.388667,19,1.0,18.54
85152001,LA MOTHE ACHARD,46.620833,-1.633167,58,2.0,18.94
85153002,MOUCHAMPS_SAPC,46.768333,-1.053333,82,0.0,16.96
85163001,NOIRMOUTIER EN,47.004667,-2.257167,3,2.0,19.88
85169002,PALLUAU,46.808,-1.597667,51,0.0,16.36
85172001,LE PERRIER,46.8265,-1.999833,2,0.0,17.82
85182004,POUZAUGES SA,46.766,-0.830833,153,5.0,22.4
